{
  "success": true,
  "status": "OK",
  "jsessionid": "2C439AA153C31FCBF4A5216B355B8446",
  "response": {
    "attributionURL": "http://www.glassdoor.com/Job/jobs.htm",
    "countReturned": 53,
    "states": {
      "South Carolina": {
        "numJobs": 335,
        "name": "South Carolina",
        "id": 3411,
        "score": 0.6571345232122237,
        "latitude": 33.985115,
        "longitude": -80.96936
      },
      "Rhode Island": {
        "numJobs": 296,
        "name": "Rhode Island",
        "id": 3156,
        "score": 0.721263760402553,
        "latitude": 41.675617,
        "longitude": -71.503815
      },
      "New Mexico": {
        "numJobs": 204,
        "name": "New Mexico",
        "id": 1181,
        "score": 0.6163099966841373,
        "latitude": 34.695763,
        "longitude": -106.22367
      },
      "Alabama": {
        "numJobs": 523,
        "name": "Alabama",
        "id": 105,
        "score": 0.7241443658387173,
        "latitude": 33.074646,
        "longitude": -86.72501
      },
      "Florida": {
        "numJobs": 2153,
        "name": "Florida",
        "id": 3318,
        "score": 0.884203537243891,
        "latitude": 28.63532,
        "longitude": -82.39836
      },
      "California": {
        "numJobs": 5713,
        "name": "California",
        "id": 2280,
        "score": 1,
        "latitude": 37.016674,
        "longitude": -120.15913
      },
      "New Hampshire": {
        "numJobs": 328,
        "name": "New Hampshire",
        "id": 2403,
        "score": 0.7059569238935152,
        "latitude": 43.409595,
        "longitude": -71.541885
      },
      "Puerto Rico": {
        "numJobs": 9,
        "name": "Puerto Rico",
        "id": 1618,
        "score": 0.34645417673796924,
        "latitude": 18.250437,
        "longitude": -66.402916
      },
      "Remote": {
        "numJobs": 9,
        "name": "Remote",
        "id": 11047,
        "score": 0.3677528654114253,
        "latitude": "",
        "longitude": ""
      },
      "Massachusetts": {
        "numJobs": 1462,
        "name": "Massachusetts",
        "id": 3399,
        "score": 0.8507615398402835,
        "latitude": 42.204845,
        "longitude": -71.496826
      },
      "Tennessee": {
        "numJobs": 575,
        "name": "Tennessee",
        "id": 1968,
        "score": 0.7172771349580245,
        "latitude": 35.869774,
        "longitude": -85.69873
      },
      "Maryland": {
        "numJobs": 705,
        "name": "Maryland",
        "id": 3201,
        "score": 0.7482310354636392,
        "latitude": 39.13058,
        "longitude": -76.71935
      },
      "Louisiana": {
        "numJobs": 346,
        "name": "Louisiana",
        "id": 2792,
        "score": 0.6725854143342143,
        "latitude": 31.05971,
        "longitude": -91.839554
      },
      "Ohio": {
        "numJobs": 1907,
        "name": "Ohio",
        "id": 2235,
        "score": 0.8682212350410138,
        "latitude": 40.20804,
        "longitude": -82.68456
      },
      "West Virginia": {
        "numJobs": 127,
        "name": "West Virginia",
        "id": 1939,
        "score": 0.5474811127082276,
        "latitude": 38.646973,
        "longitude": -80.79809
      },
      "Idaho": {
        "numJobs": 230,
        "name": "Idaho",
        "id": 132,
        "score": 0.6547855275442584,
        "latitude": 44.72104,
        "longitude": -114.83413
      },
      "Virginia": {
        "numJobs": 852,
        "name": "Virginia",
        "id": 323,
        "score": 0.7589108785801605,
        "latitude": 37.71112,
        "longitude": -78.51438
      },
      "Mississippi": {
        "numJobs": 108,
        "name": "Mississippi",
        "id": 1553,
        "score": 0.5208165513917511,
        "latitude": 32.81446,
        "longitude": -89.712814
      },
      "Texas": {
        "numJobs": 3248,
        "name": "Texas",
        "id": 1347,
        "score": 0.9231486203799556,
        "latitude": 30.541521,
        "longitude": -97.844345
      },
      "Vermont": {
        "numJobs": 78,
        "name": "Vermont",
        "id": 1765,
        "score": 0.5249186729554532,
        "latitude": 44.01336,
        "longitude": -72.68488
      },
      "Wyoming": {
        "numJobs": 60,
        "name": "Wyoming",
        "id": 1258,
        "score": 0.48002400078176366,
        "latitude": 42.800774,
        "longitude": -107.330284
      },
      "New York": {
        "numJobs": 2655,
        "name": "New York",
        "id": 428,
        "score": 0.9170104623315307,
        "latitude": 42.56897,
        "longitude": -75.477
      },
      "Kansas": {
        "numJobs": 370,
        "name": "Kansas",
        "id": 3107,
        "score": 0.6822048050170116,
        "latitude": 38.453106,
        "longitude": -97.173775
      },
      "Michigan": {
        "numJobs": 1404,
        "name": "Michigan",
        "id": 527,
        "score": 0.8516695493118008,
        "latitude": 43.92309,
        "longitude": -85.22649
      },
      "New Jersey": {
        "numJobs": 1070,
        "name": "New Jersey",
        "id": 39,
        "score": 0.7990090345259161,
        "latitude": 40.219467,
        "longitude": -74.63167
      },
      "Colorado": {
        "numJobs": 1004,
        "name": "Colorado",
        "id": 2519,
        "score": 0.802820912943678,
        "latitude": 39.152225,
        "longitude": -105.41113
      },
      "Pennsylvania": {
        "numJobs": 2232,
        "name": "Pennsylvania",
        "id": 3185,
        "score": 0.8882592030833428,
        "latitude": 40.60347,
        "longitude": -77.41482
      },
      "Maine": {
        "numJobs": 147,
        "name": "Maine",
        "id": 758,
        "score": 0.5910396385886851,
        "latitude": 44.6072,
        "longitude": -69.434845
      },
      "Arkansas": {
        "numJobs": 203,
        "name": "Arkansas",
        "id": 1892,
        "score": 0.5978176943613134,
        "latitude": 34.997967,
        "longitude": -92.32213
      },
      "Missouri": {
        "numJobs": 725,
        "name": "Missouri",
        "id": 386,
        "score": 0.7455138874039617,
        "latitude": 38.196053,
        "longitude": -92.25109
      },
      "Iowa": {
        "numJobs": 366,
        "name": "Iowa",
        "id": 2733,
        "score": 0.6690290910753341,
        "latitude": 42.001587,
        "longitude": -93.15462
      },
      "North Dakota": {
        "numJobs": 79,
        "name": "North Dakota",
        "id": 3517,
        "score": 0.5071609444390175,
        "latitude": 47.52474,
        "longitude": -99.81501
      },
      "Oregon": {
        "numJobs": 675,
        "name": "Oregon",
        "id": 3163,
        "score": 0.7734817914924917,
        "latitude": 44.54903,
        "longitude": -122.14273
      },
      "Indiana": {
        "numJobs": 675,
        "name": "Indiana",
        "id": 2124,
        "score": 0.7322946235361377,
        "latitude": 39.853703,
        "longitude": -86.26825
      },
      "Wisconsin": {
        "numJobs": 828,
        "name": "Wisconsin",
        "id": 481,
        "score": 0.781678643547409,
        "latitude": 44.22958,
        "longitude": -89.65535
      },
      "Nevada": {
        "numJobs": 446,
        "name": "Nevada",
        "id": 2756,
        "score": 0.7298470741132197,
        "latitude": 39.09225,
        "longitude": -116.94037
      },
      "Minnesota": {
        "numJobs": 864,
        "name": "Minnesota",
        "id": 1775,
        "score": 0.7881131730179045,
        "latitude": 45.81953,
        "longitude": -93.99869
      },
      "Washington": {
        "numJobs": 1067,
        "name": "Washington",
        "id": 3020,
        "score": 0.8102921602859848,
        "latitude": 47.318367,
        "longitude": -121.16399
      },
      "Delaware": {
        "numJobs": 187,
        "name": "Delaware",
        "id": 3523,
        "score": 0.6400762275749151,
        "latitude": 39.267464,
        "longitude": -75.50684
      },
      "Illinois": {
        "numJobs": 1783,
        "name": "Illinois",
        "id": 302,
        "score": 0.8485117164405775,
        "latitude": 40.22442,
        "longitude": -89.00813
      },
      "Hawaii": {
        "numJobs": 203,
        "name": "Hawaii",
        "id": 1385,
        "score": 0.6818861941708573,
        "latitude": 20.773073,
        "longitude": -156.91919
      },
      "Connecticut": {
        "numJobs": 508,
        "name": "Connecticut",
        "id": 2697,
        "score": 0.7291878417980188,
        "latitude": 41.5664,
        "longitude": -72.77289
      },
      "Montana": {
        "numJobs": 98,
        "name": "Montana",
        "id": 669,
        "score": 0.5393202622377125,
        "latitude": 46.91542,
        "longitude": -110.718666
      },
      "District of Columbia": {
        "numJobs": 136,
        "name": "District of Columbia",
        "id": 1211,
        "score": 0.5629381609799479,
        "latitude": 38.895,
        "longitude": -77.03667
      },
      "Oklahoma": {
        "numJobs": 317,
        "name": "Oklahoma",
        "id": 847,
        "score": 0.6568745921749417,
        "latitude": 35.427067,
        "longitude": -96.773994
      },
      "North Carolina": {
        "numJobs": 641,
        "name": "North Carolina",
        "id": 1282,
        "score": 0.7237658612179373,
        "latitude": 35.576843,
        "longitude": -79.53007
      },
      "Arizona": {
        "numJobs": 1125,
        "name": "Arizona",
        "id": 483,
        "score": 0.8325436560535909,
        "latitude": 33.67677,
        "longitude": -111.58828
      },
      "Kentucky": {
        "numJobs": 464,
        "name": "Kentucky",
        "id": 1141,
        "score": 0.6994740742014388,
        "latitude": 37.58137,
        "longitude": -84.888466
      },
      "Alaska": {
        "numJobs": 116,
        "name": "Alaska",
        "id": 496,
        "score": 0.5971801069756766,
        "latitude": 61.27834,
        "longitude": -150.32988
      },
      "Georgia": {
        "numJobs": 765,
        "name": "Georgia",
        "id": 3426,
        "score": 0.7453662297299694,
        "latitude": 33.18301,
        "longitude": -83.751396
      },
      "Utah": {
        "numJobs": 429,
        "name": "Utah",
        "id": 255,
        "score": 0.7191704646642343,
        "latitude": 40.30287,
        "longitude": -111.84235
      },
      "Nebraska": {
        "numJobs": 344,
        "name": "Nebraska",
        "id": 792,
        "score": 0.6983971200624187,
        "latitude": 41.321033,
        "longitude": -98.7876
      },
      "South Dakota": {
        "numJobs": 109,
        "name": "South Dakota",
        "id": 1502,
        "score": 0.5555605313274498,
        "latitude": 44.289787,
        "longitude": -99.61724
      }
    },
    "cities": [
      {
        "numJobs": 707,
        "name": "New York, NY",
        "stateAbbreviation": "NY",
        "stateName": "New York",
        "id": 1132348,
        "latitude": 40.71417,
        "longitude": -74.00639
      },
      {
        "numJobs": 525,
        "name": "Chicago, IL",
        "stateAbbreviation": "IL",
        "stateName": "Illinois",
        "id": 1128808,
        "latitude": 41.85,
        "longitude": -87.65
      },
      {
        "numJobs": 522,
        "name": "Houston, TX",
        "stateAbbreviation": "TX",
        "stateName": "Texas",
        "id": 1140171,
        "latitude": 29.76306,
        "longitude": -95.36306
      },
      {
        "numJobs": 415,
        "name": "San Francisco, CA",
        "stateAbbreviation": "CA",
        "stateName": "California",
        "id": 1147401,
        "latitude": 37.775,
        "longitude": -122.41833
      },
      {
        "numJobs": 382,
        "name": "Dallas, TX",
        "stateAbbreviation": "TX",
        "stateName": "Texas",
        "id": 1139977,
        "latitude": 32.78333,
        "longitude": -96.8
      },
      {
        "numJobs": 373,
        "name": "Los Angeles, CA",
        "stateAbbreviation": "CA",
        "stateName": "California",
        "id": 1146821,
        "latitude": 34.05222,
        "longitude": -118.24278
      },
      {
        "numJobs": 368,
        "name": "Phoenix, AZ",
        "stateAbbreviation": "AZ",
        "stateName": "Arizona",
        "id": 1133904,
        "latitude": 33.44833,
        "longitude": -112.07333
      },
      {
        "numJobs": 326,
        "name": "Pittsburgh, PA",
        "stateAbbreviation": "PA",
        "stateName": "Pennsylvania",
        "id": 1152990,
        "latitude": 40.44056,
        "longitude": -79.99611
      },
      {
        "numJobs": 308,
        "name": "Birmingham, AL",
        "stateAbbreviation": "AL",
        "stateName": "Alabama",
        "id": 1127429,
        "latitude": 33.52056,
        "longitude": -86.8025
      },
      {
        "numJobs": 273,
        "name": "Austin, TX",
        "stateAbbreviation": "TX",
        "stateName": "Texas",
        "id": 1139761,
        "latitude": 30.26694,
        "longitude": -97.74278
      },
      {
        "numJobs": 267,
        "name": "Columbus, OH",
        "stateAbbreviation": "OH",
        "stateName": "Ohio",
        "id": 1145845,
        "latitude": 39.96111,
        "longitude": -82.99889
      },
      {
        "numJobs": 253,
        "name": "San Antonio, TX",
        "stateAbbreviation": "TX",
        "stateName": "Texas",
        "id": 1140494,
        "latitude": 29.42389,
        "longitude": -98.49333
      },
      {
        "numJobs": 251,
        "name": "Philadelphia, PA",
        "stateAbbreviation": "PA",
        "stateName": "Pennsylvania",
        "id": 1152672,
        "latitude": 39.95222,
        "longitude": -75.16417
      },
      {
        "numJobs": 251,
        "name": "Cincinnati, OH",
        "stateAbbreviation": "OH",
        "stateName": "Ohio",
        "id": 1145705,
        "latitude": 39.16194,
        "longitude": -84.45694
      },
      {
        "numJobs": 243,
        "name": "Atlanta, GA",
        "stateAbbreviation": "GA",
        "stateName": "Georgia",
        "id": 1155583,
        "latitude": 33.74889,
        "longitude": -84.38806
      },
      {
        "numJobs": 242,
        "name": "San Diego, CA",
        "stateAbbreviation": "CA",
        "stateName": "California",
        "id": 1147311,
        "latitude": 32.71528,
        "longitude": -117.15639
      },
      {
        "numJobs": 241,
        "name": "Tampa, FL",
        "stateAbbreviation": "FL",
        "stateName": "Florida",
        "id": 1154429,
        "latitude": 27.94722,
        "longitude": -82.45861
      },
      {
        "numJobs": 237,
        "name": "Seattle, WA",
        "stateAbbreviation": "WA",
        "stateName": "Washington",
        "id": 1150505,
        "latitude": 47.60639,
        "longitude": -122.33083
      },
      {
        "numJobs": 221,
        "name": "Denver, CO",
        "stateAbbreviation": "CO",
        "stateName": "Colorado",
        "id": 1148170,
        "latitude": 39.73917,
        "longitude": -104.98417
      },
      {
        "numJobs": 217,
        "name": "Portland, OR",
        "stateAbbreviation": "OR",
        "stateName": "Oregon",
        "id": 1151614,
        "latitude": 45.52361,
        "longitude": -122.675
      },
      {
        "numJobs": 217,
        "name": "San Jose, CA",
        "stateAbbreviation": "CA",
        "stateName": "California",
        "id": 1147436,
        "latitude": 37.33944,
        "longitude": -121.89389
      },
      {
        "numJobs": 212,
        "name": "Indianapolis, IN",
        "stateAbbreviation": "IN",
        "stateName": "Indiana",
        "id": 1145013,
        "latitude": 39.76833,
        "longitude": -86.15806
      },
      {
        "numJobs": 211,
        "name": "Omaha, NE",
        "stateAbbreviation": "NE",
        "stateName": "Nebraska",
        "id": 1136440,
        "latitude": 41.25861,
        "longitude": -95.9375
      },
      {
        "numJobs": 206,
        "name": "Las Vegas, NV",
        "stateAbbreviation": "NV",
        "stateName": "Nevada",
        "id": 1149603,
        "latitude": 36.175,
        "longitude": -115.13639
      },
      {
        "numJobs": 199,
        "name": "Miami, FL",
        "stateAbbreviation": "FL",
        "stateName": "Florida",
        "id": 1154170,
        "latitude": 25.77389,
        "longitude": -80.19389
      },
      {
        "numJobs": 199,
        "name": "Buffalo, NY",
        "stateAbbreviation": "NY",
        "stateName": "New York",
        "id": 1131850,
        "latitude": 42.88639,
        "longitude": -78.87861
      },
      {
        "numJobs": 199,
        "name": "Minneapolis, MN",
        "stateAbbreviation": "MN",
        "stateName": "Minnesota",
        "id": 1142551,
        "latitude": 44.98,
        "longitude": -93.26361
      },
      {
        "numJobs": 185,
        "name": "Boston, MA",
        "stateAbbreviation": "MA",
        "stateName": "Massachusetts",
        "id": 1154532,
        "latitude": 42.35833,
        "longitude": -71.06028
      },
      {
        "numJobs": 174,
        "name": "Louisville, KY",
        "stateAbbreviation": "KY",
        "stateName": "Kentucky",
        "id": 1137724,
        "latitude": 38.25417,
        "longitude": -85.75944
      },
      {
        "numJobs": 173,
        "name": "Charlotte, NC",
        "stateAbbreviation": "NC",
        "stateName": "North Carolina",
        "id": 1138644,
        "latitude": 35.22694,
        "longitude": -80.84333
      },
      {
        "numJobs": 164,
        "name": "Scottsdale, AZ",
        "stateAbbreviation": "AZ",
        "stateName": "Arizona",
        "id": 1133911,
        "latitude": 33.50917,
        "longitude": -111.89833
      },
      {
        "numJobs": 158,
        "name": "Honolulu, HI",
        "stateAbbreviation": "HI",
        "stateName": "Hawaii",
        "id": 1140656,
        "latitude": 21.30694,
        "longitude": -157.85834
      },
      {
        "numJobs": 155,
        "name": "Salt Lake City, UT",
        "stateAbbreviation": "UT",
        "stateName": "Utah",
        "id": 1128289,
        "latitude": 40.76083,
        "longitude": -111.89028
      },
      {
        "numJobs": 151,
        "name": "Saint Louis, MO",
        "stateAbbreviation": "MO",
        "stateName": "Missouri",
        "id": 1131270,
        "latitude": 38.636864,
        "longitude": -90.28388
      },
      {
        "numJobs": 148,
        "name": "Cleveland, OH",
        "stateAbbreviation": "OH",
        "stateName": "Ohio",
        "id": 1145778,
        "latitude": 41.49944,
        "longitude": -81.69556
      },
      {
        "numJobs": 146,
        "name": "Nashville, TN",
        "stateAbbreviation": "TN",
        "stateName": "Tennessee",
        "id": 1144541,
        "latitude": 36.16583,
        "longitude": -86.78444
      },
      {
        "numJobs": 145,
        "name": "Sacramento, CA",
        "stateAbbreviation": "CA",
        "stateName": "California",
        "id": 1147229,
        "latitude": 38.58167,
        "longitude": -121.49333
      },
      {
        "numJobs": 139,
        "name": "Jacksonville, FL",
        "stateAbbreviation": "FL",
        "stateName": "Florida",
        "id": 1154093,
        "latitude": 30.33194,
        "longitude": -81.65583
      },
      {
        "numJobs": 136,
        "name": "Washington, DC",
        "stateAbbreviation": "DC",
        "stateName": "District of Columbia",
        "id": 1138213,
        "latitude": 38.895,
        "longitude": -77.03667
      },
      {
        "numJobs": 120,
        "name": "Irvine, CA",
        "stateAbbreviation": "CA",
        "stateName": "California",
        "id": 1146798,
        "latitude": 33.66944,
        "longitude": -117.82222
      },
      {
        "numJobs": 115,
        "name": "Baltimore, MD",
        "stateAbbreviation": "MD",
        "stateName": "Maryland",
        "id": 1153527,
        "latitude": 39.29028,
        "longitude": -76.6125
      },
      {
        "numJobs": 115,
        "name": "Tucson, AZ",
        "stateAbbreviation": "AZ",
        "stateName": "Arizona",
        "id": 1133996,
        "latitude": 32.22167,
        "longitude": -110.92583
      },
      {
        "numJobs": 107,
        "name": "Albuquerque, NM",
        "stateAbbreviation": "NM",
        "stateName": "New Mexico",
        "id": 1137959,
        "latitude": 35.08444,
        "longitude": -106.65056
      },
      {
        "numJobs": 107,
        "name": "Brooklyn, NY",
        "stateAbbreviation": "NY",
        "stateName": "New York",
        "id": 1132200,
        "latitude": 40.65,
        "longitude": -73.95
      },
      {
        "numJobs": 105,
        "name": "Oklahoma City, OK",
        "stateAbbreviation": "OK",
        "stateName": "Oklahoma",
        "id": 1136950,
        "latitude": 35.4675,
        "longitude": -97.51611
      },
      {
        "numJobs": 105,
        "name": "Irving, TX",
        "stateAbbreviation": "TX",
        "stateName": "Texas",
        "id": 1140006,
        "latitude": 32.81389,
        "longitude": -96.94861
      },
      {
        "numJobs": 105,
        "name": "Milwaukee, WI",
        "stateAbbreviation": "WI",
        "stateName": "Wisconsin",
        "id": 1133579,
        "latitude": 43.03889,
        "longitude": -87.90639
      },
      {
        "numJobs": 101,
        "name": "Plano, TX",
        "stateAbbreviation": "TX",
        "stateName": "Texas",
        "id": 1140045,
        "latitude": 33.01972,
        "longitude": -96.69861
      },
      {
        "numJobs": 98,
        "name": "Fort Worth, TX",
        "stateAbbreviation": "TX",
        "stateName": "Texas",
        "id": 1139993,
        "latitude": 32.72528,
        "longitude": -97.32056
      },
      {
        "numJobs": 97,
        "name": "Kansas City, MO",
        "stateAbbreviation": "MO",
        "stateName": "Missouri",
        "id": 1131040,
        "latitude": 39.09972,
        "longitude": -94.57833
      },
      {
        "numJobs": 96,
        "name": "Overland Park, KS",
        "stateAbbreviation": "KS",
        "stateName": "Kansas",
        "id": 1151049,
        "latitude": 38.98222,
        "longitude": -94.67056
      },
      {
        "numJobs": 90,
        "name": "Orlando, FL",
        "stateAbbreviation": "FL",
        "stateName": "Florida",
        "id": 1154247,
        "latitude": 28.53806,
        "longitude": -81.37944
      },
      {
        "numJobs": 90,
        "name": "Tempe, AZ",
        "stateAbbreviation": "AZ",
        "stateName": "Arizona",
        "id": 1133917,
        "latitude": 33.41472,
        "longitude": -111.90861
      },
      {
        "numJobs": 88,
        "name": "Albany, NY",
        "stateAbbreviation": "NY",
        "stateName": "New York",
        "id": 1131650,
        "latitude": 42.6525,
        "longitude": -73.75667
      },
      {
        "numJobs": 87,
        "name": "Madison, WI",
        "stateAbbreviation": "WI",
        "stateName": "Wisconsin",
        "id": 1133470,
        "latitude": 43.07306,
        "longitude": -89.40111
      },
      {
        "numJobs": 87,
        "name": "Rochester, NY",
        "stateAbbreviation": "NY",
        "stateName": "New York",
        "id": 1132765,
        "latitude": 43.15472,
        "longitude": -77.61583
      },
      {
        "numJobs": 86,
        "name": "Richardson, TX",
        "stateAbbreviation": "TX",
        "stateName": "Texas",
        "id": 1140053,
        "latitude": 32.94806,
        "longitude": -96.72944
      },
      {
        "numJobs": 80,
        "name": "Raleigh, NC",
        "stateAbbreviation": "NC",
        "stateName": "North Carolina",
        "id": 1138960,
        "latitude": 35.77194,
        "longitude": -78.63889
      },
      {
        "numJobs": 79,
        "name": "Grand Rapids, MI",
        "stateAbbreviation": "MI",
        "stateName": "Michigan",
        "id": 1134796,
        "latitude": 42.96333,
        "longitude": -85.66806
      },
      {
        "numJobs": 79,
        "name": "Tulsa, OK",
        "stateAbbreviation": "OK",
        "stateName": "Oklahoma",
        "id": 1137055,
        "latitude": 36.15389,
        "longitude": -95.9925
      },
      {
        "numJobs": 79,
        "name": "Ann Arbor, MI",
        "stateAbbreviation": "MI",
        "stateName": "Michigan",
        "id": 1134560,
        "latitude": 42.27083,
        "longitude": -83.72639
      },
      {
        "numJobs": 77,
        "name": "Richmond, VA",
        "stateAbbreviation": "VA",
        "stateName": "Virginia",
        "id": 1130198,
        "latitude": 37.55361,
        "longitude": -77.46056
      },
      {
        "numJobs": 77,
        "name": "Colorado Springs, CO",
        "stateAbbreviation": "CO",
        "stateName": "Colorado",
        "id": 1148136,
        "latitude": 38.83389,
        "longitude": -104.82083
      },
      {
        "numJobs": 76,
        "name": "Des Moines, IA",
        "stateAbbreviation": "IA",
        "stateName": "Iowa",
        "id": 1149246,
        "latitude": 41.60056,
        "longitude": -93.60889
      },
      {
        "numJobs": 75,
        "name": "Orange, CA",
        "stateAbbreviation": "CA",
        "stateName": "California",
        "id": 1146843,
        "latitude": 33.78778,
        "longitude": -117.85222
      },
      {
        "numJobs": 75,
        "name": "Bronx, NY",
        "stateAbbreviation": "NY",
        "stateName": "New York",
        "id": 1132197,
        "latitude": 40.85,
        "longitude": -73.86667
      },
      {
        "numJobs": 74,
        "name": "Toledo, OH",
        "stateAbbreviation": "OH",
        "stateName": "Ohio",
        "id": 1146248,
        "latitude": 41.66389,
        "longitude": -83.55528
      },
      {
        "numJobs": 72,
        "name": "Sarasota, FL",
        "stateAbbreviation": "FL",
        "stateName": "Florida",
        "id": 1154350,
        "latitude": 27.33611,
        "longitude": -82.53083
      },
      {
        "numJobs": 71,
        "name": "Wilmington, DE",
        "stateAbbreviation": "DE",
        "stateName": "Delaware",
        "id": 1156375,
        "latitude": 39.74583,
        "longitude": -75.54694
      },
      {
        "numJobs": 70,
        "name": "Troy, MI",
        "stateAbbreviation": "MI",
        "stateName": "Michigan",
        "id": 1134737,
        "latitude": 42.60556,
        "longitude": -83.15
      },
      {
        "numJobs": 70,
        "name": "Mesa, AZ",
        "stateAbbreviation": "AZ",
        "stateName": "Arizona",
        "id": 1133897,
        "latitude": 33.42222,
        "longitude": -111.82194
      },
      {
        "numJobs": 69,
        "name": "Green Bay, WI",
        "stateAbbreviation": "WI",
        "stateName": "Wisconsin",
        "id": 1133406,
        "latitude": 44.51917,
        "longitude": -88.01972
      },
      {
        "numJobs": 67,
        "name": "Oakland, CA",
        "stateAbbreviation": "CA",
        "stateName": "California",
        "id": 1147380,
        "latitude": 37.80444,
        "longitude": -122.26972
      },
      {
        "numJobs": 66,
        "name": "Fresno, CA",
        "stateAbbreviation": "CA",
        "stateName": "California",
        "id": 1146705,
        "latitude": 36.74778,
        "longitude": -119.77139
      },
      {
        "numJobs": 64,
        "name": "Detroit, MI",
        "stateAbbreviation": "MI",
        "stateName": "Michigan",
        "id": 1134644,
        "latitude": 42.33139,
        "longitude": -83.04583
      },
      {
        "numJobs": 63,
        "name": "Memphis, TN",
        "stateAbbreviation": "TN",
        "stateName": "Tennessee",
        "id": 1144463,
        "latitude": 35.14944,
        "longitude": -90.04889
      },
      {
        "numJobs": 63,
        "name": "Lake Mary, FL",
        "stateAbbreviation": "FL",
        "stateName": "Florida",
        "id": 1154234,
        "latitude": 28.75861,
        "longitude": -81.31806
      },
      {
        "numJobs": 63,
        "name": "Glendale, CA",
        "stateAbbreviation": "CA",
        "stateName": "California",
        "id": 1146787,
        "latitude": 34.1425,
        "longitude": -118.25417
      },
      {
        "numJobs": 63,
        "name": "Alpharetta, GA",
        "stateAbbreviation": "GA",
        "stateName": "Georgia",
        "id": 1155582,
        "latitude": 34.07528,
        "longitude": -84.29417
      },
      {
        "numJobs": 63,
        "name": "Hartford, CT",
        "stateAbbreviation": "CT",
        "stateName": "Connecticut",
        "id": 1148399,
        "latitude": 41.76361,
        "longitude": -72.68556
      },
      {
        "numJobs": 62,
        "name": "Urbandale, IA",
        "stateAbbreviation": "IA",
        "stateName": "Iowa",
        "id": 1149281,
        "latitude": 41.62667,
        "longitude": -93.71194
      },
      {
        "numJobs": 61,
        "name": "Schaumburg, IL",
        "stateAbbreviation": "IL",
        "stateName": "Illinois",
        "id": 1128969,
        "latitude": 42.03333,
        "longitude": -88.08333
      },
      {
        "numJobs": 61,
        "name": "Baton Rouge, LA",
        "stateAbbreviation": "LA",
        "stateName": "Louisiana",
        "id": 1149789,
        "latitude": 30.45056,
        "longitude": -91.15444
      },
      {
        "numJobs": 59,
        "name": "Bellevue, WA",
        "stateAbbreviation": "WA",
        "stateName": "Washington",
        "id": 1150442,
        "latitude": 47.61056,
        "longitude": -122.19944
      },
      {
        "numJobs": 59,
        "name": "Columbia, SC",
        "stateAbbreviation": "SC",
        "stateName": "South Carolina",
        "id": 1155132,
        "latitude": 34.00056,
        "longitude": -81.035
      },
      {
        "numJobs": 59,
        "name": "Roseville, CA",
        "stateAbbreviation": "CA",
        "stateName": "California",
        "id": 1147226,
        "latitude": 38.75222,
        "longitude": -121.28694
      },
      {
        "numJobs": 58,
        "name": "Vancouver, WA",
        "stateAbbreviation": "WA",
        "stateName": "Washington",
        "id": 1150413,
        "latitude": 45.63889,
        "longitude": -122.66028
      },
      {
        "numJobs": 58,
        "name": "Anchorage, AK",
        "stateAbbreviation": "AK",
        "stateName": "Alaska",
        "id": 1134201,
        "latitude": 61.21806,
        "longitude": -149.90028
      },
      {
        "numJobs": 58,
        "name": "Saint Paul, MN",
        "stateAbbreviation": "MN",
        "stateName": "Minnesota",
        "id": 1142575,
        "latitude": 44.94444,
        "longitude": -93.09306
      },
      {
        "numJobs": 57,
        "name": "Akron, OH",
        "stateAbbreviation": "OH",
        "stateName": "Ohio",
        "id": 1145529,
        "latitude": 41.08139,
        "longitude": -81.51917
      },
      {
        "numJobs": 54,
        "name": "Virginia Beach, VA",
        "stateAbbreviation": "VA",
        "stateName": "Virginia",
        "id": 1130324,
        "latitude": 36.85278,
        "longitude": -75.97833
      },
      {
        "numJobs": 54,
        "name": "Arlington, VA",
        "stateAbbreviation": "VA",
        "stateName": "Virginia",
        "id": 1130337,
        "latitude": 38.89028,
        "longitude": -77.08444
      },
      {
        "numJobs": 54,
        "name": "San Mateo, CA",
        "stateAbbreviation": "CA",
        "stateName": "California",
        "id": 1147406,
        "latitude": 37.56306,
        "longitude": -122.32444
      },
      {
        "numJobs": 53,
        "name": "Kalamazoo, MI",
        "stateAbbreviation": "MI",
        "stateName": "Michigan",
        "id": 1134900,
        "latitude": 42.29167,
        "longitude": -85.58722
      },
      {
        "numJobs": 53,
        "name": "Naperville, IL",
        "stateAbbreviation": "IL",
        "stateName": "Illinois",
        "id": 1128928,
        "latitude": 41.78583,
        "longitude": -88.14722
      },
      {
        "numJobs": 53,
        "name": "Lexington-Fayette, KY",
        "stateAbbreviation": "KY",
        "stateName": "Kentucky",
        "id": 3749474,
        "latitude": 38.04972,
        "longitude": -84.45861
      },
      {
        "numJobs": 53,
        "name": "Santa Rosa, CA",
        "stateAbbreviation": "CA",
        "stateName": "California",
        "id": 1147518,
        "latitude": 38.44056,
        "longitude": -122.71333
      },
      {
        "numJobs": 52,
        "name": "Fort Lauderdale, FL",
        "stateAbbreviation": "FL",
        "stateName": "Florida",
        "id": 1154160,
        "latitude": 26.12194,
        "longitude": -80.14361
      },
      {
        "numJobs": 52,
        "name": "Eugene, OR",
        "stateAbbreviation": "OR",
        "stateName": "Oregon",
        "id": 1151469,
        "latitude": 44.05222,
        "longitude": -123.08556
      },
      {
        "numJobs": 52,
        "name": "Spokane, WA",
        "stateAbbreviation": "WA",
        "stateName": "Washington",
        "id": 1150554,
        "latitude": 47.65889,
        "longitude": -117.425
      },
      {
        "numJobs": 52,
        "name": "New Orleans, LA",
        "stateAbbreviation": "LA",
        "stateName": "Louisiana",
        "id": 1150035,
        "latitude": 29.95444,
        "longitude": -90.075
      },
      {
        "numJobs": 52,
        "name": "Charleston, SC",
        "stateAbbreviation": "SC",
        "stateName": "South Carolina",
        "id": 1155074,
        "latitude": 32.77639,
        "longitude": -79.93111
      },
      {
        "numJobs": 51,
        "name": "West Palm Beach, FL",
        "stateAbbreviation": "FL",
        "stateName": "Florida",
        "id": 1154182,
        "latitude": 26.715,
        "longitude": -80.05361
      },
      {
        "numJobs": 51,
        "name": "Staten Island, NY",
        "stateAbbreviation": "NY",
        "stateName": "New York",
        "id": 1132430,
        "latitude": 40.58901,
        "longitude": -74.145874
      },
      {
        "numJobs": 51,
        "name": "Torrance, CA",
        "stateAbbreviation": "CA",
        "stateName": "California",
        "id": 1146894,
        "latitude": 33.83583,
        "longitude": -118.33972
      },
      {
        "numJobs": 50,
        "name": "Boise, ID",
        "stateAbbreviation": "ID",
        "stateName": "Idaho",
        "id": 1127927,
        "latitude": 43.61361,
        "longitude": -116.2025
      },
      {
        "numJobs": 50,
        "name": "Boca Raton, FL",
        "stateAbbreviation": "FL",
        "stateName": "Florida",
        "id": 1154153,
        "latitude": 26.35833,
        "longitude": -80.08333
      },
      {
        "numJobs": 49,
        "name": "Little Rock, AR",
        "stateAbbreviation": "AR",
        "stateName": "Arkansas",
        "id": 1143190,
        "latitude": 34.74639,
        "longitude": -92.28944
      },
      {
        "numJobs": 49,
        "name": "Erie, PA",
        "stateAbbreviation": "PA",
        "stateName": "Pennsylvania",
        "id": 1152139,
        "latitude": 42.12917,
        "longitude": -80.08528
      },
      {
        "numJobs": 49,
        "name": "Boulder, CO",
        "stateAbbreviation": "CO",
        "stateName": "Colorado",
        "id": 1148112,
        "latitude": 40.015,
        "longitude": -105.27
      },
      {
        "numJobs": 48,
        "name": "Bloomington, MN",
        "stateAbbreviation": "MN",
        "stateName": "Minnesota",
        "id": 1162257,
        "latitude": 44.84083,
        "longitude": -93.29806
      },
      {
        "numJobs": 48,
        "name": "Santa Monica, CA",
        "stateAbbreviation": "CA",
        "stateName": "California",
        "id": 1146873,
        "latitude": 34.01944,
        "longitude": -118.49028
      },
      {
        "numJobs": 48,
        "name": "Tacoma, WA",
        "stateAbbreviation": "WA",
        "stateName": "Washington",
        "id": 1150517,
        "latitude": 47.25306,
        "longitude": -122.44306
      },
      {
        "numJobs": 47,
        "name": "Hot Springs, AR",
        "stateAbbreviation": "AR",
        "stateName": "Arkansas",
        "id": 1162464,
        "latitude": 34.50361,
        "longitude": -93.055
      },
      {
        "numJobs": 47,
        "name": "Saint Petersburg, FL",
        "stateAbbreviation": "FL",
        "stateName": "Florida",
        "id": 1154421,
        "latitude": 27.77056,
        "longitude": -82.67944
      },
      {
        "numJobs": 47,
        "name": "Pasadena, CA",
        "stateAbbreviation": "CA",
        "stateName": "California",
        "id": 1146850,
        "latitude": 34.14778,
        "longitude": -118.14361
      },
      {
        "numJobs": 47,
        "name": "Arlington, TX",
        "stateAbbreviation": "TX",
        "stateName": "Texas",
        "id": 1139951,
        "latitude": 32.73556,
        "longitude": -97.10778
      },
      {
        "numJobs": 47,
        "name": "Durham, NC",
        "stateAbbreviation": "NC",
        "stateName": "North Carolina",
        "id": 1138697,
        "latitude": 35.99389,
        "longitude": -78.89889
      },
      {
        "numJobs": 46,
        "name": "Woodland Hills, CA",
        "stateAbbreviation": "CA",
        "stateName": "California",
        "id": 1146915,
        "latitude": 34.16833,
        "longitude": -118.605
      },
      {
        "numJobs": 46,
        "name": "Nashua, NH",
        "stateAbbreviation": "NH",
        "stateName": "New Hampshire",
        "id": 1147911,
        "latitude": 42.76528,
        "longitude": -71.46806
      },
      {
        "numJobs": 46,
        "name": "Syracuse, NY",
        "stateAbbreviation": "NY",
        "stateName": "New York",
        "id": 1132872,
        "latitude": 43.04806,
        "longitude": -76.14778
      },
      {
        "numJobs": 45,
        "name": "Lincoln, NE",
        "stateAbbreviation": "NE",
        "stateName": "Nebraska",
        "id": 1136371,
        "latitude": 40.8,
        "longitude": -96.66667
      },
      {
        "numJobs": 45,
        "name": "Knoxville, TN",
        "stateAbbreviation": "TN",
        "stateName": "Tennessee",
        "id": 1144394,
        "latitude": 35.96056,
        "longitude": -83.92083
      },
      {
        "numJobs": 45,
        "name": "Medford, OR",
        "stateAbbreviation": "OR",
        "stateName": "Oregon",
        "id": 1151534,
        "latitude": 42.32667,
        "longitude": -122.87444
      },
      {
        "numJobs": 45,
        "name": "Providence, RI",
        "stateAbbreviation": "RI",
        "stateName": "Rhode Island",
        "id": 1151289,
        "latitude": 41.82389,
        "longitude": -71.41333
      },
      {
        "numJobs": 45,
        "name": "Warwick, RI",
        "stateAbbreviation": "RI",
        "stateName": "Rhode Island",
        "id": 1151302,
        "latitude": 41.7,
        "longitude": -71.41667
      },
      {
        "numJobs": 45,
        "name": "Anaheim, CA",
        "stateAbbreviation": "CA",
        "stateName": "California",
        "id": 1146743,
        "latitude": 33.83528,
        "longitude": -117.91361
      },
      {
        "numJobs": 45,
        "name": "Alexandria, VA",
        "stateAbbreviation": "VA",
        "stateName": "Virginia",
        "id": 1130334,
        "latitude": 38.79755,
        "longitude": -77.08908
      },
      {
        "numJobs": 45,
        "name": "Santa Clara, CA",
        "stateAbbreviation": "CA",
        "stateName": "California",
        "id": 1147439,
        "latitude": 37.35417,
        "longitude": -121.95417
      },
      {
        "numJobs": 45,
        "name": "Sioux Falls, SD",
        "stateAbbreviation": "SD",
        "stateName": "South Dakota",
        "id": 1141041,
        "latitude": 43.55,
        "longitude": -96.7
      },
      {
        "numJobs": 45,
        "name": "Aurora, CO",
        "stateAbbreviation": "CO",
        "stateName": "Colorado",
        "id": 1148156,
        "latitude": 39.72944,
        "longitude": -104.83139
      },
      {
        "numJobs": 44,
        "name": "Clearwater, FL",
        "stateAbbreviation": "FL",
        "stateName": "Florida",
        "id": 1154388,
        "latitude": 27.96556,
        "longitude": -82.80028
      },
      {
        "numJobs": 44,
        "name": "Henderson, NV",
        "stateAbbreviation": "NV",
        "stateName": "Nevada",
        "id": 1149600,
        "latitude": 36.03972,
        "longitude": -114.98111
      },
      {
        "numJobs": 44,
        "name": "Springfield, MO",
        "stateAbbreviation": "MO",
        "stateName": "Missouri",
        "id": 1131348,
        "latitude": 37.21528,
        "longitude": -93.29806
      },
      {
        "numJobs": 44,
        "name": "Greenville, SC",
        "stateAbbreviation": "SC",
        "stateName": "South Carolina",
        "id": 1155193,
        "latitude": 34.8525,
        "longitude": -82.39417
      },
      {
        "numJobs": 44,
        "name": "Savannah, GA",
        "stateAbbreviation": "GA",
        "stateName": "Georgia",
        "id": 1155906,
        "latitude": 32.08333,
        "longitude": -81.1
      },
      {
        "numJobs": 43,
        "name": "Dayton, OH",
        "stateAbbreviation": "OH",
        "stateName": "Ohio",
        "id": 1145937,
        "latitude": 39.75889,
        "longitude": -84.19167
      },
      {
        "numJobs": 43,
        "name": "Newport Beach, CA",
        "stateAbbreviation": "CA",
        "stateName": "California",
        "id": 1146837,
        "latitude": 33.61889,
        "longitude": -117.92806
      },
      {
        "numJobs": 43,
        "name": "Wichita, KS",
        "stateAbbreviation": "KS",
        "stateName": "Kansas",
        "id": 1151230,
        "latitude": 37.69222,
        "longitude": -97.33722
      },
      {
        "numJobs": 43,
        "name": "McAllen, TX",
        "stateAbbreviation": "TX",
        "stateName": "Texas",
        "id": 1140353,
        "latitude": 26.20306,
        "longitude": -98.22972
      },
      {
        "numJobs": 43,
        "name": "Walnut Creek, CA",
        "stateAbbreviation": "CA",
        "stateName": "California",
        "id": 1147417,
        "latitude": 37.90639,
        "longitude": -122.06389
      },
      {
        "numJobs": 42,
        "name": "Columbia, MD",
        "stateAbbreviation": "MD",
        "stateName": "Maryland",
        "id": 1153546,
        "latitude": 39.24028,
        "longitude": -76.83972
      },
      {
        "numJobs": 42,
        "name": "Costa Mesa, CA",
        "stateAbbreviation": "CA",
        "stateName": "California",
        "id": 1146769,
        "latitude": 33.64111,
        "longitude": -117.91778
      },
      {
        "numJobs": 42,
        "name": "Flushing, NY",
        "stateAbbreviation": "NY",
        "stateName": "New York",
        "id": 1132249,
        "latitude": 40.750717,
        "longitude": -73.83395
      },
      {
        "numJobs": 42,
        "name": "Hamilton, NJ",
        "stateAbbreviation": "NJ",
        "stateName": "New Jersey",
        "id": 1157536,
        "latitude": 40.20694,
        "longitude": -74.08167
      },
      {
        "numJobs": 42,
        "name": "Modesto, CA",
        "stateAbbreviation": "CA",
        "stateName": "California",
        "id": 1146953,
        "latitude": 37.63917,
        "longitude": -120.99583
      },
      {
        "numJobs": 42,
        "name": "Manchester, NH",
        "stateAbbreviation": "NH",
        "stateName": "New Hampshire",
        "id": 1147907,
        "latitude": 42.99556,
        "longitude": -71.45528
      },
      {
        "numJobs": 42,
        "name": "Englewood, CO",
        "stateAbbreviation": "CO",
        "stateName": "Colorado",
        "id": 1148176,
        "latitude": 39.64778,
        "longitude": -104.98722
      },
      {
        "numJobs": 41,
        "name": "York, PA",
        "stateAbbreviation": "PA",
        "stateName": "Pennsylvania",
        "id": 1153468,
        "latitude": 39.9625,
        "longitude": -76.72806
      },
      {
        "numJobs": 41,
        "name": "Long Beach, CA",
        "stateAbbreviation": "CA",
        "stateName": "California",
        "id": 1146819,
        "latitude": 33.76694,
        "longitude": -118.18833
      },
      {
        "numJobs": 41,
        "name": "Fort Wayne, IN",
        "stateAbbreviation": "IN",
        "stateName": "Indiana",
        "id": 1144939,
        "latitude": 41.13056,
        "longitude": -85.12889
      },
      {
        "numJobs": 41,
        "name": "Thousand Oaks, CA",
        "stateAbbreviation": "CA",
        "stateName": "California",
        "id": 1146988,
        "latitude": 34.17056,
        "longitude": -118.83667
      },
      {
        "numJobs": 40,
        "name": "Franklin, TN",
        "stateAbbreviation": "TN",
        "stateName": "Tennessee",
        "id": 1144518,
        "latitude": 35.925,
        "longitude": -86.86889
      },
      {
        "numJobs": 40,
        "name": "Carmel, IN",
        "stateAbbreviation": "IN",
        "stateName": "Indiana",
        "id": 1144991,
        "latitude": 39.97833,
        "longitude": -86.11806
      },
      {
        "numJobs": 40,
        "name": "Chandler, AZ",
        "stateAbbreviation": "AZ",
        "stateName": "Arizona",
        "id": 1133878,
        "latitude": 33.30611,
        "longitude": -111.84056
      },
      {
        "numJobs": 40,
        "name": "Fargo, ND",
        "stateAbbreviation": "ND",
        "stateName": "North Dakota",
        "id": 1156255,
        "latitude": 46.87722,
        "longitude": -96.78944
      },
      {
        "numJobs": 39,
        "name": "Harrisburg, PA",
        "stateAbbreviation": "PA",
        "stateName": "Pennsylvania",
        "id": 1152185,
        "latitude": 40.27361,
        "longitude": -76.88472
      },
      {
        "numJobs": 39,
        "name": "Cedar Rapids, IA",
        "stateAbbreviation": "IA",
        "stateName": "Iowa",
        "id": 1149160,
        "latitude": 42.00833,
        "longitude": -91.64389
      },
      {
        "numJobs": 39,
        "name": "Concord, CA",
        "stateAbbreviation": "CA",
        "stateName": "California",
        "id": 1147340,
        "latitude": 37.97806,
        "longitude": -122.03
      },
      {
        "numJobs": 39,
        "name": "Fort Collins, CO",
        "stateAbbreviation": "CO",
        "stateName": "Colorado",
        "id": 1148233,
        "latitude": 40.58528,
        "longitude": -105.08389
      },
      {
        "numJobs": 38,
        "name": "Rockville, MD",
        "stateAbbreviation": "MD",
        "stateName": "Maryland",
        "id": 1153899,
        "latitude": 39.08389,
        "longitude": -77.15306
      },
      {
        "numJobs": 38,
        "name": "Cerritos, CA",
        "stateAbbreviation": "CA",
        "stateName": "California",
        "id": 1146763,
        "latitude": 33.85833,
        "longitude": -118.06389
      },
      {
        "numJobs": 38,
        "name": "Lancaster, PA",
        "stateAbbreviation": "PA",
        "stateName": "Pennsylvania",
        "id": 1152360,
        "latitude": 40.03778,
        "longitude": -76.30583
      },
      {
        "numJobs": 38,
        "name": "Palo Alto, CA",
        "stateAbbreviation": "CA",
        "stateName": "California",
        "id": 1147434,
        "latitude": 37.44194,
        "longitude": -122.14194
      },
      {
        "numJobs": 38,
        "name": "San Ramon, CA",
        "stateAbbreviation": "CA",
        "stateName": "California",
        "id": 1147410,
        "latitude": 37.78,
        "longitude": -121.97694
      },
      {
        "numJobs": 38,
        "name": "Pleasanton, CA",
        "stateAbbreviation": "CA",
        "stateName": "California",
        "id": 1147390,
        "latitude": 37.6625,
        "longitude": -121.87361
      },
      {
        "numJobs": 37,
        "name": "Medford, MA",
        "stateAbbreviation": "MA",
        "stateName": "Massachusetts",
        "id": 1154617,
        "latitude": 42.41833,
        "longitude": -71.10667
      },
      {
        "numJobs": 37,
        "name": "Lansing, MI",
        "stateAbbreviation": "MI",
        "stateName": "Michigan",
        "id": 1134930,
        "latitude": 42.7325,
        "longitude": -84.55556
      },
      {
        "numJobs": 37,
        "name": "Everett, WA",
        "stateAbbreviation": "WA",
        "stateName": "Washington",
        "id": 1150458,
        "latitude": 47.97917,
        "longitude": -122.20083
      },
      {
        "numJobs": 37,
        "name": "Jackson, MS",
        "stateAbbreviation": "MS",
        "stateName": "Mississippi",
        "id": 1141371,
        "latitude": 32.29861,
        "longitude": -90.18472
      },
      {
        "numJobs": 36,
        "name": "Naples, FL",
        "stateAbbreviation": "FL",
        "stateName": "Florida",
        "id": 1154189,
        "latitude": 26.14167,
        "longitude": -81.795
      },
      {
        "numJobs": 36,
        "name": "El Paso, TX",
        "stateAbbreviation": "TX",
        "stateName": "Texas",
        "id": 1140105,
        "latitude": 31.75861,
        "longitude": -106.48639
      },
      {
        "numJobs": 36,
        "name": "Metairie, LA",
        "stateAbbreviation": "LA",
        "stateName": "Louisiana",
        "id": 1150033,
        "latitude": 29.98389,
        "longitude": -90.15278
      },
      {
        "numJobs": 36,
        "name": "Arvada, CO",
        "stateAbbreviation": "CO",
        "stateName": "Colorado",
        "id": 1148155,
        "latitude": 39.80278,
        "longitude": -105.08694
      },
      {
        "numJobs": 35,
        "name": "Worcester, MA",
        "stateAbbreviation": "MA",
        "stateName": "Massachusetts",
        "id": 1154962,
        "latitude": 42.2625,
        "longitude": -71.80278
      },
      {
        "numJobs": 35,
        "name": "Southfield, MI",
        "stateAbbreviation": "MI",
        "stateName": "Michigan",
        "id": 1134732,
        "latitude": 42.47333,
        "longitude": -83.22194
      },
      {
        "numJobs": 35,
        "name": "Hyannis, MA",
        "stateAbbreviation": "MA",
        "stateName": "Massachusetts",
        "id": 1154479,
        "latitude": 41.65278,
        "longitude": -70.28333
      },
      {
        "numJobs": 35,
        "name": "McLean, VA",
        "stateAbbreviation": "VA",
        "stateName": "Virginia",
        "id": 1158535,
        "latitude": 38.93417,
        "longitude": -77.17778
      },
      {
        "numJobs": 35,
        "name": "Chesterfield, MO",
        "stateAbbreviation": "MO",
        "stateName": "Missouri",
        "id": 1131207,
        "latitude": 38.66306,
        "longitude": -90.57694
      },
      {
        "numJobs": 35,
        "name": "Santa Barbara, CA",
        "stateAbbreviation": "CA",
        "stateName": "California",
        "id": 1147473,
        "latitude": 34.42083,
        "longitude": -119.69722
      },
      {
        "numJobs": 34,
        "name": "Washington, PA",
        "stateAbbreviation": "PA",
        "stateName": "Pennsylvania",
        "id": 1153058,
        "latitude": 40.17389,
        "longitude": -80.24639
      },
      {
        "numJobs": 34,
        "name": "Brea, CA",
        "stateAbbreviation": "CA",
        "stateName": "California",
        "id": 1146754,
        "latitude": 33.91667,
        "longitude": -117.89917
      },
      {
        "numJobs": 34,
        "name": "Beverly Hills, CA",
        "stateAbbreviation": "CA",
        "stateName": "California",
        "id": 1146753,
        "latitude": 34.07361,
        "longitude": -118.39944
      },
      {
        "numJobs": 34,
        "name": "Sterling Heights, MI",
        "stateAbbreviation": "MI",
        "stateName": "Michigan",
        "id": 1159809,
        "latitude": 42.58028,
        "longitude": -83.03028
      },
      {
        "numJobs": 34,
        "name": "Santa Ana, CA",
        "stateAbbreviation": "CA",
        "stateName": "California",
        "id": 1146870,
        "latitude": 33.74556,
        "longitude": -117.86694
      },
      {
        "numJobs": 34,
        "name": "Lynnwood, WA",
        "stateAbbreviation": "WA",
        "stateName": "Washington",
        "id": 1150479,
        "latitude": 47.82111,
        "longitude": -122.31389
      },
      {
        "numJobs": 34,
        "name": "Columbia, MO",
        "stateAbbreviation": "MO",
        "stateName": "Missouri",
        "id": 1130886,
        "latitude": 38.95167,
        "longitude": -92.33389
      },
      {
        "numJobs": 34,
        "name": "Concord, NH",
        "stateAbbreviation": "NH",
        "stateName": "New Hampshire",
        "id": 1147789,
        "latitude": 43.20806,
        "longitude": -71.53806
      },
      {
        "numJobs": 33,
        "name": "The Woodlands, TX",
        "stateAbbreviation": "TX",
        "stateName": "Texas",
        "id": 1161666,
        "latitude": 30.15778,
        "longitude": -95.48917
      },
      {
        "numJobs": 33,
        "name": "Marlton, NJ",
        "stateAbbreviation": "NJ",
        "stateName": "New Jersey",
        "id": 1127123,
        "latitude": 39.89111,
        "longitude": -74.92222
      },
      {
        "numJobs": 33,
        "name": "Cambridge, MA",
        "stateAbbreviation": "MA",
        "stateName": "Massachusetts",
        "id": 1154545,
        "latitude": 42.375,
        "longitude": -71.10611
      },
      {
        "numJobs": 33,
        "name": "Champaign, IL",
        "stateAbbreviation": "IL",
        "stateName": "Illinois",
        "id": 1128722,
        "latitude": 40.11639,
        "longitude": -88.24333
      },
      {
        "numJobs": 33,
        "name": "Chesapeake, VA",
        "stateAbbreviation": "VA",
        "stateName": "Virginia",
        "id": 1130279,
        "latitude": 36.81889,
        "longitude": -76.27528
      },
      {
        "numJobs": 33,
        "name": "Long Island City, NY",
        "stateAbbreviation": "NY",
        "stateName": "New York",
        "id": 1132310,
        "latitude": 40.756947,
        "longitude": -73.928795
      },
      {
        "numJobs": 33,
        "name": "Oxnard, CA",
        "stateAbbreviation": "CA",
        "stateName": "California",
        "id": 1146980,
        "latitude": 34.1975,
        "longitude": -119.17611
      },
      {
        "numJobs": 33,
        "name": "Newark, DE",
        "stateAbbreviation": "DE",
        "stateName": "Delaware",
        "id": 1156369,
        "latitude": 39.68361,
        "longitude": -75.75
      },
      {
        "numJobs": 33,
        "name": "Appleton, WI",
        "stateAbbreviation": "WI",
        "stateName": "Wisconsin",
        "id": 1133289,
        "latitude": 44.26194,
        "longitude": -88.41528
      },
      {
        "numJobs": 32,
        "name": "Newark, NJ",
        "stateAbbreviation": "NJ",
        "stateName": "New Jersey",
        "id": 1126906,
        "latitude": 40.73556,
        "longitude": -74.17278
      },
      {
        "numJobs": 32,
        "name": "Princeton, NJ",
        "stateAbbreviation": "NJ",
        "stateName": "New Jersey",
        "id": 1127179,
        "latitude": 40.34861,
        "longitude": -74.65944
      },
      {
        "numJobs": 32,
        "name": "Braintree, MA",
        "stateAbbreviation": "MA",
        "stateName": "Massachusetts",
        "id": 1154535,
        "latitude": 42.22222,
        "longitude": -71
      },
      {
        "numJobs": 32,
        "name": "Miami Beach, FL",
        "stateAbbreviation": "FL",
        "stateName": "Florida",
        "id": 1154171,
        "latitude": 25.79028,
        "longitude": -80.13028
      },
      {
        "numJobs": 32,
        "name": "Melville, NY",
        "stateAbbreviation": "NY",
        "stateName": "New York",
        "id": 1132326,
        "latitude": 40.79333,
        "longitude": -73.41556
      },
      {
        "numJobs": 32,
        "name": "Waukesha, WI",
        "stateAbbreviation": "WI",
        "stateName": "Wisconsin",
        "id": 1133599,
        "latitude": 43.01167,
        "longitude": -88.23139
      },
      {
        "numJobs": 32,
        "name": "Longmont, CO",
        "stateAbbreviation": "CO",
        "stateName": "Colorado",
        "id": 1148118,
        "latitude": 40.16722,
        "longitude": -105.10139
      },
      {
        "numJobs": 31,
        "name": "Winston-Salem, NC",
        "stateAbbreviation": "NC",
        "stateName": "North Carolina",
        "id": 1139151,
        "latitude": 36.09766,
        "longitude": -80.24728
      },
      {
        "numJobs": 31,
        "name": "Sunnyvale, CA",
        "stateAbbreviation": "CA",
        "stateName": "California",
        "id": 1147442,
        "latitude": 37.36889,
        "longitude": -122.03528
      },
      {
        "numJobs": 31,
        "name": "Westminster, CO",
        "stateAbbreviation": "CO",
        "stateName": "Colorado",
        "id": 1148207,
        "latitude": 39.83667,
        "longitude": -105.03667
      },
      {
        "numJobs": 30,
        "name": "Woburn, MA",
        "stateAbbreviation": "MA",
        "stateName": "Massachusetts",
        "id": 1154729,
        "latitude": 42.47917,
        "longitude": -71.15278
      },
      {
        "numJobs": 30,
        "name": "Hanover, MA",
        "stateAbbreviation": "MA",
        "stateName": "Massachusetts",
        "id": 1154581,
        "latitude": 42.11306,
        "longitude": -70.8125
      },
      {
        "numJobs": 30,
        "name": "Fairfax, VA",
        "stateAbbreviation": "VA",
        "stateName": "Virginia",
        "id": 1130359,
        "latitude": 38.84611,
        "longitude": -77.30667
      },
      {
        "numJobs": 30,
        "name": "Redwood City, CA",
        "stateAbbreviation": "CA",
        "stateName": "California",
        "id": 1147394,
        "latitude": 37.48528,
        "longitude": -122.23528
      },
      {
        "numJobs": 30,
        "name": "Stockton, CA",
        "stateAbbreviation": "CA",
        "stateName": "California",
        "id": 1147539,
        "latitude": 37.95778,
        "longitude": -121.28972
      },
      {
        "numJobs": 30,
        "name": "Kansas City, KS",
        "stateAbbreviation": "KS",
        "stateName": "Kansas",
        "id": 4990210,
        "latitude": 39.11417,
        "longitude": -94.62722
      },
      {
        "numJobs": 30,
        "name": "Fremont, CA",
        "stateAbbreviation": "CA",
        "stateName": "California",
        "id": 1147355,
        "latitude": 37.54833,
        "longitude": -121.9875
      },
      {
        "numJobs": 30,
        "name": "Littleton, CO",
        "stateAbbreviation": "CO",
        "stateName": "Colorado",
        "id": 1148194,
        "latitude": 39.61333,
        "longitude": -105.01611
      },
      {
        "numJobs": 29,
        "name": "Jersey City, NJ",
        "stateAbbreviation": "NJ",
        "stateName": "New Jersey",
        "id": 1126819,
        "latitude": 40.72806,
        "longitude": -74.07806
      },
      {
        "numJobs": 29,
        "name": "Holland, MI",
        "stateAbbreviation": "MI",
        "stateName": "Michigan",
        "id": 1134828,
        "latitude": 42.7875,
        "longitude": -86.10889
      },
      {
        "numJobs": 29,
        "name": "Cranston, RI",
        "stateAbbreviation": "RI",
        "stateName": "Rhode Island",
        "id": 1151253,
        "latitude": 41.77972,
        "longitude": -71.43778
      },
      {
        "numJobs": 29,
        "name": "Lakewood, CA",
        "stateAbbreviation": "CA",
        "stateName": "California",
        "id": 1146813,
        "latitude": 33.85361,
        "longitude": -118.13306
      },
      {
        "numJobs": 29,
        "name": "Dublin, OH",
        "stateAbbreviation": "OH",
        "stateName": "Ohio",
        "id": 1145850,
        "latitude": 40.102497,
        "longitude": -83.11432
      },
      {
        "numJobs": 29,
        "name": "Norfolk, VA",
        "stateAbbreviation": "VA",
        "stateName": "Virginia",
        "id": 1130306,
        "latitude": 36.84667,
        "longitude": -76.28556
      },
      {
        "numJobs": 29,
        "name": "Frisco, TX",
        "stateAbbreviation": "TX",
        "stateName": "Texas",
        "id": 1139994,
        "latitude": 33.15056,
        "longitude": -96.82333
      },
      {
        "numJobs": 29,
        "name": "College Station, TX",
        "stateAbbreviation": "TX",
        "stateName": "Texas",
        "id": 1139900,
        "latitude": 30.62778,
        "longitude": -96.33417
      },
      {
        "numJobs": 28,
        "name": "Fort Myers, FL",
        "stateAbbreviation": "FL",
        "stateName": "Florida",
        "id": 1154016,
        "latitude": 26.64028,
        "longitude": -81.8725
      },
      {
        "numJobs": 28,
        "name": "Chattanooga, TN",
        "stateAbbreviation": "TN",
        "stateName": "Tennessee",
        "id": 1144251,
        "latitude": 35.04556,
        "longitude": -85.30972
      },
      {
        "numJobs": 28,
        "name": "Pensacola, FL",
        "stateAbbreviation": "FL",
        "stateName": "Florida",
        "id": 1154318,
        "latitude": 30.42111,
        "longitude": -87.21694
      },
      {
        "numJobs": 28,
        "name": "Salem, OR",
        "stateAbbreviation": "OR",
        "stateName": "Oregon",
        "id": 1151682,
        "latitude": 44.94306,
        "longitude": -123.03389
      },
      {
        "numJobs": 28,
        "name": "Peoria, IL",
        "stateAbbreviation": "IL",
        "stateName": "Illinois",
        "id": 1129349,
        "latitude": 40.69361,
        "longitude": -89.58889
      },
      {
        "numJobs": 28,
        "name": "Fullerton, CA",
        "stateAbbreviation": "CA",
        "stateName": "California",
        "id": 1146784,
        "latitude": 33.87028,
        "longitude": -117.92444
      },
      {
        "numJobs": 28,
        "name": "Lansdale, PA",
        "stateAbbreviation": "PA",
        "stateName": "Pennsylvania",
        "id": 1152627,
        "latitude": 40.24139,
        "longitude": -75.28417
      },
      {
        "numJobs": 28,
        "name": "White Plains, NY",
        "stateAbbreviation": "NY",
        "stateName": "New York",
        "id": 1132464,
        "latitude": 41.03389,
        "longitude": -73.76333
      },
      {
        "numJobs": 28,
        "name": "Glendale, AZ",
        "stateAbbreviation": "AZ",
        "stateName": "Arizona",
        "id": 1133888,
        "latitude": 33.53861,
        "longitude": -112.18528
      },
      {
        "numJobs": 28,
        "name": "Brookfield, WI",
        "stateAbbreviation": "WI",
        "stateName": "Wisconsin",
        "id": 1133554,
        "latitude": 43.06056,
        "longitude": -88.10639
      },
      {
        "numJobs": 27,
        "name": "Bethesda, MD",
        "stateAbbreviation": "MD",
        "stateName": "Maryland",
        "id": 1153817,
        "latitude": 38.98056,
        "longitude": -77.10056
      },
      {
        "numJobs": 27,
        "name": "Mount Laurel, NJ",
        "stateAbbreviation": "NJ",
        "stateName": "New Jersey",
        "id": 1127131,
        "latitude": 39.93389,
        "longitude": -74.89139
      },
      {
        "numJobs": 27,
        "name": "Mobile, AL",
        "stateAbbreviation": "AL",
        "stateName": "Alabama",
        "id": 1127676,
        "latitude": 30.69417,
        "longitude": -88.04306
      },
      {
        "numJobs": 27,
        "name": "Sandy, UT",
        "stateAbbreviation": "UT",
        "stateName": "Utah",
        "id": 1128290,
        "latitude": 40.574997,
        "longitude": -111.84344
      },
      {
        "numJobs": 27,
        "name": "Glen Allen, VA",
        "stateAbbreviation": "VA",
        "stateName": "Virginia",
        "id": 1130160,
        "latitude": 37.66583,
        "longitude": -77.50667
      },
      {
        "numJobs": 27,
        "name": "Round Rock, TX",
        "stateAbbreviation": "TX",
        "stateName": "Texas",
        "id": 1139794,
        "latitude": 30.50806,
        "longitude": -97.67861
      },
      {
        "numJobs": 27,
        "name": "Cheektowaga, NY",
        "stateAbbreviation": "NY",
        "stateName": "New York",
        "id": 1158925,
        "latitude": 42.90333,
        "longitude": -78.755
      },
      {
        "numJobs": 27,
        "name": "Corona, CA",
        "stateAbbreviation": "CA",
        "stateName": "California",
        "id": 1147072,
        "latitude": 33.87528,
        "longitude": -117.56556
      },
      {
        "numJobs": 27,
        "name": "Riverside, CA",
        "stateAbbreviation": "CA",
        "stateName": "California",
        "id": 1147138,
        "latitude": 33.95333,
        "longitude": -117.39528
      },
      {
        "numJobs": 27,
        "name": "New Haven, CT",
        "stateAbbreviation": "CT",
        "stateName": "Connecticut",
        "id": 1148466,
        "latitude": 41.30806,
        "longitude": -72.92861
      },
      {
        "numJobs": 27,
        "name": "Centennial, CO",
        "stateAbbreviation": "CO",
        "stateName": "Colorado",
        "id": 1164284,
        "latitude": 39.57917,
        "longitude": -104.87639
      },
      {
        "numJobs": 26,
        "name": "Brentwood, TN",
        "stateAbbreviation": "TN",
        "stateName": "Tennessee",
        "id": 1144496,
        "latitude": 36.000107,
        "longitude": -86.78849
      },
      {
        "numJobs": 26,
        "name": "Annapolis, MD",
        "stateAbbreviation": "MD",
        "stateName": "Maryland",
        "id": 1153523,
        "latitude": 38.97833,
        "longitude": -76.4925
      },
      {
        "numJobs": 26,
        "name": "Melbourne, FL",
        "stateAbbreviation": "FL",
        "stateName": "Florida",
        "id": 1154286,
        "latitude": 28.08333,
        "longitude": -80.60833
      },
      {
        "numJobs": 26,
        "name": "Olathe, KS",
        "stateAbbreviation": "KS",
        "stateName": "Kansas",
        "id": 1151046,
        "latitude": 38.88139,
        "longitude": -94.81889
      },
      {
        "numJobs": 26,
        "name": "Bowling Green, KY",
        "stateAbbreviation": "KY",
        "stateName": "Kentucky",
        "id": 1137525,
        "latitude": 36.99028,
        "longitude": -86.44361
      },
      {
        "numJobs": 26,
        "name": "Lafayette, LA",
        "stateAbbreviation": "LA",
        "stateName": "Louisiana",
        "id": 1149927,
        "latitude": 30.22389,
        "longitude": -92.01972
      },
      {
        "numJobs": 26,
        "name": "Lake Charles, LA",
        "stateAbbreviation": "LA",
        "stateName": "Louisiana",
        "id": 1149940,
        "latitude": 30.22639,
        "longitude": -93.21722
      },
      {
        "numJobs": 26,
        "name": "Greensboro, NC",
        "stateAbbreviation": "NC",
        "stateName": "North Carolina",
        "id": 1138755,
        "latitude": 36.0725,
        "longitude": -79.79222
      },
      {
        "numJobs": 25,
        "name": "Springfield, MA",
        "stateAbbreviation": "MA",
        "stateName": "Massachusetts",
        "id": 1154860,
        "latitude": 42.10139,
        "longitude": -72.59028
      },
      {
        "numJobs": 25,
        "name": "Richfield, MN",
        "stateAbbreviation": "MN",
        "stateName": "Minnesota",
        "id": 1162332,
        "latitude": 44.88333,
        "longitude": -93.28278
      },
      {
        "numJobs": 25,
        "name": "Wesley Chapel, FL",
        "stateAbbreviation": "FL",
        "stateName": "Florida",
        "id": 1154434,
        "latitude": 28.23944,
        "longitude": -82.32806
      },
      {
        "numJobs": 25,
        "name": "Novi, MI",
        "stateAbbreviation": "MI",
        "stateName": "Michigan",
        "id": 1134704,
        "latitude": 42.48056,
        "longitude": -83.47556
      },
      {
        "numJobs": 25,
        "name": "Northbrook, IL",
        "stateAbbreviation": "IL",
        "stateName": "Illinois",
        "id": 1128934,
        "latitude": 42.1275,
        "longitude": -87.82889
      },
      {
        "numJobs": 25,
        "name": "Aurora, IL",
        "stateAbbreviation": "IL",
        "stateName": "Illinois",
        "id": 1128780,
        "latitude": 41.76056,
        "longitude": -88.32
      },
      {
        "numJobs": 25,
        "name": "Bakersfield, CA",
        "stateAbbreviation": "CA",
        "stateName": "California",
        "id": 1146557,
        "latitude": 35.37333,
        "longitude": -119.01778
      },
      {
        "numJobs": 25,
        "name": "Mission Viejo, CA",
        "stateAbbreviation": "CA",
        "stateName": "California",
        "id": 1146829,
        "latitude": 33.6,
        "longitude": -117.67111
      },
      {
        "numJobs": 25,
        "name": "Reno, NV",
        "stateAbbreviation": "NV",
        "stateName": "Nevada",
        "id": 1149627,
        "latitude": 39.52972,
        "longitude": -119.81278
      },
      {
        "numJobs": 25,
        "name": "Corpus Christi, TX",
        "stateAbbreviation": "TX",
        "stateName": "Texas",
        "id": 1139919,
        "latitude": 27.80028,
        "longitude": -97.39611
      },
      {
        "numJobs": 25,
        "name": "Addison, TX",
        "stateAbbreviation": "TX",
        "stateName": "Texas",
        "id": 1139944,
        "latitude": 32.96167,
        "longitude": -96.82889
      },
      {
        "numJobs": 25,
        "name": "West Des Moines, IA",
        "stateAbbreviation": "IA",
        "stateName": "Iowa",
        "id": 1149284,
        "latitude": 41.57722,
        "longitude": -93.71111
      },
      {
        "numJobs": 25,
        "name": "Plantation, FL",
        "stateAbbreviation": "FL",
        "stateName": "Florida",
        "id": 1166193,
        "latitude": 26.127102,
        "longitude": -80.23334
      },
      {
        "numJobs": 25,
        "name": "Rancho Cucamonga, CA",
        "stateAbbreviation": "CA",
        "stateName": "California",
        "id": 1147132,
        "latitude": 34.10639,
        "longitude": -117.59222
      },
      {
        "numJobs": 25,
        "name": "Burnsville, MN",
        "stateAbbreviation": "MN",
        "stateName": "Minnesota",
        "id": 1142501,
        "latitude": 44.76778,
        "longitude": -93.2775
      },
      {
        "numJobs": 25,
        "name": "Waterbury, CT",
        "stateAbbreviation": "CT",
        "stateName": "Connecticut",
        "id": 1148477,
        "latitude": 41.55806,
        "longitude": -73.05194
      },
      {
        "numJobs": 25,
        "name": "Broomfield, CO",
        "stateAbbreviation": "CO",
        "stateName": "Colorado",
        "id": 1148161,
        "latitude": 39.92056,
        "longitude": -105.08611
      },
      {
        "numJobs": 24,
        "name": "Lanham, MD",
        "stateAbbreviation": "MD",
        "stateName": "Maryland",
        "id": 1153870,
        "latitude": 38.96694,
        "longitude": -76.86222
      },
      {
        "numJobs": 24,
        "name": "Traverse City, MI",
        "stateAbbreviation": "MI",
        "stateName": "Michigan",
        "id": 1135118,
        "latitude": 44.76306,
        "longitude": -85.62056
      },
      {
        "numJobs": 24,
        "name": "Burlington, MA",
        "stateAbbreviation": "MA",
        "stateName": "Massachusetts",
        "id": 1154543,
        "latitude": 42.50472,
        "longitude": -71.19611
      },
      {
        "numJobs": 24,
        "name": "Idaho Falls, ID",
        "stateAbbreviation": "ID",
        "stateName": "Idaho",
        "id": 1127978,
        "latitude": 43.46667,
        "longitude": -112.03333
      },
      {
        "numJobs": 24,
        "name": "Delray Beach, FL",
        "stateAbbreviation": "FL",
        "stateName": "Florida",
        "id": 1154159,
        "latitude": 26.46111,
        "longitude": -80.07306
      },
      {
        "numJobs": 24,
        "name": "Burbank, CA",
        "stateAbbreviation": "CA",
        "stateName": "California",
        "id": 1146756,
        "latitude": 34.18083,
        "longitude": -118.30806
      },
      {
        "numJobs": 24,
        "name": "Horsham, PA",
        "stateAbbreviation": "PA",
        "stateName": "Pennsylvania",
        "id": 1152611,
        "latitude": 40.17833,
        "longitude": -75.12889
      },
      {
        "numJobs": 24,
        "name": "Katy, TX",
        "stateAbbreviation": "TX",
        "stateName": "Texas",
        "id": 1140177,
        "latitude": 29.78556,
        "longitude": -95.82417
      },
      {
        "numJobs": 24,
        "name": "Tyler, TX",
        "stateAbbreviation": "TX",
        "stateName": "Texas",
        "id": 1140559,
        "latitude": 32.35111,
        "longitude": -95.30083
      },
      {
        "numJobs": 24,
        "name": "Odessa, TX",
        "stateAbbreviation": "TX",
        "stateName": "Texas",
        "id": 1140385,
        "latitude": 31.84556,
        "longitude": -102.36722
      },
      {
        "numJobs": 24,
        "name": "Aventura, FL",
        "stateAbbreviation": "FL",
        "stateName": "Florida",
        "id": 1166089,
        "latitude": 25.95611,
        "longitude": -80.13944
      },
      {
        "numJobs": 24,
        "name": "Milpitas, CA",
        "stateAbbreviation": "CA",
        "stateName": "California",
        "id": 1147428,
        "latitude": 37.42833,
        "longitude": -121.90556
      },
      {
        "numJobs": 24,
        "name": "Ventura, CA",
        "stateAbbreviation": "CA",
        "stateName": "California",
        "id": 1146989,
        "latitude": 34.27833,
        "longitude": -119.29222
      },
      {
        "numJobs": 24,
        "name": "Gilbert, AZ",
        "stateAbbreviation": "AZ",
        "stateName": "Arizona",
        "id": 1133887,
        "latitude": 33.35278,
        "longitude": -111.78833
      },
      {
        "numJobs": 24,
        "name": "Lakewood, CO",
        "stateAbbreviation": "CO",
        "stateName": "Colorado",
        "id": 1164305,
        "latitude": 39.70472,
        "longitude": -105.08083
      },
      {
        "numJobs": 24,
        "name": "Daly City, CA",
        "stateAbbreviation": "CA",
        "stateName": "California",
        "id": 1147343,
        "latitude": 37.70583,
        "longitude": -122.46083
      },
      {
        "numJobs": 23,
        "name": "South Portland, ME",
        "stateAbbreviation": "ME",
        "stateName": "Maine",
        "id": 1135912,
        "latitude": 43.64139,
        "longitude": -70.24139
      },
      {
        "numJobs": 23,
        "name": "Montgomery, AL",
        "stateAbbreviation": "AL",
        "stateName": "Alabama",
        "id": 1127704,
        "latitude": 32.36667,
        "longitude": -86.3
      },
      {
        "numJobs": 23,
        "name": "Brockton, MA",
        "stateAbbreviation": "MA",
        "stateName": "Massachusetts",
        "id": 1154539,
        "latitude": 42.08333,
        "longitude": -71.01889
      },
      {
        "numJobs": 23,
        "name": "Tallahassee, FL",
        "stateAbbreviation": "FL",
        "stateName": "Florida",
        "id": 1154378,
        "latitude": 30.43806,
        "longitude": -84.28083
      },
      {
        "numJobs": 23,
        "name": "Bradenton, FL",
        "stateAbbreviation": "FL",
        "stateName": "Florida",
        "id": 1154335,
        "latitude": 27.49861,
        "longitude": -82.575
      },
      {
        "numJobs": 23,
        "name": "Hialeah, FL",
        "stateAbbreviation": "FL",
        "stateName": "Florida",
        "id": 1154162,
        "latitude": 25.85722,
        "longitude": -80.27833
      },
      {
        "numJobs": 23,
        "name": "Portage, MI",
        "stateAbbreviation": "MI",
        "stateName": "Michigan",
        "id": 1134909,
        "latitude": 42.20111,
        "longitude": -85.58
      },
      {
        "numJobs": 23,
        "name": "Allentown, PA",
        "stateAbbreviation": "PA",
        "stateName": "Pennsylvania",
        "id": 1151916,
        "latitude": 40.60833,
        "longitude": -75.49056
      },
      {
        "numJobs": 23,
        "name": "Oak Brook, IL",
        "stateAbbreviation": "IL",
        "stateName": "Illinois",
        "id": 1128935,
        "latitude": 41.83278,
        "longitude": -87.92889
      },
      {
        "numJobs": 23,
        "name": "Downers Grove, IL",
        "stateAbbreviation": "IL",
        "stateName": "Illinois",
        "id": 1128825,
        "latitude": 41.80889,
        "longitude": -88.01111
      },
      {
        "numJobs": 23,
        "name": "Rochester Hills, MI",
        "stateAbbreviation": "MI",
        "stateName": "Michigan",
        "id": 1159796,
        "latitude": 42.65833,
        "longitude": -83.15
      },
      {
        "numJobs": 23,
        "name": "Diamond Bar, CA",
        "stateAbbreviation": "CA",
        "stateName": "California",
        "id": 1146774,
        "latitude": 34.02861,
        "longitude": -117.80944
      },
      {
        "numJobs": 23,
        "name": "West Chester, PA",
        "stateAbbreviation": "PA",
        "stateName": "Pennsylvania",
        "id": 1152733,
        "latitude": 39.96056,
        "longitude": -75.60583
      },
      {
        "numJobs": 23,
        "name": "Coppell, TX",
        "stateAbbreviation": "TX",
        "stateName": "Texas",
        "id": 1139974,
        "latitude": 32.95444,
        "longitude": -97.01472
      },
      {
        "numJobs": 23,
        "name": "Rosemont, IL",
        "stateAbbreviation": "IL",
        "stateName": "Illinois",
        "id": 1158097,
        "latitude": 38.62694,
        "longitude": -90.09722
      },
      {
        "numJobs": 23,
        "name": "Renton, WA",
        "stateAbbreviation": "WA",
        "stateName": "Washington",
        "id": 1150501,
        "latitude": 47.48306,
        "longitude": -122.21583
      },
      {
        "numJobs": 23,
        "name": "Redmond, WA",
        "stateAbbreviation": "WA",
        "stateName": "Washington",
        "id": 1150499,
        "latitude": 47.67417,
        "longitude": -122.12028
      },
      {
        "numJobs": 23,
        "name": "Federal Way, WA",
        "stateAbbreviation": "WA",
        "stateName": "Washington",
        "id": 1150460,
        "latitude": 47.3225,
        "longitude": -122.31139
      },
      {
        "numJobs": 23,
        "name": "Remote, OR",
        "stateAbbreviation": "OR",
        "stateName": "Oregon",
        "id": 1165008,
        "latitude": 43.00611,
        "longitude": -123.89139
      },
      {
        "numJobs": 23,
        "name": "Burlington, VT",
        "stateAbbreviation": "VT",
        "stateName": "Vermont",
        "id": 1141772,
        "latitude": 44.47583,
        "longitude": -73.2125
      },
      {
        "numJobs": 23,
        "name": "Peoria, AZ",
        "stateAbbreviation": "AZ",
        "stateName": "Arizona",
        "id": 1133903,
        "latitude": 33.58056,
        "longitude": -112.23667
      },
      {
        "numJobs": 23,
        "name": "Minnetonka, MN",
        "stateAbbreviation": "MN",
        "stateName": "Minnesota",
        "id": 1142552,
        "latitude": 44.91333,
        "longitude": -93.50306
      },
      {
        "numJobs": 23,
        "name": "Duluth, GA",
        "stateAbbreviation": "GA",
        "stateName": "Georgia",
        "id": 1155612,
        "latitude": 34.00278,
        "longitude": -84.14472
      },
      {
        "numJobs": 23,
        "name": "Duluth, MN",
        "stateAbbreviation": "MN",
        "stateName": "Minnesota",
        "id": 1142353,
        "latitude": 46.78333,
        "longitude": -92.10639
      },
      {
        "numJobs": 22,
        "name": "Toms River, NJ",
        "stateAbbreviation": "NJ",
        "stateName": "New Jersey",
        "id": 1127016,
        "latitude": 39.95361,
        "longitude": -74.19833
      },
      {
        "numJobs": 22,
        "name": "Paramus, NJ",
        "stateAbbreviation": "NJ",
        "stateName": "New Jersey",
        "id": 1126928,
        "latitude": 40.94444,
        "longitude": -74.07583
      },
      {
        "numJobs": 22,
        "name": "North Attleboro, MA",
        "stateAbbreviation": "MA",
        "stateName": "Massachusetts",
        "id": 1154782,
        "latitude": 41.98333,
        "longitude": -71.33333
      },
      {
        "numJobs": 22,
        "name": "New Bedford, MA",
        "stateAbbreviation": "MA",
        "stateName": "Massachusetts",
        "id": 1154781,
        "latitude": 41.63611,
        "longitude": -70.93472
      },
      {
        "numJobs": 22,
        "name": "Peabody, MA",
        "stateAbbreviation": "MA",
        "stateName": "Massachusetts",
        "id": 1154659,
        "latitude": 42.52778,
        "longitude": -70.92917
      },
      {
        "numJobs": 22,
        "name": "Framingham, MA",
        "stateAbbreviation": "MA",
        "stateName": "Massachusetts",
        "id": 1154571,
        "latitude": 42.27917,
        "longitude": -71.41667
      },
      {
        "numJobs": 22,
        "name": "Boynton Beach, FL",
        "stateAbbreviation": "FL",
        "stateName": "Florida",
        "id": 1154154,
        "latitude": 26.525,
        "longitude": -80.06667
      },
      {
        "numJobs": 22,
        "name": "Lakeland, FL",
        "stateAbbreviation": "FL",
        "stateName": "Florida",
        "id": 1154143,
        "latitude": 28.03917,
        "longitude": -81.95
      },
      {
        "numJobs": 22,
        "name": "Bloomington, IL",
        "stateAbbreviation": "IL",
        "stateName": "Illinois",
        "id": 1128636,
        "latitude": 40.48417,
        "longitude": -88.99361
      },
      {
        "numJobs": 22,
        "name": "Youngstown, OH",
        "stateAbbreviation": "OH",
        "stateName": "Ohio",
        "id": 1146406,
        "latitude": 41.09972,
        "longitude": -80.64972
      },
      {
        "numJobs": 22,
        "name": "King of Prussia, PA",
        "stateAbbreviation": "PA",
        "stateName": "Pennsylvania",
        "id": 1152620,
        "latitude": 40.08917,
        "longitude": -75.39639
      },
      {
        "numJobs": 22,
        "name": "Herndon, VA",
        "stateAbbreviation": "VA",
        "stateName": "Virginia",
        "id": 1130374,
        "latitude": 38.96944,
        "longitude": -77.38639
      },
      {
        "numJobs": 22,
        "name": "Saint Charles, MO",
        "stateAbbreviation": "MO",
        "stateName": "Missouri",
        "id": 1131268,
        "latitude": 38.78389,
        "longitude": -90.48111
      },
      {
        "numJobs": 22,
        "name": "Olympia, WA",
        "stateAbbreviation": "WA",
        "stateName": "Washington",
        "id": 1150386,
        "latitude": 47.03806,
        "longitude": -122.89944
      },
      {
        "numJobs": 22,
        "name": "Campbell, CA",
        "stateAbbreviation": "CA",
        "stateName": "California",
        "id": 1147420,
        "latitude": 37.28722,
        "longitude": -121.94889
      },
      {
        "numJobs": 22,
        "name": "Pueblo, CO",
        "stateAbbreviation": "CO",
        "stateName": "Colorado",
        "id": 1148308,
        "latitude": 38.25444,
        "longitude": -104.60861
      },
      {
        "numJobs": 21,
        "name": "Salisbury, MD",
        "stateAbbreviation": "MD",
        "stateName": "Maryland",
        "id": 1153799,
        "latitude": 38.36056,
        "longitude": -75.59972
      },
      {
        "numJobs": 21,
        "name": "Gaithersburg, MD",
        "stateAbbreviation": "MD",
        "stateName": "Maryland",
        "id": 1153852,
        "latitude": 39.14333,
        "longitude": -77.20167
      },
      {
        "numJobs": 21,
        "name": "Silver Spring, MD",
        "stateAbbreviation": "MD",
        "stateName": "Maryland",
        "id": 1153904,
        "latitude": 38.99056,
        "longitude": -77.02639
      },
      {
        "numJobs": 21,
        "name": "Weston, MA",
        "stateAbbreviation": "MA",
        "stateName": "Massachusetts",
        "id": 1154721,
        "latitude": 42.36667,
        "longitude": -71.30361
      },
      {
        "numJobs": 21,
        "name": "Meridian, ID",
        "stateAbbreviation": "ID",
        "stateName": "Idaho",
        "id": 1127945,
        "latitude": 43.61222,
        "longitude": -116.39056
      },
      {
        "numJobs": 21,
        "name": "Twin Falls, ID",
        "stateAbbreviation": "ID",
        "stateName": "Idaho",
        "id": 1128054,
        "latitude": 42.56306,
        "longitude": -114.46
      },
      {
        "numJobs": 21,
        "name": "Ogden, UT",
        "stateAbbreviation": "UT",
        "stateName": "Utah",
        "id": 1128221,
        "latitude": 41.22306,
        "longitude": -111.97306
      },
      {
        "numJobs": 21,
        "name": "Altoona, PA",
        "stateAbbreviation": "PA",
        "stateName": "Pennsylvania",
        "id": 1151974,
        "latitude": 40.51861,
        "longitude": -78.395
      },
      {
        "numJobs": 21,
        "name": "Lombard, IL",
        "stateAbbreviation": "IL",
        "stateName": "Illinois",
        "id": 1128902,
        "latitude": 41.88,
        "longitude": -88.00778
      },
      {
        "numJobs": 21,
        "name": "Beaverton, OR",
        "stateAbbreviation": "OR",
        "stateName": "Oregon",
        "id": 1151576,
        "latitude": 45.48722,
        "longitude": -122.8025
      },
      {
        "numJobs": 21,
        "name": "Farmington Hills, MI",
        "stateAbbreviation": "MI",
        "stateName": "Michigan",
        "id": 1159753,
        "latitude": 42.48528,
        "longitude": -83.37722
      },
      {
        "numJobs": 21,
        "name": "Rockford, IL",
        "stateAbbreviation": "IL",
        "stateName": "Illinois",
        "id": 1129425,
        "latitude": 42.27111,
        "longitude": -89.09389
      },
      {
        "numJobs": 21,
        "name": "Redondo Beach, CA",
        "stateAbbreviation": "CA",
        "stateName": "California",
        "id": 1146859,
        "latitude": 33.84917,
        "longitude": -118.3875
      },
      {
        "numJobs": 21,
        "name": "Exton, PA",
        "stateAbbreviation": "PA",
        "stateName": "Pennsylvania",
        "id": 1152576,
        "latitude": 40.02889,
        "longitude": -75.62111
      },
      {
        "numJobs": 21,
        "name": "Phoenixville, PA",
        "stateAbbreviation": "PA",
        "stateName": "Pennsylvania",
        "id": 1152673,
        "latitude": 40.13028,
        "longitude": -75.51528
      },
      {
        "numJobs": 21,
        "name": "Roanoke, VA",
        "stateAbbreviation": "VA",
        "stateName": "Virginia",
        "id": 1130242,
        "latitude": 37.27083,
        "longitude": -79.94167
      },
      {
        "numJobs": 21,
        "name": "Friendswood, TX",
        "stateAbbreviation": "TX",
        "stateName": "Texas",
        "id": 1140158,
        "latitude": 29.52917,
        "longitude": -95.20083
      },
      {
        "numJobs": 21,
        "name": "Waco, TX",
        "stateAbbreviation": "TX",
        "stateName": "Texas",
        "id": 1140600,
        "latitude": 31.54917,
        "longitude": -97.14639
      },
      {
        "numJobs": 21,
        "name": "Silverdale, WA",
        "stateAbbreviation": "WA",
        "stateName": "Washington",
        "id": 1150283,
        "latitude": 47.64472,
        "longitude": -122.69361
      },
      {
        "numJobs": 21,
        "name": "Mountain View, CA",
        "stateAbbreviation": "CA",
        "stateName": "California",
        "id": 1147431,
        "latitude": 37.38611,
        "longitude": -122.08278
      },
      {
        "numJobs": 21,
        "name": "Santa Cruz, CA",
        "stateAbbreviation": "CA",
        "stateName": "California",
        "id": 1147488,
        "latitude": 36.97417,
        "longitude": -122.02972
      },
      {
        "numJobs": 21,
        "name": "Marietta, GA",
        "stateAbbreviation": "GA",
        "stateName": "Georgia",
        "id": 1155654,
        "latitude": 33.9525,
        "longitude": -84.55
      },
      {
        "numJobs": 21,
        "name": "Ontario, CA",
        "stateAbbreviation": "CA",
        "stateName": "California",
        "id": 1147122,
        "latitude": 34.06333,
        "longitude": -117.65
      },
      {
        "numJobs": 21,
        "name": "Folsom, CA",
        "stateAbbreviation": "CA",
        "stateName": "California",
        "id": 1147188,
        "latitude": 38.67806,
        "longitude": -121.175
      },
      {
        "numJobs": 21,
        "name": "Danville, CA",
        "stateAbbreviation": "CA",
        "stateName": "California",
        "id": 1147344,
        "latitude": 37.82167,
        "longitude": -121.99889
      },
      {
        "numJobs": 21,
        "name": "Menlo Park, CA",
        "stateAbbreviation": "CA",
        "stateName": "California",
        "id": 1147371,
        "latitude": 37.45389,
        "longitude": -122.18111
      },
      {
        "numJobs": 21,
        "name": "Stamford, CT",
        "stateAbbreviation": "CT",
        "stateName": "Connecticut",
        "id": 1148355,
        "latitude": 41.05333,
        "longitude": -73.53917
      },
      {
        "numJobs": 20,
        "name": "Parsippany, NJ",
        "stateAbbreviation": "NJ",
        "stateName": "New Jersey",
        "id": 1126931,
        "latitude": 40.85778,
        "longitude": -74.42639
      },
      {
        "numJobs": 20,
        "name": "Dearborn, MI",
        "stateAbbreviation": "MI",
        "stateName": "Michigan",
        "id": 1134642,
        "latitude": 42.32222,
        "longitude": -83.17639
      },
      {
        "numJobs": 20,
        "name": "Livonia, MI",
        "stateAbbreviation": "MI",
        "stateName": "Michigan",
        "id": 1134687,
        "latitude": 42.36833,
        "longitude": -83.35278
      },
      {
        "numJobs": 20,
        "name": "North Providence, RI",
        "stateAbbreviation": "RI",
        "stateName": "Rhode Island",
        "id": 1151281,
        "latitude": 41.85,
        "longitude": -71.46667
      },
      {
        "numJobs": 20,
        "name": "Alhambra, CA",
        "stateAbbreviation": "CA",
        "stateName": "California",
        "id": 1146740,
        "latitude": 34.09528,
        "longitude": -118.12611
      },
      {
        "numJobs": 20,
        "name": "Greensburg, PA",
        "stateAbbreviation": "PA",
        "stateName": "Pennsylvania",
        "id": 1152878,
        "latitude": 40.30139,
        "longitude": -79.53917
      },
      {
        "numJobs": 20,
        "name": "Greenwood, IN",
        "stateAbbreviation": "IN",
        "stateName": "Indiana",
        "id": 1145010,
        "latitude": 39.61139,
        "longitude": -86.11806
      },
      {
        "numJobs": 20,
        "name": "Stow, OH",
        "stateAbbreviation": "OH",
        "stateName": "Ohio",
        "id": 1145557,
        "latitude": 41.15944,
        "longitude": -81.44056
      },
      {
        "numJobs": 20,
        "name": "Chantilly, VA",
        "stateAbbreviation": "VA",
        "stateName": "Virginia",
        "id": 1130353,
        "latitude": 38.89417,
        "longitude": -77.43139
      },
      {
        "numJobs": 20,
        "name": "Yonkers, NY",
        "stateAbbreviation": "NY",
        "stateName": "New York",
        "id": 1132473,
        "latitude": 40.93111,
        "longitude": -73.89917
      },
      {
        "numJobs": 20,
        "name": "Grand Prairie, TX",
        "stateAbbreviation": "TX",
        "stateName": "Texas",
        "id": 1139997,
        "latitude": 32.74583,
        "longitude": -96.9975
      },
      {
        "numJobs": 20,
        "name": "Lake Grove, NY",
        "stateAbbreviation": "NY",
        "stateName": "New York",
        "id": 1132299,
        "latitude": 40.85278,
        "longitude": -73.11556
      },
      {
        "numJobs": 20,
        "name": "Abilene, TX",
        "stateAbbreviation": "TX",
        "stateName": "Texas",
        "id": 1139716,
        "latitude": 32.44861,
        "longitude": -99.73278
      },
      {
        "numJobs": 20,
        "name": "Beaumont, TX",
        "stateAbbreviation": "TX",
        "stateName": "Texas",
        "id": 1139817,
        "latitude": 30.08583,
        "longitude": -94.10167
      },
      {
        "numJobs": 20,
        "name": "Depew, NY",
        "stateAbbreviation": "NY",
        "stateName": "New York",
        "id": 1131859,
        "latitude": 42.90389,
        "longitude": -78.6925
      },
      {
        "numJobs": 20,
        "name": "Dover, NH",
        "stateAbbreviation": "NH",
        "stateName": "New Hampshire",
        "id": 1147721,
        "latitude": 43.19778,
        "longitude": -70.87417
      },
      {
        "numJobs": 20,
        "name": "Juneau, AK",
        "stateAbbreviation": "AK",
        "stateName": "Alaska",
        "id": 1134226,
        "latitude": 58.30194,
        "longitude": -134.41972
      },
      {
        "numJobs": 20,
        "name": "Turlock, CA",
        "stateAbbreviation": "CA",
        "stateName": "California",
        "id": 1146959,
        "latitude": 37.49472,
        "longitude": -120.84556
      },
      {
        "numJobs": 20,
        "name": "Sheboygan, WI",
        "stateAbbreviation": "WI",
        "stateName": "Wisconsin",
        "id": 1133685,
        "latitude": 43.75083,
        "longitude": -87.71444
      },
      {
        "numJobs": 20,
        "name": "Elk Grove, CA",
        "stateAbbreviation": "CA",
        "stateName": "California",
        "id": 1147183,
        "latitude": 38.40889,
        "longitude": -121.37056
      },
      {
        "numJobs": 20,
        "name": "Monterey, CA",
        "stateAbbreviation": "CA",
        "stateName": "California",
        "id": 1147261,
        "latitude": 36.60028,
        "longitude": -121.89361
      },
      {
        "numJobs": 20,
        "name": "La Jolla, CA",
        "stateAbbreviation": "CA",
        "stateName": "California",
        "id": 1147294,
        "latitude": 32.84722,
        "longitude": -117.27333
      },
      {
        "numJobs": 20,
        "name": "Rapid City, SD",
        "stateAbbreviation": "SD",
        "stateName": "South Dakota",
        "id": 1141002,
        "latitude": 44.08056,
        "longitude": -103.23056
      },
      {
        "numJobs": 19,
        "name": "Huntsville, AL",
        "stateAbbreviation": "AL",
        "stateName": "Alabama",
        "id": 1127653,
        "latitude": 34.73028,
        "longitude": -86.58611
      },
      {
        "numJobs": 19,
        "name": "Edina, MN",
        "stateAbbreviation": "MN",
        "stateName": "Minnesota",
        "id": 1162277,
        "latitude": 44.88972,
        "longitude": -93.34972
      },
      {
        "numJobs": 19,
        "name": "Danvers, MA",
        "stateAbbreviation": "MA",
        "stateName": "Massachusetts",
        "id": 1154555,
        "latitude": 42.575,
        "longitude": -70.93056
      },
      {
        "numJobs": 19,
        "name": "Howell, MI",
        "stateAbbreviation": "MI",
        "stateName": "Michigan",
        "id": 1134675,
        "latitude": 42.60722,
        "longitude": -83.92944
      },
      {
        "numJobs": 19,
        "name": "Warrenville, IL",
        "stateAbbreviation": "IL",
        "stateName": "Illinois",
        "id": 1128993,
        "latitude": 41.81778,
        "longitude": -88.17333
      },
      {
        "numJobs": 19,
        "name": "City of Industry, CA",
        "stateAbbreviation": "CA",
        "stateName": "California",
        "id": 1146765,
        "latitude": 34.02463,
        "longitude": -117.97438
      },
      {
        "numJobs": 19,
        "name": "Blue Bell, PA",
        "stateAbbreviation": "PA",
        "stateName": "Pennsylvania",
        "id": 1152529,
        "latitude": 40.15222,
        "longitude": -75.26667
      },
      {
        "numJobs": 19,
        "name": "Norristown, PA",
        "stateAbbreviation": "PA",
        "stateName": "Pennsylvania",
        "id": 1152656,
        "latitude": 40.12139,
        "longitude": -75.34028
      },
      {
        "numJobs": 19,
        "name": "Lynchburg, VA",
        "stateAbbreviation": "VA",
        "stateName": "Virginia",
        "id": 1130113,
        "latitude": 37.41361,
        "longitude": -79.1425
      },
      {
        "numJobs": 19,
        "name": "Norman, OK",
        "stateAbbreviation": "OK",
        "stateName": "Oklahoma",
        "id": 1136949,
        "latitude": 35.2225,
        "longitude": -97.43917
      },
      {
        "numJobs": 19,
        "name": "Lewisville, TX",
        "stateAbbreviation": "TX",
        "stateName": "Texas",
        "id": 1140022,
        "latitude": 33.047523,
        "longitude": -96.99417
      },
      {
        "numJobs": 19,
        "name": "Dorchester, MA",
        "stateAbbreviation": "MA",
        "stateName": "Massachusetts",
        "id": 1166513,
        "latitude": 42.29722,
        "longitude": -71.075
      },
      {
        "numJobs": 19,
        "name": "Sugar Land, TX",
        "stateAbbreviation": "TX",
        "stateName": "Texas",
        "id": 1140225,
        "latitude": 29.61944,
        "longitude": -95.63472
      },
      {
        "numJobs": 19,
        "name": "Williamsville, NY",
        "stateAbbreviation": "NY",
        "stateName": "New York",
        "id": 1158944,
        "latitude": 42.96389,
        "longitude": -78.73806
      },
      {
        "numJobs": 19,
        "name": "Kennewick, WA",
        "stateAbbreviation": "WA",
        "stateName": "Washington",
        "id": 1150324,
        "latitude": 46.21139,
        "longitude": -119.13611
      },
      {
        "numJobs": 19,
        "name": "Tigard, OR",
        "stateAbbreviation": "OR",
        "stateName": "Oregon",
        "id": 1165048,
        "latitude": 45.43139,
        "longitude": -122.77028
      },
      {
        "numJobs": 19,
        "name": "San Rafael, CA",
        "stateAbbreviation": "CA",
        "stateName": "California",
        "id": 1147409,
        "latitude": 37.97361,
        "longitude": -122.53
      },
      {
        "numJobs": 19,
        "name": "Rochester, MN",
        "stateAbbreviation": "MN",
        "stateName": "Minnesota",
        "id": 1142638,
        "latitude": 44.02167,
        "longitude": -92.46972
      },
      {
        "numJobs": 19,
        "name": "Worthington, OH",
        "stateAbbreviation": "OH",
        "stateName": "Ohio",
        "id": 1163391,
        "latitude": 40.09306,
        "longitude": -83.01806
      },
      {
        "numJobs": 19,
        "name": "Greeley, CO",
        "stateAbbreviation": "CO",
        "stateName": "Colorado",
        "id": 1148276,
        "latitude": 40.42333,
        "longitude": -104.70861
      },