numJobs,name,stateAbbreviation,stateName,id,latitude,longitude,category_id
14690,"New York, NY",NY,New York,1132348,40.71417,-74.00639,20
7326,"San Francisco, CA",CA,California,1147401,37.775,-122.41833,20
6738,"Chicago, IL",IL,Illinois,1128808,41.85,-87.65,20
5551,"Seattle, WA",WA,Washington,1150505,47.60639,-122.33083,20
5338,"Washington, DC",DC,District of Columbia,1138213,38.895,-77.03667,20
5336,"Atlanta, GA",GA,Georgia,1155583,33.74889,-84.38806,20
4521,"Boston, MA",MA,Massachusetts,1154532,42.35833,-71.06028,20
4018,"Houston, TX",TX,Texas,1140171,29.76306,-95.36306,20
3732,"Los Angeles, CA",CA,California,1146821,34.05222,-118.24278,20
3581,"Dallas, TX",TX,Texas,1139977,32.78333,-96.8,20
3014,"Austin, TX",TX,Texas,1139761,30.26694,-97.74278,20
2870,"San Diego, CA",CA,California,1147311,32.71528,-117.15639,20
2485,"San Jose, CA",CA,California,1147436,37.33944,-121.89389,20
2458,"Philadelphia, PA",PA,Pennsylvania,1152672,39.95222,-75.16417,20
2334,"Phoenix, AZ",AZ,Arizona,1133904,33.44833,-112.07333,20
2240,"Denver, CO",CO,Colorado,1148170,39.73917,-104.98417,20
2104,"Charlotte, NC",NC,North Carolina,1138644,35.22694,-80.84333,20
1855,"Minneapolis, MN",MN,Minnesota,1142551,44.98,-93.26361,20
1768,"Pittsburgh, PA",PA,Pennsylvania,1152990,40.44056,-79.99611,20
1754,"Santa Clara, CA",CA,California,1147439,37.35417,-121.95417,20
1718,"Indianapolis, IN",IN,Indiana,1145013,39.76833,-86.15806,20
1716,"San Antonio, TX",TX,Texas,1140494,29.42389,-98.49333,20
1648,"Portland, OR",OR,Oregon,1151614,45.52361,-122.675,20
1608,"Saint Louis, MO",MO,Missouri,1131270,38.636864,-90.28388,20
1543,"Tampa, FL",FL,Florida,1154429,27.94722,-82.45861,20
1456,"Cincinnati, OH",OH,Ohio,1145705,39.16194,-84.45694,20
1398,"Columbus, OH",OH,Ohio,1145845,39.96111,-82.99889,20
1388,"Orlando, FL",FL,Florida,1154247,28.53806,-81.37944,20
1366,"Baltimore, MD",MD,Maryland,1153527,39.29028,-76.6125,20
1354,"Irvine, CA",CA,California,1146798,33.66944,-117.82222,20
1341,"Miami, FL",FL,Florida,1154170,25.77389,-80.19389,20
1311,"Sunnyvale, CA",CA,California,1147442,37.36889,-122.03528,20
1298,"Palo Alto, CA",CA,California,1147434,37.44194,-122.14194,20
1290,"Fort Worth, TX",TX,Texas,1139993,32.72528,-97.32056,20
1272,"Arlington, VA",VA,Virginia,1130337,38.89028,-77.08444,20
1251,"Raleigh, NC",NC,North Carolina,1138960,35.77194,-78.63889,20
1235,"McLean, VA",VA,Virginia,1158535,38.93417,-77.17778,20
1216,"Nashville, TN",TN,Tennessee,1144541,36.16583,-86.78444,20
1213,"Bellevue, WA",WA,Washington,1150442,47.61056,-122.19944,20
1176,"Las Vegas, NV",NV,Nevada,1149603,36.175,-115.13639,20
1124,"Reston, VA",VA,Virginia,1130404,38.96861,-77.34139,20
1120,"Redwood City, CA",CA,California,1147394,37.48528,-122.23528,20
1107,"Redmond, WA",WA,Washington,1150499,47.67417,-122.12028,20
1082,"Cambridge, MA",MA,Massachusetts,1154545,42.375,-71.10611,20
1060,"Sacramento, CA",CA,California,1147229,38.58167,-121.49333,20
1045,"Irving, TX",TX,Texas,1140006,32.81389,-96.94861,20
1038,"Jacksonville, FL",FL,Florida,1154093,30.33194,-81.65583,20
1002,"Salt Lake City, UT",UT,Utah,1128289,40.76083,-111.89028,20
990,"Richmond, VA",VA,Virginia,1130198,37.55361,-77.46056,20
967,"Cleveland, OH",OH,Ohio,1145778,41.49944,-81.69556,20
951,"Milwaukee, WI",WI,Wisconsin,1133579,43.03889,-87.90639,20
944,"Detroit, MI",MI,Michigan,1134644,42.33139,-83.04583,20
924,"Kansas City, MO",MO,Missouri,1131040,39.09972,-94.57833,20
881,"Louisville, KY",KY,Kentucky,1137724,38.25417,-85.75944,20
875,"Alpharetta, GA",GA,Georgia,1155582,34.07528,-84.29417,20
839,"Herndon, VA",VA,Virginia,1130374,38.96944,-77.38639,20
826,"Jersey City, NJ",NJ,New Jersey,1126819,40.72806,-74.07806,20
819,"Plano, TX",TX,Texas,1140045,33.01972,-96.69861,20
811,"Omaha, NE",NE,Nebraska,1136440,41.25861,-95.9375,20
798,"Mountain View, CA",CA,California,1147431,37.38611,-122.08278,20
755,"Memphis, TN",TN,Tennessee,1144463,35.14944,-90.04889,20
715,"Oakland, CA",CA,California,1147380,37.80444,-122.26972,20
686,"Eden Prairie, MN",MN,Minnesota,1142521,44.85472,-93.47056,20
671,"Princeton, NJ",NJ,New Jersey,1127179,40.34861,-74.65944,20
659,"Waltham, MA",MA,Massachusetts,1154703,42.37639,-71.23611,20
633,"Alexandria, VA",VA,Virginia,1130334,38.79755,-77.08908,20
618,"Durham, NC",NC,North Carolina,1138697,35.99389,-78.89889,20
607,"Englewood, CO",CO,Colorado,1148176,39.64778,-104.98722,20
601,"Birmingham, AL",AL,Alabama,1127429,33.52056,-86.8025,20
600,"Tucson, AZ",AZ,Arizona,1133996,32.22167,-110.92583,20
599,"Madison, WI",WI,Wisconsin,1133470,43.07306,-89.40111,20
594,"Fort Lauderdale, FL",FL,Florida,1154160,26.12194,-80.14361,20
577,"Stamford, CT",CT,Connecticut,1148355,41.05333,-73.53917,20
575,"El Segundo, CA",CA,California,1146779,33.91917,-118.41556,20
572,"Oklahoma City, OK",OK,Oklahoma,1136950,35.4675,-97.51611,20
570,"Rochester, NY",NY,New York,1132765,43.15472,-77.61583,20
568,"Pleasanton, CA",CA,California,1147390,37.6625,-121.87361,20
559,"Hartford, CT",CT,Connecticut,1148399,41.76361,-72.68556,20
530,"Rockville, MD",MD,Maryland,1153899,39.08389,-77.15306,20
518,"Fairfax, VA",VA,Virginia,1130359,38.84611,-77.30667,20
518,"Wilmington, DE",DE,Delaware,1156375,39.74583,-75.54694,20
517,"Santa Monica, CA",CA,California,1146873,34.01944,-118.49028,20
509,"Saint Paul, MN",MN,Minnesota,1142575,44.94444,-93.09306,20
508,"Chantilly, VA",VA,Virginia,1130353,38.89417,-77.43139,20
508,"Brooklyn, NY",NY,New York,1132200,40.65,-73.95,20
507,"Albuquerque, NM",NM,New Mexico,1137959,35.08444,-106.65056,20
504,"Honolulu, HI",HI,Hawaii,1140656,21.30694,-157.85834,20
499,"Scottsdale, AZ",AZ,Arizona,1133911,33.50917,-111.89833,20
494,"Tempe, AZ",AZ,Arizona,1133917,33.41472,-111.90861,20
492,"Overland Park, KS",KS,Kansas,1151049,38.98222,-94.67056,20
488,"Bethesda, MD",MD,Maryland,1153817,38.98056,-77.10056,20
483,"Greensboro, NC",NC,North Carolina,1138755,36.0725,-79.79222,20
483,"Na Ah Tee, AZ",AZ,Arizona,3741308,35.49028,-110.14389,20
483,"Colorado Springs, CO",CO,Colorado,1148136,38.83389,-104.82083,20
482,"Columbia, SC",SC,South Carolina,1155132,34.00056,-81.035,20
479,"East Hanover, NJ",NJ,New Jersey,1126743,40.82,-74.36528,20
475,"Newark, NJ",NJ,New Jersey,1126906,40.73556,-74.17278,20
458,"Columbia, MD",MD,Maryland,1153546,39.24028,-76.83972,20
452,"Charleston, SC",SC,South Carolina,1155074,32.77639,-79.93111,20
450,"Des Moines, IA",IA,Iowa,1149246,41.60056,-93.60889,20
447,"Long Island City, NY",NY,New York,1132310,40.756947,-73.928795,20
443,"Albany, NY",NY,New York,1131650,42.6525,-73.75667,20
439,"Costa Mesa, CA",CA,California,1146769,33.64111,-117.91778,20
438,"Huntsville, AL",AL,Alabama,1127653,34.73028,-86.58611,20
437,"Tulsa, OK",OK,Oklahoma,1137055,36.15389,-95.9925,20
435,"Auburn Hills, MI",MI,Michigan,1134622,42.6875,-83.23417,20
434,"Dayton, OH",OH,Ohio,1145937,39.75889,-84.19167,20
425,"Broomfield, CO",CO,Colorado,1148161,39.92056,-105.08611,20
423,"New Orleans, LA",LA,Louisiana,1150035,29.95444,-90.075,20
422,"Boise, ID",ID,Idaho,1127927,43.61361,-116.2025,20
421,"Knoxville, TN",TN,Tennessee,1144394,35.96056,-83.92083,20
421,"Buffalo, NY",NY,New York,1131850,42.88639,-78.87861,20
419,"Basking Ridge, NJ",NJ,New Jersey,1126687,40.70611,-74.54972,20
418,"San Ramon, CA",CA,California,1147410,37.78,-121.97694,20
417,"Richardson, TX",TX,Texas,1140053,32.94806,-96.72944,20
411,"San Mateo, CA",CA,California,1147406,37.56306,-122.32444,20
400,"Grand Rapids, MI",MI,Michigan,1134796,42.96333,-85.66806,20
399,"Fremont, CA",CA,California,1147355,37.54833,-121.9875,20
392,"Parsippany, NJ",NJ,New Jersey,1126931,40.85778,-74.42639,20
392,"Menlo Park, CA",CA,California,1147371,37.45389,-122.18111,20
391,"Norfolk, VA",VA,Virginia,1130306,36.84667,-76.28556,20
391,"Burlington, MA",MA,Massachusetts,1154543,42.50472,-71.19611,20
386,"Deerfield, IL",IL,Illinois,1128821,42.17111,-87.84444,20
386,"South San Francisco, CA",CA,California,1147412,37.65472,-122.40667,20
383,"Ann Arbor, MI",MI,Michigan,1134560,42.27083,-83.72639,20
382,"Bentonville, AR",AR,Arkansas,1143031,36.37278,-94.20861,20
379,"El Paso, TX",TX,Texas,1140105,31.75861,-106.48639,20
370,"Foster City, CA",CA,California,1163997,37.55861,-122.27,20
362,"Cary, NC",NC,North Carolina,1138945,35.79139,-78.78139,20
358,"Falls Church, VA",VA,Virginia,1130361,38.88222,-77.17139,20
355,"Northbrook, IL",IL,Illinois,1128934,42.1275,-87.82889,20
352,"Troy, MI",MI,Michigan,1134737,42.60556,-83.15,20
347,"Springfield, VA",VA,Virginia,1130409,38.791557,-77.18702,20
345,"Southfield, MI",MI,Michigan,1134732,42.47333,-83.22194,20
344,"Reno, NV",NV,Nevada,1149627,39.52972,-119.81278,20
342,"Fort Meade, MD",MD,Maryland,1165756,39.10815,-76.74323,20
342,"Torrance, CA",CA,California,1146894,33.83583,-118.33972,20
340,"Baton Rouge, LA",LA,Louisiana,1149789,30.45056,-91.15444,20
339,"Remote, OR",OR,Oregon,1165008,43.00611,-123.89139,20
336,"Harrisburg, PA",PA,Pennsylvania,1152185,40.27361,-76.88472,20
335,"Gaithersburg, MD",MD,Maryland,1153852,39.14333,-77.20167,20
334,"Pasadena, CA",CA,California,1146850,34.14778,-118.14361,20
332,"Hillsboro, OR",OR,Oregon,1151603,45.52306,-122.98861,20
329,"King of Prussia, PA",PA,Pennsylvania,1152620,40.08917,-75.39639,20
328,"Lexington, MA",MA,Massachusetts,1154599,42.44722,-71.225,20
327,"Crystal Lake, IL",IL,Illinois,1128819,42.24111,-88.31611,20
325,"Bridgewater, NJ",NJ,New Jersey,1126710,40.593163,-74.619514,20
325,"Boulder, CO",CO,Colorado,1148112,40.015,-105.27,20
323,"Syracuse, NY",NY,New York,1132872,43.04806,-76.14778,20
322,"Minnetonka, MN",MN,Minnesota,1142552,44.91333,-93.50306,20
316,"Thousand Oaks, CA",CA,California,1146988,34.17056,-118.83667,20
312,"Burbank, CA",CA,California,1146756,34.18083,-118.30806,20
310,"Tallahassee, FL",FL,Florida,1154378,30.43806,-84.28083,20
306,"Lincoln, NE",NE,Nebraska,1136371,40.8,-96.66667,20
305,"Vienna, VA",VA,Virginia,1130417,38.90111,-77.26556,20
304,"Walnut Creek, CA",CA,California,1147417,37.90639,-122.06389,20
303,"Greenville, SC",SC,South Carolina,1155193,34.8525,-82.39417,20
298,"Long Beach, CA",CA,California,1146819,33.76694,-118.18833,20
298,"Providence, RI",RI,Rhode Island,1151289,41.82389,-71.41333,20
293,"Schaumburg, IL",IL,Illinois,1128969,42.03333,-88.08333,20
290,"Anaheim, CA",CA,California,1146743,33.83528,-117.91361,20
290,"Virginia Beach, VA",VA,Virginia,1130324,36.85278,-75.97833,20
283,"Savannah, GA",GA,Georgia,1155906,32.08333,-81.1,20
282,"Livonia, MI",MI,Michigan,1134687,42.36833,-83.35278,20
281,"Orange, CA",CA,California,1146843,33.78778,-117.85222,20
281,"Andover, MA",MA,Massachusetts,1154518,42.65833,-71.1375,20
279,"Bothell, WA",WA,Washington,1150445,47.7625,-122.20417,20
277,"Milpitas, CA",CA,California,1147428,37.42833,-121.90556,20
271,"Carlsbad, CA",CA,California,1147279,33.15806,-117.34972,20
269,"Tacoma, WA",WA,Washington,1150517,47.25306,-122.44306,20
264,"Silver Spring, MD",MD,Maryland,1153904,38.99056,-77.02639,20
264,"San Bruno, CA",CA,California,1147399,37.63056,-122.41,20
262,"Chattanooga, TN",TN,Tennessee,1144251,35.04556,-85.30972,20
262,"Lexington-Fayette, KY",KY,Kentucky,3749474,38.04972,-84.45861,20
262,"Wichita, KS",KS,Kansas,1151230,37.69222,-97.33722,20
261,"Boca Raton, FL",FL,Florida,1154153,26.35833,-80.08333,20
261,"Riverside, CA",CA,California,1147138,33.95333,-117.39528,20
260,"Dearborn, MI",MI,Michigan,1134642,42.32222,-83.17639,20
260,"Anchorage, AK",AK,Alaska,1134201,61.21806,-149.90028,20
258,"Dublin, OH",OH,Ohio,1145850,40.102497,-83.11432,20
257,"Plymouth, MN",MN,Minnesota,1162329,45.01056,-93.45528,20
257,"Charlottesville, VA",VA,Virginia,1130001,38.02917,-78.47694,20
257,"Chandler, AZ",AZ,Arizona,1133878,33.30611,-111.84056,20
254,"East Hartford, CT",CT,Connecticut,1148388,41.78222,-72.6125,20
253,"Aurora, CO",CO,Colorado,1148156,39.72944,-104.83139,20
251,"Augusta, GA",GA,Georgia,1155718,33.47083,-81.975,20
251,"Beaverton, OR",OR,Oregon,1151576,45.48722,-122.8025,20
249,"Fort Myers, FL",FL,Florida,1154016,26.64028,-81.8725,20
248,"Marlborough, MA",MA,Massachusetts,1154610,42.34583,-71.55278,20
247,"Fresno, CA",CA,California,1146705,36.74778,-119.77139,20
244,"Ashburn, VA",VA,Virginia,1130338,39.04361,-77.48778,20
244,"Wilmington, NC",NC,North Carolina,1139117,34.22556,-77.945,20
243,"Round Rock, TX",TX,Texas,1139794,30.50806,-97.67861,20
242,"Mount Laurel, NJ",NJ,New Jersey,1127131,39.93389,-74.89139,20
241,"Buffalo Grove, IL",IL,Illinois,1128800,42.15139,-87.95972,20
241,"Framingham, MA",MA,Massachusetts,1154571,42.27917,-71.41667,20
240,"Lansing, MI",MI,Michigan,1134930,42.7325,-84.55556,20
238,"Little Rock, AR",AR,Arkansas,1143190,34.74639,-92.28944,20
238,"Dulles, VA",VA,Virginia,1130356,39.073128,-77.4685,20
237,"Melville, NY",NY,New York,1132326,40.79333,-73.41556,20
236,"Glendale, CA",CA,California,1146787,34.1425,-118.25417,20
234,"Annapolis Junction, MD",MD,Maryland,1153524,39.121613,-76.79043,20
232,"Frederick, MD",MD,Maryland,1153851,39.41417,-77.41083,20
231,"Toledo, OH",OH,Ohio,1146248,41.66389,-83.55528,20
231,"Winston-Salem, NC",NC,North Carolina,1139151,36.09766,-80.24728,20
231,"Spokane, WA",WA,Washington,1150554,47.65889,-117.425,20
227,"Edison, NJ",NJ,New Jersey,1126748,40.52424,-74.41246,20
225,"Melbourne, FL",FL,Florida,1154286,28.08333,-80.60833,20
225,"Vancouver, WA",WA,Washington,1150413,45.63889,-122.66028,20
223,"Santa Ana, CA",CA,California,1146870,33.74556,-117.86694,20
221,"Morrisville, NC",NC,North Carolina,1138956,35.82333,-78.82583,20
220,"Bakersfield, CA",CA,California,1146557,35.37333,-119.01778,20
220,"Allentown, PA",PA,Pennsylvania,1151916,40.60833,-75.49056,20
218,"Naperville, IL",IL,Illinois,1128928,41.78583,-88.14722,20
218,"Marietta, GA",GA,Georgia,1155654,33.9525,-84.55,20
217,"Arlington, TX",TX,Texas,1139951,32.73556,-97.10778,20
216,"Culver City, CA",CA,California,1146771,34.02111,-118.39556,20
216,"Worcester, MA",MA,Massachusetts,1154962,42.2625,-71.80278,20
214,"Saint Petersburg, FL",FL,Florida,1154421,27.77056,-82.67944,20
212,"Novi, MI",MI,Michigan,1134704,42.48056,-83.47556,20
212,"Cedar Rapids, IA",IA,Iowa,1149160,42.00833,-91.64389,20
211,"Brentwood, TN",TN,Tennessee,1144496,36.000107,-86.78849,20
211,"Norcross, GA",GA,Georgia,1155667,33.94111,-84.21361,20
211,"Manchester, NH",NH,New Hampshire,1147907,42.99556,-71.45528,20
210,"West Palm Beach, FL",FL,Florida,1154182,26.715,-80.05361,20
208,"Franklin, TN",TN,Tennessee,1144518,35.925,-86.86889,20
208,"Amarillo, TX",TX,Texas,1139740,35.22194,-101.83083,20
206,"Greenwood Village, Arapahoe, CO",CO,Colorado,1164301,39.61722,-104.95028,20
204,"Bloomington, MN",MN,Minnesota,1162257,44.84083,-93.29806,20
204,"Fort Belvoir, VA",VA,Virginia,1130362,38.712147,-77.158615,20
204,"Warren, MI",MI,Michigan,1134741,42.4775,-83.02778,20
203,"Lancaster, PA",PA,Pennsylvania,1152360,40.03778,-76.30583,20
202,"Akron, OH",OH,Ohio,1145529,41.08139,-81.51917,20
202,"Pensacola, FL",FL,Florida,1154318,30.42111,-87.21694,20
201,"Fort Wayne, IN",IN,Indiana,1144939,41.13056,-85.12889,20
192,"Kent, WA",WA,Washington,1150471,47.38111,-122.23361,20
191,"Downers Grove, IL",IL,Illinois,1128825,41.80889,-88.01111,20
188,"Montgomery, AL",AL,Alabama,1127704,32.36667,-86.3,20
185,"Evansville, IN",IN,Indiana,1144913,37.97472,-87.55583,20
185,"Portland, ME",ME,Maine,1135898,43.66139,-70.25583,20
184,"Frisco, TX",TX,Texas,1139994,33.15056,-96.82333,20
183,"Rockford, IL",IL,Illinois,1129425,42.27111,-89.09389,20
183,"Brea, CA",CA,California,1146754,33.91667,-117.89917,20
183,"Fort Collins, CO",CO,Colorado,1148233,40.58528,-105.08389,20
182,"Duluth, GA",GA,Georgia,1155612,34.00278,-84.14472,20
182,"Berkeley, CA",CA,California,1147330,37.87167,-122.27167,20
182,"Green Bay, WI",WI,Wisconsin,1133406,44.51917,-88.01972,20
182,"Littleton, CO",CO,Colorado,1148194,39.61333,-105.01611,20
181,"Sarasota, FL",FL,Florida,1154350,27.33611,-82.53083,20
181,"Springfield, MO",MO,Missouri,1131348,37.21528,-93.29806,20
180,"Topeka, KS",KS,Kansas,1151173,39.04833,-95.67778,20
179,"Santa Barbara, CA",CA,California,1147473,34.42083,-119.69722,20
178,"Sterling, VA",VA,Virginia,1130411,39.00611,-77.42889,20
178,"Carrollton, TX",TX,Texas,1139964,32.95361,-96.89,20
178,"Roseville, CA",CA,California,1147226,38.75222,-121.28694,20
176,"Clearwater, FL",FL,Florida,1154388,27.96556,-82.80028,20
176,"Emeryville, CA",CA,California,1147352,37.83139,-122.28417,20
175,"Jackson, MS",MS,Mississippi,1141371,32.29861,-90.18472,20
174,"Sioux Falls, SD",SD,South Dakota,1141041,43.55,-96.7,20
174,"Quincy, MA",MA,Massachusetts,1154667,42.25278,-71.00278,20
173,"Lake Mary, FL",FL,Florida,1154234,28.75861,-81.31806,20
173,"Woodland Hills, CA",CA,California,1146915,34.16833,-118.605,20
172,"Columbus, GA",GA,Georgia,1155778,32.46083,-84.98778,20
172,"New Haven, CT",CT,Connecticut,1148466,41.30806,-72.92861,20
172,"Nashua, NH",NH,New Hampshire,1147911,42.76528,-71.46806,20
171,"Corpus Christi, TX",TX,Texas,1139919,27.80028,-97.39611,20
171,"West Chester, PA",PA,Pennsylvania,1152733,39.96056,-75.60583,20
171,"Mesa, AZ",AZ,Arizona,1133897,33.42222,-111.82194,20
170,"White Plains, NY",NY,New York,1132464,41.03389,-73.76333,20
169,"Renton, WA",WA,Washington,1150501,47.48306,-122.21583,20
168,"York, PA",PA,Pennsylvania,1153468,39.9625,-76.72806,20
166,"Horsham, PA",PA,Pennsylvania,1152611,40.17833,-75.12889,20
165,"Newark, DE",DE,Delaware,1156369,39.68361,-75.75,20
164,"Riverwoods, IL",IL,Illinois,1158094,42.1675,-87.89694,20
164,"Centennial, CO",CO,Colorado,1164284,39.57917,-104.87639,20
163,"Reading, PA",PA,Pennsylvania,1153175,40.33556,-75.92722,20
162,"Annapolis, MD",MD,Maryland,1153523,38.97833,-76.4925,20
161,"Trenton, NJ",NJ,New Jersey,1127182,40.21694,-74.74333,20
160,"Mobile, AL",AL,Alabama,1127676,30.69417,-88.04306,20
160,"Richfield, MN",MN,Minnesota,1162332,44.88333,-93.28278,20
160,"Henderson, NV",NV,Nevada,1149600,36.03972,-114.98111,20
159,"Fargo, ND",ND,North Dakota,1156255,46.87722,-96.78944,20
158,"Lincolnshire, IL",IL,Illinois,1128898,42.19,-87.90833,20
158,"Cupertino, CA",CA,California,1147422,37.32306,-122.03111,20
157,"Bloomington, IN",IN,Indiana,1144789,39.16528,-86.52639,20
157,"Vernon Hills, IL",IL,Illinois,1128989,42.21944,-87.97944,20
157,"Chesapeake, VA",VA,Virginia,1130279,36.81889,-76.27528,20
157,"Bronx, NY",NY,New York,1132197,40.85,-73.86667,20
156,"Kalamazoo, MI",MI,Michigan,1134900,42.29167,-85.58722,20
155,"Roseland, NJ",NJ,New Jersey,1126969,40.82056,-74.29417,20
155,"Newport Beach, CA",CA,California,1146837,33.61889,-117.92806,20
154,"Carson City, NV",NV,Nevada,1149563,39.16389,-119.76639,20
154,"Valencia, CA",CA,California,1146899,34.44361,-118.60861,20
153,"Aurora, IL",IL,Illinois,1128780,41.76056,-88.32,20
152,"Ogden, UT",UT,Utah,1128221,41.22306,-111.97306,20
152,"Chesterfield, MO",MO,Missouri,1131207,38.66306,-90.57694,20
152,"Alameda, CA",CA,California,1147323,37.76528,-122.24056,20
151,"Lenexa, KS",KS,Kansas,1151040,38.95361,-94.73333,20
151,"Modesto, CA",CA,California,1146953,37.63917,-120.99583,20
150,"Mahwah, NJ",NJ,New Jersey,1126857,41.08861,-74.14417,20
150,"Naples, FL",FL,Florida,1154189,26.14167,-81.795,20
150,"Concord, CA",CA,California,1147340,37.97806,-122.03,20
148,"Rochester, MN",MN,Minnesota,1142638,44.02167,-92.46972,20
148,"Appleton, WI",WI,Wisconsin,1133289,44.26194,-88.41528,20
146,"Cranston, RI",RI,Rhode Island,1151253,41.77972,-71.43778,20
146,"Malvern, PA",PA,Pennsylvania,1152639,40.03611,-75.51417,20
145,"New Brunswick, NJ",NJ,New Jersey,1126901,40.48611,-74.45222,20
145,"Oak Brook, IL",IL,Illinois,1128935,41.83278,-87.92889,20
145,"Salem, OR",OR,Oregon,1151682,44.94306,-123.03389,20
145,"Purchase, NY",NY,New York,1132381,41.04083,-73.715,20
145,"Brookfield, WI",WI,Wisconsin,1133554,43.06056,-88.10639,20
144,"Farmington Hills, MI",MI,Michigan,1159753,42.48528,-83.37722,20
144,"Roanoke, VA",VA,Virginia,1130242,37.27083,-79.94167,20
144,"Tarrytown, NY",NY,New York,1132438,41.079224,-73.85868,20
143,"Watertown, MA",MA,Massachusetts,1154705,42.37083,-71.18333,20
143,"Bristol, CT",CT,Connecticut,1148368,41.67167,-72.94972,20
142,"Research Triangle Park, NC",NC,North Carolina,1161290,35.90657,-78.8633,20
142,"Eagan, MN",MN,Minnesota,1162274,44.80417,-93.16667,20
142,"Hanover, MD",MD,Maryland,1153584,39.19278,-76.72444,20
142,"Billerica, MA",MA,Massachusetts,1154531,42.55833,-71.26944,20
140,"Lewisville, TX",TX,Texas,1140022,33.047523,-96.99417,20
140,"Lubbock, TX",TX,Texas,1140320,33.57778,-101.85472,20
138,"Wayne, NJ",NJ,New Jersey,1127034,40.92528,-74.27694,20
138,"Piscataway, NJ",NJ,New Jersey,1126940,40.49917,-74.39944,20
138,"Lisle, IL",IL,Illinois,1128900,41.80111,-88.07472,20
138,"Ontario, CA",CA,California,1147122,34.06333,-117.65,20
138,"Livermore, CA",CA,California,1147367,37.68194,-121.76694,20
137,"Greenville, NC",NC,North Carolina,1138785,35.6125,-77.36667,20
136,"Morgantown, WV",WV,West Virginia,1143936,39.62944,-79.95611,20
136,"Cherry Hill, NJ",NJ,New Jersey,1127090,39.90461,-74.997,20
133,"Idaho Falls, ID",ID,Idaho,1127978,43.46667,-112.03333,20
133,"Eugene, OR",OR,Oregon,1151469,44.05222,-123.08556,20
133,"Kirkland, WA",WA,Washington,1150472,47.68167,-122.2075,20
133,"Hayward, CA",CA,California,1147358,37.66889,-122.07972,20
132,"Asheville, NC",NC,North Carolina,1138579,35.60083,-82.55417,20
132,"Waukesha, WI",WI,Wisconsin,1133599,43.01167,-88.23139,20
132,"Windsor, CT",CT,Connecticut,1148450,41.8525,-72.64417,20
131,"Florham Park, NJ",NJ,New Jersey,1126766,40.78778,-74.38861,20
131,"Fayetteville, NC",NC,North Carolina,1138720,35.0525,-78.87861,20
131,"Westminster, CO",CO,Colorado,1148207,39.83667,-105.03667,20
130,"Joliet, IL",IL,Illinois,1128880,41.525,-88.08167,20
130,"Macon, GA",GA,Georgia,1155868,32.84056,-83.6325,20
130,"Woburn, MA",MA,Massachusetts,1154729,42.47917,-71.15278,20
130,"Bozeman, MT",MT,Montana,1135421,45.67972,-111.03778,20
130,"Neenah, WI",WI,Wisconsin,1133635,44.18583,-88.4625,20
129,"Towson, MD",MD,Maryland,1153644,39.40139,-76.60222,20
129,"West Des Moines, IA",IA,Iowa,1149284,41.57722,-93.71111,20
129,"Lakewood, CO",CO,Colorado,1164305,39.70472,-105.08083,20
128,"Iowa City, IA",IA,Iowa,1149332,41.66111,-91.53,20
127,"Quantico, VA",VA,Virginia,1130401,38.52222,-77.29389,20
127,"Aberdeen Proving Ground, MD",MD,Maryland,1153521,39.430157,-76.2193,20
127,"Natick, MA",MA,Massachusetts,1154630,42.28333,-71.35,20
127,"Bethlehem, PA",PA,Pennsylvania,1151922,40.62583,-75.37083,20
126,"Raritan, NJ",NJ,New Jersey,1126955,40.56944,-74.63333,20
126,"Spartanburg, SC",SC,South Carolina,1155311,34.94944,-81.93222,20
126,"New Bedford, MA",MA,Massachusetts,1154781,41.63611,-70.93472,20
126,"Needham, MA",MA,Massachusetts,1154631,42.28333,-71.23333,20
126,"Shreveport, LA",LA,Louisiana,1150108,32.525,-93.75,20
126,"Folsom, CA",CA,California,1147188,38.67806,-121.175,20
125,"Somerset, NJ",NJ,New Jersey,1126989,40.4975,-74.48889,20
125,"Newport News, VA",VA,Virginia,1130305,36.97861,-76.42833,20
125,"Chapel Hill, NC",NC,North Carolina,1138696,35.91306,-79.05611,20
125,"Westborough, MA",MA,Massachusetts,1154956,42.26944,-71.61667,20
125,"Billings, MT",MT,Montana,1135402,45.78333,-108.5,20
124,"The Woodlands, TX",TX,Texas,1161666,30.15778,-95.48917,20
124,"Hampton, VA",VA,Virginia,1130294,37.02972,-76.34556,20
124,"Kansas City, KS",KS,Kansas,4990210,39.11417,-94.62722,20
124,"Dublin, CA",CA,California,1147348,37.70222,-121.93472,20
123,"Springfield, IL",IL,Illinois,1129562,39.80167,-89.64361,20
123,"Newton, MA",MA,Massachusetts,1154636,42.33694,-71.20972,20
123,"Hopkinton, MA",MA,Massachusetts,1154589,42.22861,-71.52306,20
123,"University Park, PA",PA,Pennsylvania,1165673,40.80194,-77.85667,20
123,"Norwalk, CT",CT,Connecticut,1148344,41.1175,-73.40833,20
122,"Glenview, IL",IL,Illinois,1128852,42.072487,-87.78677,20
121,"Santa Rosa, CA",CA,California,1147518,38.44056,-122.71333,20
120,"Newark, CA",CA,California,1147377,37.52972,-122.03917,20
119,"Davenport, IA",IA,Iowa,1149216,41.52361,-90.5775,20
119,"Stanford, CA",CA,California,1147441,37.42417,-122.165,20
119,"Danbury, CT",CT,Connecticut,1148332,41.39472,-73.45444,20
118,"Contact, MT",MT,Montana,3745564,45.50833,-110.22528,20
118,"Chelmsford, MA",MA,Massachusetts,1154550,42.59972,-71.36778,20
118,"Sunrise, FL",FL,Florida,1166212,26.13361,-80.11333,20
118,"Stockton, CA",CA,California,1147539,37.95778,-121.28972,20
117,"Carmel, IN",IN,Indiana,1144991,39.97833,-86.11806,20
117,"Woodcliff Lake, NJ",NJ,New Jersey,1157445,41.02333,-74.06694,20
117,"Racine, WI",WI,Wisconsin,1133669,42.72611,-87.78278,20
116,"Des Plaines, IL",IL,Illinois,1128823,42.03333,-87.88333,20
116,"Peoria, IL",IL,Illinois,1129349,40.69361,-89.58889,20
116,"Grand Prairie, TX",TX,Texas,1139997,32.74583,-96.9975,20
115,"Everett, WA",WA,Washington,1150458,47.97917,-122.20083,20
115,"Rancho Cucamonga, CA",CA,California,1147132,34.10639,-117.59222,20
114,"Canonsburg, PA",PA,Pennsylvania,1152796,40.2625,-80.1875,20
114,"Newtown Square, PA",PA,Pennsylvania,1152655,39.98667,-75.40139,20
114,"Fairfield, CA",CA,California,1147605,38.24944,-122.03889,20
113,"Morristown, NJ",NJ,New Jersey,1126891,40.79667,-74.48194,20
113,"Fort Bragg, NC",NC,North Carolina,1138721,35.13975,-78.99903,20
113,"Germantown, MD",MD,Maryland,1153854,39.17306,-77.27194,20
113,"San Bernardino, CA",CA,California,1147140,34.10833,-117.28889,20
112,"Lexington, KY",KY,Kentucky,1137677,37.98861,-84.47778,20
112,"Wayne, PA",PA,Pennsylvania,1152732,40.04389,-75.38806,20
112,"Portsmouth, NH",NH,New Hampshire,1147753,43.07167,-70.76306,20
112,"Farmington, CT",CT,Connecticut,1148395,41.71972,-72.8325,20
111,"Westerville, OH",OH,Ohio,1145913,40.12611,-82.92917,20
111,"Springfield, MA",MA,Massachusetts,1154860,42.10139,-72.59028,20
111,"Minden, NV",NV,Nevada,1149593,38.95417,-119.76472,20
111,"Windsor Locks, CT",CT,Connecticut,1148451,41.92917,-72.62778,20
110,"Columbia, MO",MO,Missouri,1130886,38.95167,-92.33389,20
109,"Warsaw, IN",IN,Indiana,1145346,41.23806,-85.85306,20
109,"Suffolk, VA",VA,Virginia,1130320,36.72806,-76.58389,20
109,"Southlake, TX",TX,Texas,1140065,32.94111,-97.13389,20
109,"Gardnerville, NV",NV,Nevada,1149590,38.94139,-119.74861,20
109,"Coral Gables, FL",FL,Florida,1166105,25.72111,-80.26861,20
108,"Fort Mill, SC",SC,South Carolina,1155108,35.00722,-80.94528,20
107,"Beverly Hills, CA",CA,California,1146753,34.07361,-118.39944,20
107,"Roswell, GA",GA,Georgia,1155681,34.02306,-84.36167,20
107,"Lakeland, FL",FL,Florida,1154143,28.03917,-81.95,20
106,"Laurel, MD",MD,Maryland,1153871,39.09917,-76.84861,20
106,"Universal City, CA",CA,California,1146898,34.13889,-118.3525,20
105,"Hoboken, NJ",NJ,New Jersey,1126809,40.74389,-74.03278,20
105,"Lake Forest, IL",IL,Illinois,1128891,42.25861,-87.84056,20
105,"Sugar Land, TX",TX,Texas,1140225,29.61944,-95.63472,20
105,"Mechanicsburg, PA",PA,Pennsylvania,1152196,40.21506,-77.00858,20
105,"Staten Island, NY",NY,New York,1132430,40.58901,-74.145874,20
104,"Athens, GA",GA,Georgia,1155564,33.96083,-83.37806,20
104,"Aberdeen, MD",MD,Maryland,1153520,39.50944,-76.16444,20
104,"Plymouth Meeting, PA",PA,Pennsylvania,1152677,40.10222,-75.27472,20
104,"Genoa, NV",NV,Nevada,1149591,39.00444,-119.84611,20
103,"Iselin, NJ",NJ,New Jersey,1126816,40.57528,-74.32278,20
103,"Owings Mills, MD",MD,Maryland,1153614,39.41944,-76.78056,20
103,"Pittsfield, MA",MA,Massachusetts,1154753,42.45,-73.24583,20
103,"Lafayette, LA",LA,Louisiana,1149927,30.22389,-92.01972,20
103,"Grand Junction, CO",CO,Colorado,1164330,39.070377,-108.54904,20
102,"Camden, NJ",NJ,New Jersey,1127087,39.92583,-75.12,20
102,"North Chicago, IL",IL,Illinois,1128933,42.32556,-87.84111,20
102,"Woonsocket, RI",RI,Rhode Island,1151308,42.00278,-71.51528,20
102,"Corvallis, OR",OR,Oregon,1151455,44.56472,-123.26083,20
102,"Longmont, CO",CO,Colorado,1148118,40.16722,-105.10139,20
101,"Denton, TX",TX,Texas,1139980,33.21472,-97.13278,20
101,"Waco, TX",TX,Texas,1140600,31.54917,-97.14639,20
101,"San Carlos, CA",CA,California,1147400,37.50722,-122.25944,20
101,"Petaluma, CA",CA,California,1147515,38.2325,-122.63556,20
100,"Rolling Meadows, IL",IL,Illinois,1128962,42.08417,-88.01306,20
100,"Coppell, TX",TX,Texas,1139974,32.95444,-97.01472,20
100,"Norwood, MA",MA,Massachusetts,1154655,42.19444,-71.2,20
100,"Gainesville, FL",FL,Florida,1154062,29.65139,-82.325,20
100,"Olathe, KS",KS,Kansas,1151046,38.88139,-94.81889,20
100,"San Rafael, CA",CA,California,1147409,37.97361,-122.53,20
100,"Rancho Cordova, CA",CA,California,1147221,38.58917,-121.30167,20
99,"Huntington Beach, CA",CA,California,1146795,33.66028,-117.99833,20
99,"Northridge, CA",CA,California,1146841,34.22833,-118.53583,20
99,"Hagerstown, MD",MD,Maryland,1153716,39.64167,-77.72028,20
99,"Bradenton, FL",FL,Florida,1154335,27.49861,-82.575,20
99,"Lynnwood, WA",WA,Washington,1150479,47.82111,-122.31389,20
98,"Secaucus, NJ",NJ,New Jersey,1126983,40.78944,-74.05694,20
98,"Lombard, IL",IL,Illinois,1128902,41.88,-88.00778,20
98,"Waukegan, IL",IL,Illinois,1128997,42.36361,-87.84472,20
98,"Glen Allen, VA",VA,Virginia,1130160,37.66583,-77.50667,20
98,"Elk Grove Village, IL",IL,Illinois,1158001,42.00389,-87.97028,20
98,"Miramar, FL",FL,Florida,1166164,25.98694,-80.2325,20
98,"Rocklin, CA",CA,California,1147225,38.79083,-121.23472,20
97,"North Charleston, SC",SC,South Carolina,1155093,32.85444,-79.975,20
96,"Bloomington, IL",IL,Illinois,1128636,40.48417,-88.99361,20
96,"Mason, OH",OH,Ohio,1145728,39.36,-84.31,20
96,"Bismarck, ND",ND,North Dakota,1156224,46.80833,-100.78333,20
96,"Sparks, NV",NV,Nevada,1149628,39.535,-119.75167,20
96,"Chula Vista, CA",CA,California,1147280,32.64,-117.08333,20
95,"Warren, NJ",NJ,New Jersey,1127032,40.631565,-74.508064,20
95,"Allen, TX",TX,Texas,1139946,33.10306,-96.67028,20
95,"McAllen, TX",TX,Texas,1140353,26.20306,-98.22972,20
95,"Rosemont, IL",IL,Illinois,1158097,38.62694,-90.09722,20
95,"College Park, MD",MD,Maryland,1153841,38.98056,-76.93722,20
94,"Cypress, CA",CA,California,1146772,33.81694,-118.03639,20
94,"Kennesaw, GA",GA,Georgia,1155639,34.02333,-84.61556,20
94,"Patuxent River, MD",MD,Maryland,1153746,38.28111,-76.420425,20
94,"Altamonte Springs, FL",FL,Florida,1154211,28.66083,-81.36583,20
94,"Middletown, PA",PA,Pennsylvania,1152197,40.19972,-76.73139,20
94,"Glendale, AZ",AZ,Arizona,1133888,33.53861,-112.18528,20
94,"Temecula, CA",CA,California,1147145,33.49361,-117.1475,20
93,"Dedham, MA",MA,Massachusetts,1154556,42.24167,-71.16667,20
93,"Blue Bell, PA",PA,Pennsylvania,1152529,40.15222,-75.26667,20
92,"Lake Forest, CA",CA,California,1146811,33.64694,-117.68833,20
92,"Manassas, VA",VA,Virginia,1130381,38.75083,-77.47556,20
92,"Burnsville, MN",MN,Minnesota,1142501,44.76778,-93.2775,20
92,"Pompano Beach, FL",FL,Florida,1154180,26.2375,-80.125,20
91,"Champaign, IL",IL,Illinois,1128722,40.11639,-88.24333,20
91,"McKinney, TX",TX,Texas,1140029,33.1975,-96.615,20
91,"Beaumont, TX",TX,Texas,1139817,30.08583,-94.10167,20
91,"Arlington Heights, IL",IL,Illinois,1157971,42.092873,-87.97989,20
91,"Canton, MA",MA,Massachusetts,1154546,42.15833,-71.14528,20
91,"Redlands, CA",CA,California,1147135,34.05556,-117.18167,20
90,"Tyler, TX",TX,Texas,1140559,32.35111,-95.30083,20
90,"San Leandro, CA",CA,California,1147404,37.725,-122.155,20
90,"San Luis Obispo, CA",CA,California,1147458,35.28278,-120.65861,20
89,"Charleston, WV",WV,West Virginia,1143753,38.34972,-81.63278,20
89,"Warner Robins, GA",GA,Georgia,1155961,32.62083,-83.6,20
89,"Headquarters, KY",KY,Kentucky,3752857,38.35833,-84.11444,20
89,"Merrimack, NH",NH,New Hampshire,1147908,42.865,-71.49389,20
88,"Sandy, UT",UT,Utah,1128290,40.574997,-111.84344,20
88,"Evanston, IL",IL,Illinois,1128835,42.04111,-87.69,20
88,"Erie, PA",PA,Pennsylvania,1152139,42.12917,-80.08528,20
88,"Roles Inn of America, AZ",AZ,Arizona,3741533,33.54472,-112.16694,20
88,"Oracle, AZ",AZ,Arizona,1133900,32.61083,-110.77028,20
87,"Weehawken, NJ",NJ,New Jersey,1127035,40.76944,-74.02083,20
87,"Elgin, IL",IL,Illinois,1128828,42.03722,-88.28111,20
87,"South Bend, IN",IN,Indiana,1145268,41.68333,-86.25,20
87,"Hamilton, OH",OH,Ohio,1145718,39.39944,-84.56139,20
87,"Lowell, MA",MA,Massachusetts,1154602,42.63333,-71.31667,20
87,"Lake Charles, LA",LA,Louisiana,1149940,30.22639,-93.21722,20
87,"Schenectady, NY",NY,New York,1131729,42.81417,-73.94,20
87,"Loveland, CO",CO,Colorado,1148237,40.39778,-105.07444,20
86,"Westlake, TX",TX,Texas,1161600,32.99111,-97.19472,20
86,"Englewood Cliffs, NJ",NJ,New Jersey,1126753,40.88528,-73.95278,20
86,"O&#039;Fallon, MO",MO,Missouri,3733854,38.81056,-90.69972,20
86,"College Station, TX",TX,Texas,1139900,30.62778,-96.33417,20
86,"Greenbelt, MD",MD,Maryland,1153857,39.00444,-76.87583,20
85,"Maple Grove, MN",MN,Minnesota,1162297,45.0725,-93.45556,20
85,"Cerritos, CA",CA,California,1146763,33.85833,-118.06389,20
85,"Palmdale, CA",CA,California,1146846,34.57944,-118.11556,20
85,"Elkhart, IN",IN,Indiana,1144901,41.68194,-85.97667,20
85,"Independence, OH",OH,Ohio,1145790,41.37114,-81.63821,20
85,"Addison, TX",TX,Texas,1139944,32.96167,-96.82889,20
85,"Hercules, CA",CA,California,1147359,38.01722,-122.2875,20
84,"Itasca, IL",IL,Illinois,1128879,41.975,-88.00722,20
84,"Fredericksburg, VA",VA,Virginia,1130363,38.30306,-77.46083,20
84,"Duluth, MN",MN,Minnesota,1142353,46.78333,-92.10639,20
84,"Yonkers, NY",NY,New York,1132473,40.93111,-73.89917,20
84,"Gilbert, AZ",AZ,Arizona,1133887,33.35278,-111.78833,20
84,"Yuma, AZ",AZ,Arizona,1134005,32.72528,-114.62361,20
84,"Tyson&#039;s Corner, Fairfax, VA",VA,Virginia,4990385,38.9186,-77.2297,20
83,"Monterey Park, CA",CA,California,1146832,34.0625,-118.12194,20
83,"Midland, TX",TX,Texas,1140362,31.99722,-102.0775,20
83,"Bowling Green, KY",KY,Kentucky,1137525,36.99028,-86.44361,20
83,"Campbell, CA",CA,California,1147420,37.28722,-121.94889,20
82,"Round Lake, IL",IL,Illinois,1128965,42.35333,-88.09333,20
82,"Aliso Viejo, CA",CA,California,1146741,33.60833,-117.74444,20
82,"Pasadena, TX",TX,Texas,1140200,29.69083,-95.20889,20
82,"Mankato, MN",MN,Minnesota,1142471,44.16361,-93.99917,20
82,"Raynham, MA",MA,Massachusetts,1154787,41.94861,-71.07361,20
82,"Flint, MI",MI,Michigan,1134766,43.0125,-83.6875,20
82,"Santa Fe, NM",NM,New Mexico,1138171,35.68694,-105.93722,20
82,"Hauppauge, NY",NY,New York,1132272,40.82556,-73.20306,20
82,"Latham, NY",NY,New York,1131702,42.74694,-73.75944,20
82,"Burlingame, CA",CA,California,1147335,37.58417,-122.365,20
82,"Greenwich, CT",CT,Connecticut,1148338,41.02639,-73.62889,20
81,"Montvale, NJ",NJ,New Jersey,1126886,41.04667,-74.02333,20
81,"Short Hills, NJ",NJ,New Jersey,1126986,40.74778,-74.32583,20
81,"Provo, UT",UT,Utah,1128247,40.23389,-111.65778,20
81,"Montpelier, VT",VT,Vermont,1141727,44.26,-72.57583,20
81,"Saint Joseph, MO",MO,Missouri,1131187,39.76861,-94.84639,20
81,"Eau Claire, WI",WI,Wisconsin,1133380,44.81139,-91.49833,20
80,"Golden Valley, MN",MN,Minnesota,1162283,45.00972,-93.34889,20
80,"Lehi, UT",UT,Utah,1128238,40.39167,-111.85,20
80,"Lynchburg, VA",VA,Virginia,1130113,37.41361,-79.1425,20
80,"America, OK",OK,Oklahoma,3747269,33.81528,-94.54833,20
80,"West Chester, OH",OH,Ohio,1145760,39.346878,-84.40942,20
80,"High Point, NC",NC,North Carolina,1138756,35.95556,-80.00556,20
80,"Burlington, VT",VT,Vermont,1141772,44.47583,-73.2125,20
80,"Lawrenceville, GA",GA,Georgia,1155641,33.95611,-83.98806,20
80,"Bend, OR",OR,Oregon,1151424,44.05833,-121.31417,20
79,"Albany, GA",GA,Georgia,1155542,31.57833,-84.15583,20
79,"Westford, MA",MA,Massachusetts,1154720,42.57917,-71.43833,20
79,"Bedford, MA",MA,Massachusetts,1154527,42.49056,-71.27667,20
79,"Ames, IA",IA,Iowa,1149127,42.03472,-93.61972,20
79,"Middleton, WI",WI,Wisconsin,1133474,43.09722,-89.50417,20
79,"New Britain, CT",CT,Connecticut,1148414,41.66111,-72.78,20
78,"Franklin Lakes, NJ",NJ,New Jersey,1157325,41.01667,-74.20611,20
78,"Palm Beach Gardens, FL",FL,Florida,1154178,26.82306,-80.13889,20
78,"Hershey, PA",PA,Pennsylvania,1152186,40.28583,-76.65056,20
78,"Urbandale, IA",IA,Iowa,1149281,41.62667,-93.71194,20
78,"Fontana, CA",CA,California,1147081,34.09222,-117.43417,20
78,"Hollywood, CA",CA,California,1163681,34.09833,-118.32583,20
77,"Johnson City, TN",TN,Tennessee,1144365,36.31333,-82.35361,20
77,"New Castle, DE",DE,Delaware,1156368,39.66194,-75.56667,20
77,"Plymouth, MI",MI,Michigan,1134713,42.37139,-83.47028,20
77,"Panama City, FL",FL,Florida,1154305,30.15861,-85.66028,20
77,"Ocala, FL",FL,Florida,1154201,29.18694,-82.14028,20
77,"Olympia, WA",WA,Washington,1150386,47.03806,-122.89944,20
76,"Fayetteville, AR",AR,Arkansas,1143041,36.0625,-94.15722,20
76,"Bolingbrook, IL",IL,Illinois,1128793,41.69861,-88.06833,20
76,"Fullerton, CA",CA,California,1146784,33.87028,-117.92444,20
76,"Columbus, IN",IN,Indiana,1144872,39.20139,-85.92139,20
76,"Estero, FL",FL,Florida,1154015,26.43778,-81.80694,20
76,"Holland, MI",MI,Michigan,1134828,42.7875,-86.10889,20
76,"Wilsonville, OR",OR,Oregon,1151630,45.3,-122.7725,20
76,"Camp Hill, PA",PA,Pennsylvania,1152174,40.23972,-76.92028,20
76,"Ithaca, NY",NY,New York,1132041,42.44056,-76.49694,20
76,"Corona, CA",CA,California,1147072,33.87528,-117.56556,20
76,"Pueblo, CO",CO,Colorado,1148308,38.25444,-104.60861,20
75,"Skokie, IL",IL,Illinois,1128973,42.03333,-87.73333,20
75,"Carson, CA",CA,California,1146761,33.83139,-118.28111,20
75,"Saint Cloud, MN",MN,Minnesota,1142664,45.56083,-94.16222,20
75,"Dover, DE",DE,Delaware,1156347,39.15806,-75.52472,20
75,"Wilmington, MA",MA,Massachusetts,1154726,42.54639,-71.17417,20
75,"Smithfield, RI",RI,Rhode Island,1151298,41.92194,-71.55,20
75,"Jefferson City, MO",MO,Missouri,1130954,38.57667,-92.17333,20
75,"Monterey, CA",CA,California,1147261,36.60028,-121.89361,20
74,"Hickory, NC",NC,North Carolina,1138808,35.73319,-81.341194,20
74,"Lanham, MD",MD,Maryland,1153870,38.96694,-76.86222,20
74,"Clackamas, OR",OR,Oregon,1151583,45.40778,-122.56917,20
74,"Las Cruces, NM",NM,New Mexico,1138109,32.31222,-106.77778,20
74,"Exton, PA",PA,Pennsylvania,1152576,40.02889,-75.62111,20
74,"Lexington Park, MD",MD,Maryland,1165827,38.26667,-76.45417,20
74,"Escondido, CA",CA,California,1147287,33.11917,-117.08556,20
73,"Blue Ash, OH",OH,Ohio,1163220,39.23194,-84.37833,20
73,"Hoffman Estates, IL",IL,Illinois,1128872,42.086994,-88.11034,20
73,"Harrisonburg, VA",VA,Virginia,1130069,38.44944,-78.86917,20
73,"Garland, TX",TX,Texas,1139995,32.9125,-96.63861,20
73,"Rapid City, SD",SD,South Dakota,1141002,44.08056,-103.23056,20
73,"Glen Burnie, MD",MD,Maryland,1153575,39.1625,-76.625,20
73,"Danvers, MA",MA,Massachusetts,1154555,42.575,-70.93056,20
73,"Newport, RI",RI,Rhode Island,1151279,41.49,-71.31333,20
73,"Berwyn, PA",PA,Pennsylvania,1152526,40.04472,-75.43917,20
72,"Richland, SC",SC,South Carolina,1155278,34.67778,-83.02556,20
72,"Tustin, CA",CA,California,1146897,33.74583,-117.82528,20
72,"Novato, CA",CA,California,1147379,38.1075,-122.56861,20
71,"Murfreesboro, TN",TN,Tennessee,1144540,35.84556,-86.39028,20
71,"Sterling Heights, MI",MI,Michigan,1159809,42.58028,-83.03028,20
71,"Bowie, MD",MD,Maryland,1153819,39.00667,-76.77944,20
71,"Scranton, PA",PA,Pennsylvania,1153278,41.40889,-75.66278,20
71,"Kissimmee, FL",FL,Florida,1154232,28.29167,-81.40778,20
71,"Norman, OK",OK,Oklahoma,1136949,35.2225,-97.43917,20
71,"Cedar Falls, IA",IA,Iowa,1149509,42.52778,-92.44528,20
71,"Wien, WI",WI,Wisconsin,3740330,44.90194,-90.02444,20
71,"Lone Tree, CO",CO,Colorado,1164306,39.53611,-104.89583,20
71,"Greeley, CO",CO,Colorado,1148276,40.42333,-104.70861,20
70,"Moorestown, NJ",NJ,New Jersey,1127128,39.96694,-74.94306,20
70,"Rochester Hills, MI",MI,Michigan,1159796,42.65833,-83.15,20
70,"Hollywood, FL",FL,Florida,1154163,26.01083,-80.14972,20
70,"Warwick, RI",RI,Rhode Island,1151302,41.7,-71.41667,20
70,"Ventura, CA",CA,California,1146989,34.27833,-119.29222,20
69,"Flower Mound, TX",TX,Texas,1139990,33.01444,-97.09667,20
69,"Myrtle Beach, SC",SC,South Carolina,1155247,33.68889,-78.88694,20
69,"Suwanee, GA",GA,Georgia,1155695,34.05139,-84.07139,20
69,"Chaska, MN",MN,Minnesota,1142509,44.78944,-93.60194,20
69,"Erlanger, KY",KY,Kentucky,1137565,39.01667,-84.60083,20
69,"Union City, CA",CA,California,1147416,37.59639,-122.08056,20
69,"Wausau, WI",WI,Wisconsin,1133724,44.95917,-89.63,20
68,"Arcadia, CA",CA,California,1146744,34.13972,-118.03444,20
68,"Temple, TX",TX,Texas,1140277,31.09806,-97.3425,20
68,"Palm Bay, FL",FL,Florida,1154291,28.03417,-80.58889,20
68,"Fort Washington, PA",PA,Pennsylvania,1152585,40.14167,-75.20944,20
68,"Conshohocken, PA",PA,Pennsylvania,1152554,40.07917,-75.30194,20
68,"Auburn, WA",WA,Washington,1150440,47.3075,-122.22722,20
68,"Santa Maria, CA",CA,California,1147474,34.95306,-120.43472,20
68,"Menomonee Falls, WI",WI,Wisconsin,1133576,43.17889,-88.11722,20
68,"Oceanside, CA",CA,California,1147301,33.19583,-117.37861,20
68,"Bloomfield, CT",CT,Connecticut,1148366,41.82639,-72.73056,20
68,"Middletown, CT",CT,Connecticut,1148411,41.56222,-72.65111,20
67,"Springdale, AR",AR,Arkansas,1143063,36.18667,-94.12861,20
67,"Encino, CA",CA,California,1146781,34.15917,-118.50028,20
67,"Johns Creek, GA",GA,Georgia,3824751,34.028927,-84.19858,20
67,"Ridgefield Park, NJ",NJ,New Jersey,1157405,40.858097,-74.021675,20
67,"Salisbury, MD",MD,Maryland,1153799,38.36056,-75.59972,20
67,"Missoula, MT",MT,Montana,1135489,46.87222,-113.99306,20
67,"Bala Cynwyd, PA",PA,Pennsylvania,1152523,40.0138,-75.231705,20
67,"Federal Way, WA",WA,Washington,1150460,47.3225,-122.31139,20
67,"Richland, WA",WA,Washington,1150330,46.28583,-119.28333,20
67,"Richmond, CA",CA,California,1147395,37.93583,-122.34667,20
67,"Concord, NH",NH,New Hampshire,1147789,43.20806,-71.53806,20
67,"Kodiak, AK",AK,Alaska,1134230,57.79,-152.40723,20
67,"Simi Valley, CA",CA,California,1146986,34.26944,-118.78056,20
67,"Louisville, CO",CO,Colorado,1148119,39.97778,-105.13139,20
67,"Golden, CO",CO,Colorado,1148181,39.75556,-105.22056,20
67,"Poughkeepsie, NY",NY,New York,1132662,41.70028,-73.92139,20
66,"Draper, UT",UT,Utah,1128274,40.52472,-111.86306,20
66,"Carol Stream, IL",IL,Illinois,1128804,41.9125,-88.13472,20
66,"Tinley Park, IL",IL,Illinois,1128987,41.57333,-87.78444,20
66,"Conroe, TX",TX,Texas,1140144,30.31167,-95.45583,20
66,"Portage, MI",MI,Michigan,1134909,42.20111,-85.58,20
66,"Jackson, MI",MI,Michigan,1134877,42.24583,-84.40139,20
66,"Cheyenne, WY",WY,Wyoming,1138322,41.14,-104.81972,20
66,"Lawrence, KS",KS,Kansas,1151068,38.97167,-95.235,20
66,"North Las Vegas, NV",NV,Nevada,1149609,36.19889,-115.11667,20
66,"Moon Township, PA",PA,Pennsylvania,1165467,0,0,20
66,"Dover, NH",NH,New Hampshire,1147721,43.19778,-70.87417,20
66,"West Hartford, CT",CT,Connecticut,1148443,41.76194,-72.7425,20
66,"La Crosse, WI",WI,Wisconsin,1133440,43.80139,-91.23944,20
65,"Union, NJ",NJ,New Jersey,1127022,40.698925,-74.26363,20
65,"Paramus, NJ",NJ,New Jersey,1126928,40.94444,-74.07583,20
65,"Maplewood, MN",MN,Minnesota,1162298,44.95306,-92.995,20
65,"Downey, CA",CA,California,1146775,33.94,-118.13167,20
65,"Grapevine, TX",TX,Texas,1139999,32.93417,-97.07778,20
65,"Laredo, TX",TX,Texas,1140286,27.50611,-99.50722,20
65,"Florence, SC",SC,South Carolina,1155168,34.19528,-79.76278,20
65,"Braintree, MA",MA,Massachusetts,1154535,42.22222,-71,20
65,"Deerfield Beach, FL",FL,Florida,1166111,26.31806,-80.1,20
65,"Wyomissing, PA",PA,Pennsylvania,1165577,40.32944,-75.96556,20
65,"Vacaville, CA",CA,California,1147609,38.35667,-121.98667,20
65,"New Berlin, WI",WI,Wisconsin,1133583,42.97639,-88.10833,20
64,"Niles, IL",IL,Illinois,1128931,42.01889,-87.80278,20
64,"City of Industry, CA",CA,California,1146765,34.02463,-117.97438,20
64,"Stafford, VA",VA,Virginia,1130410,38.42194,-77.40861,20
64,"Mooresville, NC",NC,North Carolina,1139057,35.58472,-80.81028,20
64,"State College, PA",PA,Pennsylvania,1153370,40.79333,-77.86028,20
64,"Milford, MA",MA,Massachusetts,1154918,42.13972,-71.51667,20
64,"Tualatin, OR",OR,Oregon,1151624,45.38417,-122.76278,20
64,"Kohler, WI",WI,Wisconsin,1133681,43.73917,-87.78167,20
64,"Salinas, CA",CA,California,1147265,36.67778,-121.65444,20
63,"Mission Viejo, CA",CA,California,1146829,33.6,-117.67111,20
63,"Plainfield, IN",IN,Indiana,1145032,39.70417,-86.39944,20
63,"Fishers, IN",IN,Indiana,1145003,39.95556,-86.01389,20
63,"Blacksburg, VA",VA,Virginia,1129954,37.231148,-80.413055,20
63,"Tinton Falls, NJ",NJ,New Jersey,1157423,40.30417,-74.10083,20
63,"Sioux City, IA",IA,Iowa,1149480,42.5,-96.4,20
63,"Woodlawn, MD",MD,Maryland,1165812,39.32278,-76.72833,20
63,"Belmont, CA",CA,California,1147328,37.52028,-122.27472,20
63,"Wallingford, CT",CT,Connecticut,1148476,41.45694,-72.82361,20
63,"Enfield, CT",CT,Connecticut,1148393,41.97611,-72.59222,20
62,"McDonough, GA",GA,Georgia,1155655,33.44722,-84.14694,20
62,"Gainesville, GA",GA,Georgia,1155838,34.29778,-83.82417,20
62,"Maitland, FL",FL,Florida,1154238,28.6275,-81.36333,20
62,"Medford, OR",OR,Oregon,1151534,42.32667,-122.87444,20
62,"Lake Oswego, OR",OR,Oregon,1151605,45.42083,-122.66944,20
62,"Waterloo, IA",IA,Iowa,1149531,42.49278,-92.34278,20
62,"Fairbanks, AK",AK,Alaska,1134219,64.83778,-147.71638,20
62,"North Haven, CT",CT,Connecticut,1148468,41.39083,-72.86,20
61,"South Plainfield, NJ",NJ,New Jersey,1126995,40.57917,-74.41194,20
61,"Plainsboro, NJ",NJ,New Jersey,1126943,40.33333,-74.60083,20
61,"Edina, MN",MN,Minnesota,1162277,44.88972,-93.34972,20
61,"Canoga Park, CA",CA,California,1146758,34.20111,-118.59722,20
61,"Oakbrook Terrace, IL",IL,Illinois,1158078,41.85,-87.96444,20
61,"Elkridge, MD",MD,Maryland,1153559,39.2125,-76.71389,20
61,"Westbrook, ME",ME,Maine,1135923,43.67694,-70.37167,20
61,"Pontiac, MI",MI,Michigan,1134714,42.63889,-83.29111,20
61,"Monroe, MI",MI,Michigan,1134988,41.91639,-83.39778,20
61,"Miami Beach, FL",FL,Florida,1154171,25.79028,-80.13028,20
61,"Edmond, OK",OK,Oklahoma,1136930,35.65278,-97.47778,20
61,"Los Gatos, CA",CA,California,1147427,37.22667,-121.97361,20
60,"Kingsport, TN",TN,Tennessee,1144380,36.54833,-82.56194,20
60,"Youngstown, OH",OH,Ohio,1146406,41.09972,-80.64972,20
60,"Hawthorne, CA",CA,California,1146793,33.91639,-118.35167,20
60,"Winchester, VA",VA,Virginia,1130431,39.18556,-78.16361,20
60,"Katy, TX",TX,Texas,1140177,29.78556,-95.82417,20
60,"Anderson, SC",SC,South Carolina,1155033,34.50333,-82.65028,20
60,"Cape Canaveral, FL",FL,Florida,1154280,28.40556,-80.605,20
60,"Burlington, NC",NC,North Carolina,1138632,36.09556,-79.43806,20
60,"Mineola, NY",NY,New York,1132333,40.74917,-73.64111,20
60,"Garden City, NY",NY,New York,1132254,40.72667,-73.63472,20
60,"Bossier City, LA",LA,Louisiana,1150087,32.51583,-93.73194,20
60,"Battle Creek, MI",MI,Michigan,1134573,42.32111,-85.17972,20
60,"East Syracuse, NY",NY,New York,1132819,43.06528,-76.07889,20
59,"Brooklyn Park, MN",MN,Minnesota,1162260,45.09417,-93.35611,20
59,"Wauwatosa, WI",WI,Wisconsin,1159476,43.04944,-88.0075,20
59,"Gardena, CA",CA,California,1146786,33.88833,-118.30806,20
59,"Williamsburg, VA",VA,Virginia,1130328,37.27056,-76.70778,20
59,"Baytown, TX",TX,Texas,1140132,29.73528,-94.97722,20
59,"Concord, NC",NC,North Carolina,1138646,35.416473,-80.57785,20
59,"Chambersburg, PA",PA,Pennsylvania,1152023,39.9375,-77.66139,20
59,"Wilton, CT",CT,Connecticut,1148361,41.19528,-73.43833,20
58,"Denville, NJ",NJ,New Jersey,1126738,40.89222,-74.47778,20
58,"Fort Smith, AR",AR,Arkansas,1143091,35.38583,-94.39833,20
58,"Orem, UT",UT,Utah,1128244,40.29694,-111.69389,20
58,"Lafayette, IN",IN,Indiana,1145102,40.41667,-86.87528,20
58,"Valdosta, GA",GA,Georgia,1155947,30.8325,-83.27861,20
58,"Fort George G Meade, MD",MD,Maryland,1153566,39.10968,-76.73694,20
58,"Alexandria, LA",LA,Louisiana,1149749,31.31111,-92.445,20
58,"Issaquah, WA",WA,Washington,1150468,47.53028,-122.03139,20
58,"Coral Springs, FL",FL,Florida,1166106,26.27083,-80.27083,20
58,"Benicia, CA",CA,California,1147601,38.04944,-122.1575,20
58,"Kenosha, WI",WI,Wisconsin,1133351,42.58472,-87.82111,20
58,"Fond du Lac, WI",WI,Wisconsin,1133392,43.77306,-88.44694,20
58,"Onalaska, WI",WI,Wisconsin,1133442,43.88444,-91.235,20
57,"Decatur, AL",AL,Alabama,1127561,34.60583,-86.98333,20
57,"American Fork, UT",UT,Utah,1128232,40.37694,-111.795,20
57,"Miamisburg, OH",OH,Ohio,1145950,39.64278,-84.28667,20
57,"Redondo Beach, CA",CA,California,1146859,33.84917,-118.3875,20
57,"Beachwood, OH",OH,Ohio,1145766,41.46444,-81.50889,20
57,"Bryan, TX",TX,Texas,1139896,30.67417,-96.36972,20
57,"West Valley City, UT",UT,Utah,1157900,40.69167,-112.00028,20
57,"Clayton, MO",MO,Missouri,1158732,38.6425,-90.32361,20
57,"Brandon, FL",FL,Florida,1154386,27.9375,-82.28611,20
57,"Stuart, FL",FL,Florida,1154326,27.19722,-80.25306,20
57,"Benton Harbor, MI",MI,Michigan,1135012,42.11667,-86.45417,20
57,"Davidson, NC",NC,North Carolina,1138650,35.49917,-80.84889,20
57,"Dubuque, IA",IA,Iowa,1149290,42.50056,-90.66444,20
57,"DC Ranch, AZ",AZ,Arizona,3741759,33.6675,-111.86472,20
57,"Oxnard, CA",CA,California,1146980,34.1975,-119.17611,20
57,"Chino, CA",CA,California,1147067,34.01222,-117.68806,20
57,"Fountain Valley, CA",CA,California,1163668,33.710487,-117.95386,20
57,"Shelton, CT",CT,Connecticut,1148352,41.31639,-73.09361,20
57,"Bridgeport, CT",CT,Connecticut,1148329,41.16694,-73.20528,20
56,"Clarksville, TN",TN,Tennessee,1144270,36.52972,-87.35944,20
56,"Rogers, AR",AR,Arkansas,1143060,36.33194,-94.11833,20
56,"Rosemead, CA",CA,California,1146861,34.08056,-118.07194,20
56,"Dalton, GA",GA,Georgia,1155803,34.775177,-84.970665,20
56,"Largo, FL",FL,Florida,1154404,27.90917,-82.7875,20
56,"Swiftwater, PA",PA,Pennsylvania,1152130,41.09528,-75.32528,20
56,"Salem, NH",NH,New Hampshire,1147759,42.78833,-71.20139,20
56,"Mequon, WI",WI,Wisconsin,1133577,43.23639,-87.98444,20
55,"Teaneck, NJ",NJ,New Jersey,1127011,40.8975,-74.01639,20
55,"Nampa, ID",ID,Idaho,1127948,43.54083,-116.5625,20
55,"Spring, TX",TX,Texas,1140222,30.07972,-95.41694,20
55,"Burr Ridge, IL",IL,Illinois,1157981,41.74889,-87.91833,20
55,"Los Alamos, NM",NM,New Mexico,1138137,35.889465,-106.30698,20
55,"Collegeville, PA",PA,Pennsylvania,1152551,40.18556,-75.45194,20
55,"Boulder City, NV",NV,Nevada,1149597,35.97861,-114.83167,20
55,"Valhalla, NY",NY,New York,1132445,41.07472,-73.77556,20
55,"Metairie, LA",LA,Louisiana,1150033,29.98389,-90.15278,20
55,"Bellingham, WA",WA,Washington,1150256,48.75972,-122.48694,20
55,"Keene, NH",NH,New Hampshire,1147821,42.93361,-72.27861,20
55,"Westlake Village, Los Angeles, CA",CA,California,1146990,34.14583,-118.80472,20
55,"West Sacramento, CA",CA,California,1147241,38.58056,-121.52917,20
55,"El Cajon, CA",CA,California,1147285,32.79472,-116.96167,20
54,"Matawan, NJ",NJ,New Jersey,1126866,40.41472,-74.23,20
54,"Summit, NJ",NJ,New Jersey,1127008,40.74139,-74.36,20
54,"Greenwood, IN",IN,Indiana,1145010,39.61139,-86.11806,20
54,"Terre Haute, IN",IN,Indiana,1145310,39.46667,-87.41389,20
54,"Leesburg, VA",VA,Virginia,1130376,39.11556,-77.56389,20
54,"Canton, OH",OH,Ohio,1145650,40.79889,-81.37861,20
54,"Humble, TX",TX,Texas,1140175,29.99999,-95.26125,20
54,"Garner, NC",NC,North Carolina,1138950,35.71111,-78.61444,20
54,"Shakopee, MN",MN,Minnesota,1142581,44.79806,-93.52667,20
54,"Hunt Valley, MD",MD,Maryland,1153589,39.49972,-76.64139,20
54,"Taunton, MA",MA,Massachusetts,1154795,41.9,-71.09028,20
54,"Puyallup, WA",WA,Washington,1150497,47.18556,-122.29167,20
54,"Plantation, FL",FL,Florida,1166193,26.127102,-80.23334,20
53,"Livingston, NJ",NJ,New Jersey,1126850,40.79583,-74.31528,20
53,"Crane, IN",IN,Indiana,1144637,38.89111,-86.90389,20
53,"Fridley, MN",MN,Minnesota,1162282,45.08611,-93.26306,20
53,"Meridian, ID",ID,Idaho,1127945,43.61222,-116.39056,20
53,"Murray, UT",UT,Utah,1157881,40.66694,-111.88722,20
53,"Clayton, NC",NC,North Carolina,1138946,35.65056,-78.45667,20
53,"Decatur, GA",GA,Georgia,1155610,33.77472,-84.29639,20
53,"Goleta, CA",CA,California,1147467,34.43583,-119.82667,20
53,"Napa, CA",CA,California,1146966,38.29722,-122.28444,20
52,"Tuscaloosa, AL",AL,Alabama,1127776,33.20972,-87.56917,20
52,"Conway, AR",AR,Arkansas,1143176,35.08861,-92.44194,20
52,"Addison, IL",IL,Illinois,1128774,41.93167,-87.98889,20
52,"Garden Grove, CA",CA,California,1146785,33.77389,-117.94056,20
52,"Santa Fe Springs, Los Angeles, CA",CA,California,1146872,33.94722,-118.08444,20
52,"Mentor, OH",OH,Ohio,1145800,41.66611,-81.33972,20
52,"Rock Hill, SC",SC,South Carolina,1155111,34.92472,-81.02528,20
52,"Saginaw, MI",MI,Michigan,1135057,43.41944,-83.95083,20
52,"Jupiter, FL",FL,Florida,1154165,26.93389,-80.09444,20
52,"Fort Walton Beach, FL",FL,Florida,1154048,30.40556,-86.61889,20
52,"Easton, PA",PA,Pennsylvania,1151932,40.68833,-75.22111,20
52,"Huntersville, NC",NC,North Carolina,1138654,35.41056,-80.84306,20
52,"Hebron, KY",KY,Kentucky,1137573,39.06583,-84.70111,20
52,"Yardley, PA",PA,Pennsylvania,1165396,40.24556,-74.84639,20
52,"San Marcos, CA",CA,California,1147313,33.14333,-117.16528,20
51,"Marlton, NJ",NJ,New Jersey,1127123,39.89111,-74.92222,20
51,"Mounds View, MN",MN,Minnesota,1162309,45.105,-93.20833,20
51,"Chico, CA",CA,California,1146608,39.72861,-121.83639,20
51,"Hattiesburg, MS",MS,Mississippi,1141337,31.32694,-89.29028,20
51,"Aiken, SC",SC,South Carolina,1155044,33.56028,-81.71972,20
51,"Great Falls, MT",MT,Montana,1135435,47.50028,-111.3,20
51,"Frankfort, KY",KY,Kentucky,1137650,38.20083,-84.87333,20
51,"Carlisle, PA",PA,Pennsylvania,1152175,40.20139,-77.18917,20
51,"Santa Cruz, CA",CA,California,1147488,36.97417,-122.02972,20
50,"Clifton, NJ",NJ,New Jersey,1126726,40.85833,-74.16417,20
50,"Rahway, NJ",NJ,New Jersey,1126952,40.60806,-74.27806,20
50,"Mansfield, OH",OH,Ohio,1146055,40.75833,-82.51556,20
50,"Marina del Rey, CA",CA,California,1146825,33.98028,-118.45083,20
50,"Woodbridge, VA",VA,Virginia,1130422,38.65806,-77.25,20
50,"Portsmouth, VA",VA,Virginia,1130313,36.83528,-76.29861,20
50,"Hamilton, NJ",NJ,New Jersey,1157536,40.20694,-74.08167,20
50,"Abilene, TX",TX,Texas,1139716,32.44861,-99.73278,20
50,"North Wales, PA",PA,Pennsylvania,1152657,40.21083,-75.27861,20
50,"Indian Springs, Clark, NV",NV,Nevada,1149601,36.56972,-115.66972,20
50,"Fort Polk, LA",LA,Louisiana,1149871,31.04639,-93.20528,20
50,"Hicksville, NY",NY,New York,1132277,40.76833,-73.52556,20
50,"Middle City East, PA",PA,Pennsylvania,1165323,0,0,20
50,"West Conshohocken, PA",PA,Pennsylvania,1165389,40.06972,-75.31667,20
50,"Redding, CA",CA,California,1147039,40.58667,-122.39056,20
50,"Sierra Vista, AZ",AZ,Arizona,1133980,31.55444,-110.30306,20
50,"Janesville, WI",WI,Wisconsin,1133435,42.68278,-89.01861,20
50,"Kettering, OH",OH,Ohio,1163398,39.68944,-84.16889,20
50,"Beavercreek, OH",OH,Ohio,1163394,39.70917,-84.06333,20
50,"Manchester, CT",CT,Connecticut,1148404,41.77583,-72.52194,20
49,"Wilkes-Barre, PA",PA,Pennsylvania,3806633,41.24583,-75.88167,20
49,"Auburn, AL",AL,Alabama,1127412,32.60972,-85.48083,20
49,"Lincoln, AL",AL,Alabama,1127742,33.61306,-86.11833,20
49,"Santa Clarita, CA",CA,California,1146871,34.39167,-118.54167,20
49,"Westlake, OH",OH,Ohio,1145825,41.45528,-81.91806,20
49,"Franklin, MA",MA,Massachusetts,1154572,42.08333,-71.39722,20
49,"Saint Augustine, FL",FL,Florida,1154105,29.89444,-81.31472,20
49,"Hutchinson, KS",KS,Kansas,1151012,38.06083,-97.92944,20
49,"Monroeville, PA",PA,Pennsylvania,1152956,40.42111,-79.78833,20
49,"West Point, PA",PA,Pennsylvania,1152735,40.20667,-75.29972,20
49,"Jean, NV",NV,Nevada,1149602,35.77889,-115.32306,20
49,"Doral, FL",FL,Florida,1166112,25.81917,-80.35556,20
49,"Peoria, AZ",AZ,Arizona,1133903,33.58056,-112.23667,20
49,"Camarillo, CA",CA,California,1146973,34.21639,-119.03667,20
48,"Hackensack, NJ",NJ,New Jersey,1126787,40.88583,-74.04389,20
48,"West Jordan, UT",UT,Utah,1128296,40.60972,-111.93833,20
48,"Elmhurst, IL",IL,Illinois,1128830,41.89944,-87.94028,20
48,"Mishawaka, IN",IN,Indiana,1145263,41.66194,-86.15861,20
48,"A Country Place, NJ",NJ,New Jersey,3717080,40.08833,-74.22917,20
48,"Brecksville, OH",OH,Ohio,1145769,41.31972,-81.62694,20
48,"Hopkins, MN",MN,Minnesota,1142534,44.925,-93.4625,20
48,"Traverse City, MI",MI,Michigan,1135118,44.76306,-85.62056,20
48,"Somerville, MA",MA,Massachusetts,1154685,42.3875,-71.1,20
48,"Florence, KY",KY,Kentucky,1137567,38.99889,-84.62667,20
48,"Bohemia, NY",NY,New York,1132190,40.76917,-73.11556,20
48,"Rensselaer, NY",NY,New York,1131719,42.6425,-73.74333,20
48,"Johnston, IA",IA,Iowa,1149256,41.67306,-93.6975,20
48,"Independence, MO",MO,Missouri,1131039,39.09111,-94.41528,20
48,"Van Nuys, CA",CA,California,1146902,34.18667,-118.44806,20
48,"Tukwila, WA",WA,Washington,1164776,47.47417,-122.25972,20
48,"Flagstaff, AZ",AZ,Arizona,1133807,35.19806,-111.65056,20
47,"Freehold, NJ",NJ,New Jersey,1126774,40.26,-74.27417,20
47,"Titusville, NJ",NJ,New Jersey,1127181,40.30944,-74.88083,20
47,"Roseville, MN",MN,Minnesota,1162334,45.00611,-93.15639,20
47,"Logan, UT",UT,Utah,1128198,41.73556,-111.83361,20
47,"Findlay, OH",OH,Ohio,1146001,41.04417,-83.65,20
47,"Mount Prospect, IL",IL,Illinois,1128926,42.06639,-87.93722,20
47,"Geneva, IL",IL,Illinois,1128846,41.8875,-88.30528,20
47,"DeKalb, IL",IL,Illinois,1128822,41.92944,-88.75028,20
47,"Pomona, CA",CA,California,1146855,34.05528,-117.75139,20
47,"Victoria, TX",TX,Texas,1140584,28.805,-97.00333,20
47,"Odessa, TX",TX,Texas,1140385,31.84556,-102.36722,20
47,"Wake Forest, NC",NC,North Carolina,1138964,35.97972,-78.51,20
47,"Queens Village, NY",NY,New York,1159147,40.72677,-73.74152,20
47,"West Columbia, SC",SC,South Carolina,1155154,33.99333,-81.07417,20
47,"Minot, ND",ND,North Dakota,1156308,48.2325,-101.29583,20
47,"Mansfield, MA",MA,Massachusetts,1154780,42.03333,-71.21944,20
47,"Helena, MT",MT,Montana,1135460,46.59278,-112.03528,20
47,"Concord, MA",MA,Massachusetts,1154554,42.46028,-71.34944,20
47,"Winter Park, FL",FL,Florida,1154259,28.59972,-81.33944,20
47,"Kingston, NY",NY,New York,1132106,41.92694,-73.99778,20
47,"Fort Gordon, GA",GA,Georgia,1166835,33.42083,-82.16222,20
47,"Maryland Heights, MO",MO,Missouri,1131251,38.71306,-90.42972,20
47,"Saratoga, CA",CA,California,1147440,37.26389,-122.02194,20
47,"Palm Springs, CA",CA,California,1147125,33.83028,-116.54444,20
47,"Vista, CA",CA,California,1147321,33.2,-117.24167,20
47,"Groton, CT",CT,Connecticut,1148487,41.35,-72.07889,20
46,"Florence, AL",AL,Alabama,1127615,34.79972,-87.67722,20
46,"Troy, OH",OH,Ohio,1145959,40.03944,-84.20333,20
46,"Bensenville, IL",IL,Illinois,1128787,41.955,-87.94,20
46,"Radford, VA",VA,Virginia,1129972,37.13167,-80.57667,20
46,"Lorton, VA",VA,Virginia,1130379,38.70417,-77.22806,20
46,"Mc Lean, VA",VA,Virginia,1130384,38.939877,-77.19016,20
46,"Strongsville, OH",OH,Ohio,1145819,41.31444,-81.83583,20
46,"Solon, OH",OH,Ohio,1145817,41.38972,-81.44139,20
46,"Mesquite, TX",TX,Texas,1140032,32.76667,-96.59914,20
46,"Abbott Park, IL",IL,Illinois,1157968,0,0,20
46,"Longview, TX",TX,Texas,1140307,32.50056,-94.74028,20
46,"Kearney, NE",NE,Nebraska,1136341,40.69944,-99.08111,20
46,"Hanover, PA",PA,Pennsylvania,1153449,39.802998,-76.98326,20
46,"Bangor, ME",ME,Maine,1135774,44.80111,-68.77833,20
46,"Peabody, MA",MA,Massachusetts,1154659,42.52778,-70.92917,20
46,"Medford, MA",MA,Massachusetts,1154617,42.41833,-71.10667,20
46,"Saint Charles, MO",MO,Missouri,1131268,38.78389,-90.48111,20
46,"Wellington, FL",FL,Florida,1166229,26.65833,-80.24167,20
46,"Sylmar, CA",CA,California,1146889,34.30778,-118.44833,20
46,"Oshkosh, WI",WI,Wisconsin,1133637,44.02472,-88.5425,20
46,"Pleasant Prairie, WI",WI,Wisconsin,1133353,42.55306,-87.93333,20
45,"Fairfield, NJ",NJ,New Jersey,1126758,40.88361,-74.30639,20
45,"Lyndhurst, NJ",NJ,New Jersey,1126854,40.81194,-74.12472,20
45,"Skillman, NJ",NJ,New Jersey,1126988,40.42,-74.715,20
45,"Lima, OH",OH,Ohio,1146050,40.744137,-84.10532,20
45,"North Olmsted, OH",OH,Ohio,1145804,41.41556,-81.92361,20
45,"Conyers, GA",GA,Georgia,1155604,33.6675,-84.01778,20
45,"Port Saint Lucie, FL",FL,Florida,1154324,27.29361,-80.35056,20
45,"Hialeah, FL",FL,Florida,1154162,25.85722,-80.27833,20
45,"Ankeny, IA",IA,Iowa,1149231,41.72972,-93.60556,20
45,"Blue Springs, MO",MO,Missouri,1131005,39.01694,-94.28139,20
45,"Joplin, MO",MO,Missouri,1130983,37.08417,-94.51306,20
45,"Tracy, CA",CA,California,1147541,37.73972,-121.42417,20
45,"Palm Desert, CA",CA,California,1147124,33.72222,-116.37361,20
45,"El Dorado Hills, CA",CA,California,1147182,38.68583,-121.08111,20
44,"Eatontown, NJ",NJ,New Jersey,1126746,40.29611,-74.05139,20
44,"Pocatello, ID",ID,Idaho,1128031,42.87139,-112.44472,20
44,"Park City, UT",UT,Utah,1128285,40.64611,-111.49722,20
44,"Mundelein, IL",IL,Illinois,1128927,42.26306,-88.00389,20
44,"Buena Park, CA",CA,California,1146755,33.8675,-117.99722,20
44,"Chatsworth, CA",CA,California,1146764,34.25722,-118.60028,20
44,"Lancaster, CA",CA,California,1146814,34.69806,-118.13583,20
44,"Ewing, NJ",NJ,New Jersey,1157535,40.26972,-74.80028,20
44,"Texarkana, TX",TX,Texas,1140553,33.425,-94.0475,20
44,"Buford, GA",GA,Georgia,1155595,34.12056,-84.00444,20
44,"Austin, MN",MN,Minnesota,1142280,43.66667,-92.97444,20
44,"Grand Forks, ND",ND,North Dakota,1156271,47.92528,-97.0325,20
44,"Brockton, MA",MA,Massachusetts,1154539,42.08333,-71.01889,20
44,"Farmingdale, NY",NY,New York,1132245,40.733307,-73.445274,20
44,"Coralville, IA",IA,Iowa,1149329,41.67639,-91.58028,20
44,"Monroe, LA",LA,Louisiana,1149963,32.515842,-92.119675,20
44,"Frazer, PA",PA,Pennsylvania,1165280,40.03222,-75.55639,20
44,"Irwindale, CA",CA,California,1163685,34.10694,-117.93444,20
44,"Stratford, CT",CT,Connecticut,1148357,41.18444,-73.13361,20
43,"Middletown, NJ",NJ,New Jersey,1126872,40.397354,-74.0915,20
43,"Whippany, NJ",NJ,New Jersey,1127044,40.82444,-74.4175,20
43,"Lake Zurich, IL",IL,Illinois,1128894,42.19694,-88.09333,20
43,"Van Buren Township, MI",MI,Michigan,1159812,0,0,20
43,"Noblesville, IN",IN,Indiana,1145028,40.04556,-86.00861,20
43,"Galveston, TX",TX,Texas,1140161,29.30111,-94.7975,20
43,"Greer, SC",SC,South Carolina,1155194,34.93861,-82.22722,20
43,"Newnan, GA",GA,Georgia,1155666,33.38056,-84.79972,20
43,"Beltsville, MD",MD,Maryland,1153815,39.03472,-76.90778,20
43,"Scarborough, ME",ME,Maine,1135904,43.57806,-70.32222,20
43,"Northampton, MA",MA,Massachusetts,1154847,42.325,-72.64167,20
43,"Farmington, NM",NM,New Mexico,1138046,36.72806,-108.21806,20
43,"Manhasset, NY",NY,New York,1132316,40.79778,-73.7,20
43,"Landover, MD",MD,Maryland,1165886,38.93389,-76.89694,20
43,"Lebanon, NH",NH,New Hampshire,1147869,43.64222,-72.25222,20
43,"Casa Grande, AZ",AZ,Arizona,1133875,32.87944,-111.75667,20
43,"Victorville, CA",CA,California,1147152,34.53611,-117.29028,20
42,"Jackson, TN",TN,Tennessee,1144353,35.61444,-88.81389,20
42,"Blaine, MN",MN,Minnesota,1162256,45.16083,-93.23472,20
42,"Orland Park, IL",IL,Illinois,1128940,41.63028,-87.85389,20
42,"Melrose Park, IL",IL,Illinois,1128915,41.90056,-87.85667,20
