numJobs,name,stateAbbreviation,stateName,id,latitude,longitude,category_id
2626,"New York, NY",NY,New York,1132348,40.71417,-74.00639,32
769,"San Francisco, CA",CA,California,1147401,37.775,-122.41833,32
697,"Washington, DC",DC,District of Columbia,1138213,38.895,-77.03667,32
669,"Chicago, IL",IL,Illinois,1128808,41.85,-87.65,32
513,"Los Angeles, CA",CA,California,1146821,34.05222,-118.24278,32
476,"Boston, MA",MA,Massachusetts,1154532,42.35833,-71.06028,32
474,"Atlanta, GA",GA,Georgia,1155583,33.74889,-84.38806,32
357,"Houston, TX",TX,Texas,1140171,29.76306,-95.36306,32
357,"Seattle, WA",WA,Washington,1150505,47.60639,-122.33083,32
317,"Philadelphia, PA",PA,Pennsylvania,1152672,39.95222,-75.16417,32
285,"Dallas, TX",TX,Texas,1139977,32.78333,-96.8,32
280,"San Diego, CA",CA,California,1147311,32.71528,-117.15639,32
273,"Arlington, VA",VA,Virginia,1130337,38.89028,-77.08444,32
239,"Austin, TX",TX,Texas,1139761,30.26694,-97.74278,32
232,"San Jose, CA",CA,California,1147436,37.33944,-121.89389,32
229,"Phoenix, AZ",AZ,Arizona,1133904,33.44833,-112.07333,32
189,"Denver, CO",CO,Colorado,1148170,39.73917,-104.98417,32
185,"Baltimore, MD",MD,Maryland,1153527,39.29028,-76.6125,32
165,"San Antonio, TX",TX,Texas,1140494,29.42389,-98.49333,32
165,"Minneapolis, MN",MN,Minnesota,1142551,44.98,-93.26361,32
163,"Indianapolis, IN",IN,Indiana,1145013,39.76833,-86.15806,32
157,"Reston, VA",VA,Virginia,1130404,38.96861,-77.34139,32
157,"Saint Louis, MO",MO,Missouri,1131270,38.636864,-90.28388,32
152,"Detroit, MI",MI,Michigan,1134644,42.33139,-83.04583,32
140,"Las Vegas, NV",NV,Nevada,1149603,36.175,-115.13639,32
139,"Charlotte, NC",NC,North Carolina,1138644,35.22694,-80.84333,32
138,"Orlando, FL",FL,Florida,1154247,28.53806,-81.37944,32
137,"Pittsburgh, PA",PA,Pennsylvania,1152990,40.44056,-79.99611,32
135,"Fort Worth, TX",TX,Texas,1139993,32.72528,-97.32056,32
134,"Cambridge, MA",MA,Massachusetts,1154545,42.375,-71.10611,32
134,"Jacksonville, FL",FL,Florida,1154093,30.33194,-81.65583,32
134,"Columbus, OH",OH,Ohio,1145845,39.96111,-82.99889,32
132,"Irvine, CA",CA,California,1146798,33.66944,-117.82222,32
129,"Cincinnati, OH",OH,Ohio,1145705,39.16194,-84.45694,32
129,"Santa Clara, CA",CA,California,1147439,37.35417,-121.95417,32
128,"Portland, OR",OR,Oregon,1151614,45.52361,-122.675,32
126,"Annapolis Junction, MD",MD,Maryland,1153524,39.121613,-76.79043,32
126,"Raleigh, NC",NC,North Carolina,1138960,35.77194,-78.63889,32
125,"Tampa, FL",FL,Florida,1154429,27.94722,-82.45861,32
124,"Miami, FL",FL,Florida,1154170,25.77389,-80.19389,32
123,"McLean, VA",VA,Virginia,1158535,38.93417,-77.17778,32
120,"Nashville, TN",TN,Tennessee,1144541,36.16583,-86.78444,32
112,"Kansas City, MO",MO,Missouri,1131040,39.09972,-94.57833,32
112,"Fort Meade, MD",MD,Maryland,1165756,39.10815,-76.74323,32
109,"Brooklyn, NY",NY,New York,1132200,40.65,-73.95,32
107,"Waltham, MA",MA,Massachusetts,1154703,42.37639,-71.23611,32
105,"Salt Lake City, UT",UT,Utah,1128289,40.76083,-111.89028,32
105,"Mountain View, CA",CA,California,1147431,37.38611,-122.08278,32
104,"San Mateo, CA",CA,California,1147406,37.56306,-122.32444,32
102,"Louisville, KY",KY,Kentucky,1137724,38.25417,-85.75944,32
96,"Milwaukee, WI",WI,Wisconsin,1133579,43.03889,-87.90639,32
95,"Fort Lauderdale, FL",FL,Florida,1154160,26.12194,-80.14361,32
95,"Redmond, WA",WA,Washington,1150499,47.67417,-122.12028,32
95,"Redwood City, CA",CA,California,1147394,37.48528,-122.23528,32
94,"Palo Alto, CA",CA,California,1147434,37.44194,-122.14194,32
93,"Princeton, NJ",NJ,New Jersey,1127179,40.34861,-74.65944,32
93,"Alexandria, VA",VA,Virginia,1130334,38.79755,-77.08908,32
90,"Englewood, CO",CO,Colorado,1148176,39.64778,-104.98722,32
89,"Durham, NC",NC,North Carolina,1138697,35.99389,-78.89889,32
84,"Huntsville, AL",AL,Alabama,1127653,34.73028,-86.58611,32
83,"Menlo Park, CA",CA,California,1147371,37.45389,-122.18111,32
81,"Richmond, VA",VA,Virginia,1130198,37.55361,-77.46056,32
80,"Birmingham, AL",AL,Alabama,1127429,33.52056,-86.8025,32
80,"Chantilly, VA",VA,Virginia,1130353,38.89417,-77.43139,32
79,"Bellevue, WA",WA,Washington,1150442,47.61056,-122.19944,32
77,"Oklahoma City, OK",OK,Oklahoma,1136950,35.4675,-97.51611,32
77,"Sunnyvale, CA",CA,California,1147442,37.36889,-122.03528,32
77,"Folsom, CA",CA,California,1147188,38.67806,-121.175,32
77,"Sacramento, CA",CA,California,1147229,38.58167,-121.49333,32
76,"Omaha, NE",NE,Nebraska,1136440,41.25861,-95.9375,32
76,"Parsippany, NJ",NJ,New Jersey,1126931,40.85778,-74.42639,32
76,"Cleveland, OH",OH,Ohio,1145778,41.49944,-81.69556,32
75,"Bethesda, MD",MD,Maryland,1153817,38.98056,-77.10056,32
75,"Albuquerque, NM",NM,New Mexico,1137959,35.08444,-106.65056,32
74,"Fairfax, VA",VA,Virginia,1130359,38.84611,-77.30667,32
72,"El Segundo, CA",CA,California,1146779,33.91917,-118.41556,32
71,"Santa Monica, CA",CA,California,1146873,34.01944,-118.49028,32
69,"Columbia, MD",MD,Maryland,1153546,39.24028,-76.83972,32
69,"Madison, WI",WI,Wisconsin,1133470,43.07306,-89.40111,32
67,"Norfolk, VA",VA,Virginia,1130306,36.84667,-76.28556,32
67,"Greensboro, NC",NC,North Carolina,1138755,36.0725,-79.79222,32
67,"Oakland, CA",CA,California,1147380,37.80444,-122.26972,32
66,"Colorado Springs, CO",CO,Colorado,1148136,38.83389,-104.82083,32
65,"Burbank, CA",CA,California,1146756,34.18083,-118.30806,32
65,"Tulsa, OK",OK,Oklahoma,1137055,36.15389,-95.9925,32
62,"Rockville, MD",MD,Maryland,1153899,39.08389,-77.15306,32
62,"Memphis, TN",TN,Tennessee,1144463,35.14944,-90.04889,32
62,"Plano, TX",TX,Texas,1140045,33.01972,-96.69861,32
62,"Alpharetta, GA",GA,Georgia,1155582,34.07528,-84.29417,32
60,"Reno, NV",NV,Nevada,1149627,39.52972,-119.81278,32
60,"Tucson, AZ",AZ,Arizona,1133996,32.22167,-110.92583,32
60,"Aurora, CO",CO,Colorado,1148156,39.72944,-104.83139,32
58,"Charleston, SC",SC,South Carolina,1155074,32.77639,-79.93111,32
57,"Herndon, VA",VA,Virginia,1130374,38.96944,-77.38639,32
57,"Irving, TX",TX,Texas,1140006,32.81389,-96.94861,32
56,"Dayton, OH",OH,Ohio,1145937,39.75889,-84.19167,32
56,"Scottsdale, AZ",AZ,Arizona,1133911,33.50917,-111.89833,32
55,"Little Rock, AR",AR,Arkansas,1143190,34.74639,-92.28944,32
55,"New Orleans, LA",LA,Louisiana,1150035,29.95444,-90.075,32
54,"Gaithersburg, MD",MD,Maryland,1153852,39.14333,-77.20167,32
54,"El Paso, TX",TX,Texas,1140105,31.75861,-106.48639,32
53,"Boca Raton, FL",FL,Florida,1154153,26.35833,-80.08333,32
53,"Rochester, NY",NY,New York,1132765,43.15472,-77.61583,32
52,"Culver City, CA",CA,California,1146771,34.02111,-118.39556,32
52,"Costa Mesa, CA",CA,California,1146769,33.64111,-117.91778,32
52,"Albany, NY",NY,New York,1131650,42.6525,-73.75667,32
51,"Newark, NJ",NJ,New Jersey,1126906,40.73556,-74.17278,32
51,"Bloomington, IN",IN,Indiana,1144789,39.16528,-86.52639,32
51,"Virginia Beach, VA",VA,Virginia,1130324,36.85278,-75.97833,32
51,"Eden Prairie, MN",MN,Minnesota,1142521,44.85472,-93.47056,32
49,"Bronx, NY",NY,New York,1132197,40.85,-73.86667,32
48,"Chattanooga, TN",TN,Tennessee,1144251,35.04556,-85.30972,32
48,"Vienna, VA",VA,Virginia,1130417,38.90111,-77.26556,32
48,"Buffalo, NY",NY,New York,1131850,42.88639,-78.87861,32
48,"Des Moines, IA",IA,Iowa,1149246,41.60056,-93.60889,32
48,"Columbia, SC",SC,South Carolina,1155132,34.00056,-81.035,32
47,"Boise, ID",ID,Idaho,1127927,43.61361,-116.2025,32
46,"Ann Arbor, MI",MI,Michigan,1134560,42.27083,-83.72639,32
45,"Hanover, MD",MD,Maryland,1153584,39.19278,-76.72444,32
45,"Saint Petersburg, FL",FL,Florida,1154421,27.77056,-82.67944,32
45,"Stamford, CT",CT,Connecticut,1148355,41.05333,-73.53917,32
44,"Jersey City, NJ",NJ,New Jersey,1126819,40.72806,-74.07806,32
44,"Brentwood, TN",TN,Tennessee,1144496,36.000107,-86.78849,32
44,"Auburn Hills, MI",MI,Michigan,1134622,42.6875,-83.23417,32
44,"Torrance, CA",CA,California,1146894,33.83583,-118.33972,32
43,"Long Beach, CA",CA,California,1146819,33.76694,-118.18833,32
43,"Saint Paul, MN",MN,Minnesota,1142575,44.94444,-93.09306,32
43,"Carlsbad, CA",CA,California,1147279,33.15806,-117.34972,32
42,"Lansing, MI",MI,Michigan,1134930,42.7325,-84.55556,32
42,"Santa Ana, CA",CA,California,1146870,33.74556,-117.86694,32
42,"Honolulu, HI",HI,Hawaii,1140656,21.30694,-157.85834,32
42,"Hartford, CT",CT,Connecticut,1148399,41.76361,-72.68556,32
41,"Grand Rapids, MI",MI,Michigan,1134796,42.96333,-85.66806,32
41,"Fresno, CA",CA,California,1146705,36.74778,-119.77139,32
41,"Redlands, CA",CA,California,1147135,34.05556,-117.18167,32
40,"Silver Spring, MD",MD,Maryland,1153904,38.99056,-77.02639,32
40,"Winston-Salem, NC",NC,North Carolina,1139151,36.09766,-80.24728,32
39,"Greenville, SC",SC,South Carolina,1155193,34.8525,-82.39417,32
38,"Pensacola, FL",FL,Florida,1154318,30.42111,-87.21694,32
38,"Fremont, CA",CA,California,1147355,37.54833,-121.9875,32
37,"Lincoln, NE",NE,Nebraska,1136371,40.8,-96.66667,32
37,"Fort Myers, FL",FL,Florida,1154016,26.64028,-81.8725,32
37,"Knoxville, TN",TN,Tennessee,1144394,35.96056,-83.92083,32
37,"Overland Park, KS",KS,Kansas,1151049,38.98222,-94.67056,32
36,"West Palm Beach, FL",FL,Florida,1154182,26.715,-80.05361,32
36,"Glendale, CA",CA,California,1146787,34.1425,-118.25417,32
36,"King of Prussia, PA",PA,Pennsylvania,1152620,40.08917,-75.39639,32
36,"Akron, OH",OH,Ohio,1145529,41.08139,-81.51917,32
35,"Lexington, MA",MA,Massachusetts,1154599,42.44722,-71.225,32
35,"Wilmington, NC",NC,North Carolina,1139117,34.22556,-77.945,32
35,"Cary, NC",NC,North Carolina,1138945,35.79139,-78.78139,32
34,"Frederick, MD",MD,Maryland,1153851,39.41417,-77.41083,32
34,"Gainesville, FL",FL,Florida,1154062,29.65139,-82.325,32
34,"Horsham, PA",PA,Pennsylvania,1152611,40.17833,-75.12889,32
34,"Henderson, NV",NV,Nevada,1149600,36.03972,-114.98111,32
34,"Baton Rouge, LA",LA,Louisiana,1149789,30.45056,-91.15444,32
34,"Lubbock, TX",TX,Texas,1140320,33.57778,-101.85472,32
34,"Tempe, AZ",AZ,Arizona,1133917,33.41472,-111.90861,32
34,"Syracuse, NY",NY,New York,1132872,43.04806,-76.14778,32
33,"Bentonville, AR",AR,Arkansas,1143031,36.37278,-94.20861,32
33,"Charlottesville, VA",VA,Virginia,1130001,38.02917,-78.47694,32
33,"White Plains, NY",NY,New York,1132464,41.03389,-73.76333,32
33,"Fayetteville, NC",NC,North Carolina,1138720,35.0525,-78.87861,32
33,"South San Francisco, CA",CA,California,1147412,37.65472,-122.40667,32
33,"Greenwood Village, Arapahoe, CO",CO,Colorado,1164301,39.61722,-104.95028,32
33,"Augusta, GA",GA,Georgia,1155718,33.47083,-81.975,32
33,"Boulder, CO",CO,Colorado,1148112,40.015,-105.27,32
32,"Bloomington, MN",MN,Minnesota,1162257,44.84083,-93.29806,32
32,"Framingham, MA",MA,Massachusetts,1154571,42.27917,-71.41667,32
32,"Troy, MI",MI,Michigan,1134737,42.60556,-83.15,32
32,"Thousand Oaks, CA",CA,California,1146988,34.17056,-118.83667,32
32,"Savannah, GA",GA,Georgia,1155906,32.08333,-81.1,32
31,"Bakersfield, CA",CA,California,1146557,35.37333,-119.01778,32
31,"Anaheim, CA",CA,California,1146743,33.83528,-117.91361,32
31,"Pasadena, CA",CA,California,1146850,34.14778,-118.14361,32
31,"Morrisville, NC",NC,North Carolina,1138956,35.82333,-78.82583,32
31,"Pleasanton, CA",CA,California,1147390,37.6625,-121.87361,32
30,"Newton, MA",MA,Massachusetts,1154636,42.33694,-71.20972,32
30,"Southfield, MI",MI,Michigan,1134732,42.47333,-83.22194,32
30,"Northbrook, IL",IL,Illinois,1128934,42.1275,-87.82889,32
30,"Tarrytown, NY",NY,New York,1132438,41.079224,-73.85868,32
30,"Long Island City, NY",NY,New York,1132310,40.756947,-73.928795,32
30,"West Des Moines, IA",IA,Iowa,1149284,41.57722,-93.71111,32
30,"Remote, OR",OR,Oregon,1165008,43.00611,-123.89139,32
29,"Suitland, MD",MD,Maryland,1153909,38.84861,-76.92417,32
29,"Eagan, MN",MN,Minnesota,1162274,44.80417,-93.16667,32
29,"Canton, OH",OH,Ohio,1145650,40.79889,-81.37861,32
29,"Cedar Rapids, IA",IA,Iowa,1149160,42.00833,-91.64389,32
29,"Springfield, MO",MO,Missouri,1131348,37.21528,-93.29806,32
29,"San Bruno, CA",CA,California,1147399,37.63056,-122.41,32
29,"Marietta, GA",GA,Georgia,1155654,33.9525,-84.55,32
28,"Burlington, MA",MA,Massachusetts,1154543,42.50472,-71.19611,32
28,"Tallahassee, FL",FL,Florida,1154378,30.43806,-84.28083,32
28,"Clearwater, FL",FL,Florida,1154388,27.96556,-82.80028,32
28,"Springfield, VA",VA,Virginia,1130409,38.791557,-77.18702,32
28,"Harrisburg, PA",PA,Pennsylvania,1152185,40.27361,-76.88472,32
28,"Falls Church, VA",VA,Virginia,1130361,38.88222,-77.17139,32
28,"Lafayette, LA",LA,Louisiana,1149927,30.22389,-92.01972,32
28,"Davenport, IA",IA,Iowa,1149216,41.52361,-90.5775,32
28,"Santa Barbara, CA",CA,California,1147473,34.42083,-119.69722,32
28,"Glendale, AZ",AZ,Arizona,1133888,33.53861,-112.18528,32
28,"Fargo, ND",ND,North Dakota,1156255,46.87722,-96.78944,32
28,"Bristol, CT",CT,Connecticut,1148368,41.67167,-72.94972,32
27,"East Hanover, NJ",NJ,New Jersey,1126743,40.82,-74.36528,32
27,"Aberdeen, MD",MD,Maryland,1153520,39.50944,-76.16444,32
27,"Allentown, PA",PA,Pennsylvania,1151916,40.60833,-75.49056,32
27,"Fort Sill, OK",OK,Oklahoma,1136868,34.66356,-98.44296,32
27,"Newport News, VA",VA,Virginia,1130305,36.97861,-76.42833,32
27,"Denton, TX",TX,Texas,1139980,33.21472,-97.13278,32
27,"Sioux Falls, SD",SD,South Dakota,1141041,43.55,-96.7,32
26,"Natick, MA",MA,Massachusetts,1154630,42.28333,-71.35,32
26,"Ogden, UT",UT,Utah,1128221,41.22306,-111.97306,32
26,"Salem, OR",OR,Oregon,1151682,44.94306,-123.03389,32
26,"Richardson, TX",TX,Texas,1140053,32.94806,-96.72944,32
26,"Vancouver, WA",WA,Washington,1150413,45.63889,-122.66028,32
26,"Milpitas, CA",CA,California,1147428,37.42833,-121.90556,32
26,"Mesa, AZ",AZ,Arizona,1133897,33.42222,-111.82194,32
26,"Tyson&#039;s Corner, Fairfax, VA",VA,Virginia,4990385,38.9186,-77.2297,32
25,"Salisbury, MD",MD,Maryland,1153799,38.36056,-75.59972,32
25,"Englewood Cliffs, NJ",NJ,New Jersey,1126753,40.88528,-73.95278,32
25,"New Brunswick, NJ",NJ,New Jersey,1126901,40.48611,-74.45222,32
25,"Montgomery, AL",AL,Alabama,1127704,32.36667,-86.3,32
25,"Orange, CA",CA,California,1146843,33.78778,-117.85222,32
25,"Anchorage, AK",AK,Alaska,1134201,61.21806,-149.90028,32
25,"Chandler, AZ",AZ,Arizona,1133878,33.30611,-111.84056,32
24,"Bridgewater, NJ",NJ,New Jersey,1126710,40.593163,-74.619514,32
24,"Fort Wayne, IN",IN,Indiana,1144939,41.13056,-85.12889,32
24,"Frisco, TX",TX,Texas,1139994,33.15056,-96.82333,32
24,"Waco, TX",TX,Texas,1140600,31.54917,-97.14639,32
24,"Stockton, CA",CA,California,1147539,37.95778,-121.28972,32
24,"Green Bay, WI",WI,Wisconsin,1133406,44.51917,-88.01972,32
23,"Towson, MD",MD,Maryland,1153644,39.40139,-76.60222,32
23,"Dearborn, MI",MI,Michigan,1134642,42.32222,-83.17639,32
23,"Beverly Hills, CA",CA,California,1146753,34.07361,-118.39944,32
23,"Wichita, KS",KS,Kansas,1151230,37.69222,-97.33722,32
23,"Lancaster, PA",PA,Pennsylvania,1152360,40.03778,-76.30583,32
23,"Laredo, TX",TX,Texas,1140286,27.50611,-99.50722,32
23,"Fort Gordon, GA",GA,Georgia,1166835,33.42083,-82.16222,32
23,"Spokane, WA",WA,Washington,1150554,47.65889,-117.425,32
23,"Myrtle Beach, SC",SC,South Carolina,1155247,33.68889,-78.88694,32
23,"Roseville, CA",CA,California,1147226,38.75222,-121.28694,32
23,"Berkeley, CA",CA,California,1147330,37.87167,-122.27167,32
23,"Newark, DE",DE,Delaware,1156369,39.68361,-75.75,32
23,"Manchester, NH",NH,New Hampshire,1147907,42.99556,-71.45528,32
22,"Rahway, NJ",NJ,New Jersey,1126952,40.60806,-74.27806,32
22,"Mobile, AL",AL,Alabama,1127676,30.69417,-88.04306,32
22,"Plymouth, MN",MN,Minnesota,1162329,45.01056,-93.45528,32
22,"Lakeland, FL",FL,Florida,1154143,28.03917,-81.95,32
22,"Waukegan, IL",IL,Illinois,1128997,42.36361,-87.84472,32
22,"Topeka, KS",KS,Kansas,1151173,39.04833,-95.67778,32
22,"Lewisville, TX",TX,Texas,1140022,33.047523,-96.99417,32
22,"Melville, NY",NY,New York,1132326,40.79333,-73.41556,32
22,"Arlington, TX",TX,Texas,1139951,32.73556,-97.10778,32
22,"Chapel Hill, NC",NC,North Carolina,1138696,35.91306,-79.05611,32
22,"North Charleston, SC",SC,South Carolina,1155093,32.85444,-79.975,32
22,"Foster City, CA",CA,California,1163997,37.55861,-122.27,32
22,"Wilmington, DE",DE,Delaware,1156375,39.74583,-75.54694,32
22,"Broomfield, CO",CO,Colorado,1148161,39.92056,-105.08611,32
21,"Laurel, MD",MD,Maryland,1153871,39.09917,-76.84861,32
21,"Edison, NJ",NJ,New Jersey,1126748,40.52424,-74.41246,32
21,"Murfreesboro, TN",TN,Tennessee,1144540,35.84556,-86.39028,32
21,"Sarasota, FL",FL,Florida,1154350,27.33611,-82.53083,32
21,"Lake Forest, IL",IL,Illinois,1128891,42.25861,-87.84056,32
21,"Burlington, NC",NC,North Carolina,1138632,36.09556,-79.43806,32
21,"Schaumburg, IL",IL,Illinois,1128969,42.03333,-88.08333,32
21,"Hawthorne, CA",CA,California,1146793,33.91639,-118.35167,32
21,"Woodcliff Lake, NJ",NJ,New Jersey,1157445,41.02333,-74.06694,32
21,"Macclesfield, NC",NC,North Carolina,1139004,35.75194,-77.67028,32
21,"Minnetonka, MN",MN,Minnesota,1142552,44.91333,-93.50306,32
21,"Saint Cloud, MN",MN,Minnesota,1142664,45.56083,-94.16222,32
21,"Riverside, CA",CA,California,1147138,33.95333,-117.39528,32
20,"Roseville, MN",MN,Minnesota,1162334,45.00611,-93.15639,32
20,"Hillsboro, OR",OR,Oregon,1151603,45.52306,-122.98861,32
20,"Sterling, VA",VA,Virginia,1130411,39.00611,-77.42889,32
20,"Portsmouth, VA",VA,Virginia,1130313,36.83528,-76.29861,32
20,"Fredericksburg, VA",VA,Virginia,1130363,38.30306,-77.46083,32
20,"Grand Prairie, TX",TX,Texas,1139997,32.74583,-96.9975,32
20,"College Station, TX",TX,Texas,1139900,30.62778,-96.33417,32
20,"University Park, PA",PA,Pennsylvania,1165673,40.80194,-77.85667,32
20,"Oshkosh, WI",WI,Wisconsin,1133637,44.02472,-88.5425,32
20,"Macon, GA",GA,Georgia,1155868,32.84056,-83.6325,32
20,"Emeryville, CA",CA,California,1147352,37.83139,-122.28417,32
20,"Fort Collins, CO",CO,Colorado,1148233,40.58528,-105.08389,32
19,"North Little Rock, AR",AR,Arkansas,1143197,34.76944,-92.26694,32
19,"Kalamazoo, MI",MI,Michigan,1134900,42.29167,-85.58722,32
19,"Bolingbrook, IL",IL,Illinois,1128793,41.69861,-88.06833,32
19,"Providence, RI",RI,Rhode Island,1151289,41.82389,-71.41333,32
19,"Springfield, IL",IL,Illinois,1129562,39.80167,-89.64361,32
19,"Yonkers, NY",NY,New York,1132473,40.93111,-73.89917,32
19,"Staten Island, NY",NY,New York,1132430,40.58901,-74.145874,32
19,"Sioux City, IA",IA,Iowa,1149480,42.5,-96.4,32
19,"Waterloo, IA",IA,Iowa,1149531,42.49278,-92.34278,32
19,"Kirkland, WA",WA,Washington,1150472,47.68167,-122.2075,32
19,"Jefferson City, MO",MO,Missouri,1130954,38.57667,-92.17333,32
19,"San Bernardino, CA",CA,California,1147140,34.10833,-117.28889,32
19,"Escondido, CA",CA,California,1147287,33.11917,-117.08556,32
19,"Wausau, WI",WI,Wisconsin,1133724,44.95917,-89.63,32
19,"Centennial, CO",CO,Colorado,1164284,39.57917,-104.87639,32
19,"Jackson, MS",MS,Mississippi,1141371,32.29861,-90.18472,32
19,"Norwalk, CT",CT,Connecticut,1148344,41.1175,-73.40833,32
18,"Greenbelt, MD",MD,Maryland,1153857,39.00444,-76.87583,32
18,"Annapolis, MD",MD,Maryland,1153523,38.97833,-76.4925,32
18,"Aberdeen Proving Ground, MD",MD,Maryland,1153521,39.430157,-76.2193,32
18,"Piscataway, NJ",NJ,New Jersey,1126940,40.49917,-74.39944,32
18,"Plainsboro, NJ",NJ,New Jersey,1126943,40.33333,-74.60083,32
18,"Bangor, ME",ME,Maine,1135774,44.80111,-68.77833,32
18,"Wilkes-Barre, PA",PA,Pennsylvania,3806633,41.24583,-75.88167,32
18,"Portland, ME",ME,Maine,1135898,43.66139,-70.25583,32
18,"Flint, MI",MI,Michigan,1134766,43.0125,-83.6875,32
18,"Lehi, UT",UT,Utah,1128238,40.39167,-111.85,32
18,"Pembroke Pines, FL",FL,Florida,1154179,26.00278,-80.22417,32
18,"Bloomington, IL",IL,Illinois,1128636,40.48417,-88.99361,32
18,"Emmaus, PA",PA,Pennsylvania,1151933,40.53944,-75.49722,32
18,"Deerfield, IL",IL,Illinois,1128821,42.17111,-87.84444,32
18,"Olathe, KS",KS,Kansas,1151046,38.88139,-94.81889,32
18,"Carmel, IN",IN,Indiana,1144991,39.97833,-86.11806,32
18,"Chesapeake, VA",VA,Virginia,1130279,36.81889,-76.27528,32
18,"Suffern, NY",NY,New York,1132433,41.11472,-74.15,32
18,"Amarillo, TX",TX,Texas,1139740,35.22194,-101.83083,32
18,"Lexington-Fayette, KY",KY,Kentucky,3749474,38.04972,-84.45861,32
18,"Miramar, FL",FL,Florida,1166164,25.98694,-80.2325,32
18,"Greenville, NC",NC,North Carolina,1138785,35.6125,-77.36667,32
18,"Sunrise, FL",FL,Florida,1166212,26.13361,-80.11333,32
18,"Monroe, LA",LA,Louisiana,1149963,32.515842,-92.119675,32
18,"Santa Rosa, CA",CA,California,1147518,38.44056,-122.71333,32
18,"Valencia, CA",CA,California,1146899,34.44361,-118.60861,32
18,"Duluth, GA",GA,Georgia,1155612,34.00278,-84.14472,32
18,"Kansas City, KS",KS,Kansas,4990210,39.11417,-94.62722,32
18,"Littleton, CO",CO,Colorado,1148194,39.61333,-105.01611,32
17,"Somerville, NJ",NJ,New Jersey,1126990,40.57417,-74.61028,32
17,"Worcester, MA",MA,Massachusetts,1154962,42.2625,-71.80278,32
17,"Draper, UT",UT,Utah,1128274,40.52472,-111.86306,32
17,"Cheyenne, WY",WY,Wyoming,1138322,41.14,-104.81972,32
17,"Huntington Beach, CA",CA,California,1146795,33.66028,-117.99833,32
17,"Newport Beach, CA",CA,California,1146837,33.61889,-117.92806,32
17,"Hamilton, OH",OH,Ohio,1145718,39.39944,-84.56139,32
17,"Mentor, OH",OH,Ohio,1145800,41.66611,-81.33972,32
17,"Mesquite, TX",TX,Texas,1140032,32.76667,-96.59914,32
17,"Irvington, NY",NY,New York,1132286,41.03889,-73.86556,32
17,"Round Rock, TX",TX,Texas,1139794,30.50806,-97.67861,32
17,"Beaumont, TX",TX,Texas,1139817,30.08583,-94.10167,32
17,"Sugar Land, TX",TX,Texas,1140225,29.61944,-95.63472,32
17,"Johnston, IA",IA,Iowa,1149256,41.67306,-93.6975,32
17,"Deerfield Beach, FL",FL,Florida,1166111,26.31806,-80.1,32
17,"San Ramon, CA",CA,California,1147410,37.78,-121.97694,32
17,"Portsmouth, NH",NH,New Hampshire,1147753,43.07167,-70.76306,32
17,"Universal City, CA",CA,California,1146898,34.13889,-118.3525,32
17,"Lawrenceville, GA",GA,Georgia,1155641,33.95611,-83.98806,32
17,"Decatur, GA",GA,Georgia,1155610,33.77472,-84.29639,32
17,"Redding, CA",CA,California,1147039,40.58667,-122.39056,32
17,"Wilton, CT",CT,Connecticut,1148361,41.19528,-73.43833,32
16,"Panama City, FL",FL,Florida,1154305,30.15861,-85.66028,32
16,"Altamonte Springs, FL",FL,Florida,1154211,28.66083,-81.36583,32
16,"Pompano Beach, FL",FL,Florida,1154180,26.2375,-80.125,32
16,"Lombard, IL",IL,Illinois,1128902,41.88,-88.00778,32
16,"Asheville, NC",NC,North Carolina,1138579,35.60083,-82.55417,32
16,"Vernon Hills, IL",IL,Illinois,1128989,42.21944,-87.97944,32
16,"Dahlgren, VA",VA,Virginia,1129678,38.33111,-77.05139,32
16,"Winchester, VA",VA,Virginia,1130431,39.18556,-78.16361,32
16,"Fort Belvoir, VA",VA,Virginia,1130362,38.712147,-77.158615,32
16,"Jamaica, NY",NY,New York,1132292,40.69139,-73.80611,32
16,"Corpus Christi, TX",TX,Texas,1139919,27.80028,-97.39611,32
16,"Moon Township, PA",PA,Pennsylvania,1165467,0,0,32
16,"Everett, WA",WA,Washington,1150458,47.97917,-122.20083,32
16,"Campbell, CA",CA,California,1147420,37.28722,-121.94889,32
16,"Modesto, CA",CA,California,1146953,37.63917,-120.99583,32
16,"Fontana, CA",CA,California,1147081,34.09222,-117.43417,32
16,"Concord, CA",CA,California,1147340,37.97806,-122.03,32
16,"Appleton, WI",WI,Wisconsin,1133289,44.26194,-88.41528,32
16,"Greenwich, CT",CT,Connecticut,1148338,41.02639,-73.62889,32
15,"Patuxent River, MD",MD,Maryland,1153746,38.28111,-76.420425,32
15,"Hanover, PA",PA,Pennsylvania,1153449,39.802998,-76.98326,32
15,"Wayne, NJ",NJ,New Jersey,1127034,40.92528,-74.27694,32
15,"Franklin, TN",TN,Tennessee,1144518,35.925,-86.86889,32
15,"Johnson City, TN",TN,Tennessee,1144365,36.31333,-82.35361,32
15,"Trenton, NJ",NJ,New Jersey,1127182,40.21694,-74.74333,32
15,"Taylor, MI",MI,Michigan,1134735,42.24083,-83.26972,32
15,"Palm Beach Gardens, FL",FL,Florida,1154178,26.82306,-80.13889,32
15,"Hialeah, FL",FL,Florida,1154162,25.85722,-80.27833,32
15,"Addison, IL",IL,Illinois,1128774,41.93167,-87.98889,32
15,"Toledo, OH",OH,Ohio,1146248,41.66389,-83.55528,32
15,"Warwick, RI",RI,Rhode Island,1151302,41.7,-71.41667,32
15,"Bend, OR",OR,Oregon,1151424,44.05833,-121.31417,32
15,"Lenexa, KS",KS,Kansas,1151040,38.95361,-94.73333,32
15,"Malvern, PA",PA,Pennsylvania,1152639,40.03611,-75.51417,32
15,"Quantico, VA",VA,Virginia,1130401,38.52222,-77.29389,32
15,"Stafford, VA",VA,Virginia,1130410,38.42194,-77.40861,32
15,"Ronkonkoma, NY",NY,New York,1132395,40.81528,-73.11278,32
15,"Saratoga Springs, NY",NY,New York,1131727,43.08306,-73.785,32
15,"Lexington Park, MD",MD,Maryland,1165827,38.26667,-76.45417,32
15,"Chesterfield, MO",MO,Missouri,1131207,38.66306,-90.57694,32
15,"Florence, SC",SC,South Carolina,1155168,34.19528,-79.76278,32
15,"Walnut Creek, CA",CA,California,1147417,37.90639,-122.06389,32
15,"Peoria, AZ",AZ,Arizona,1133903,33.58056,-112.23667,32
15,"Norcross, GA",GA,Georgia,1155667,33.94111,-84.21361,32
15,"West Sacramento, CA",CA,California,1147241,38.58056,-121.52917,32
15,"San Marcos, CA",CA,California,1147313,33.14333,-117.16528,32
15,"Hayward, CA",CA,California,1147358,37.66889,-122.07972,32
15,"Newark, CA",CA,California,1147377,37.52972,-122.03917,32
15,"Waterbury, CT",CT,Connecticut,1148477,41.55806,-73.05194,32
15,"Berlin, CT",CT,Connecticut,1148365,41.62139,-72.74611,32
14,"The Woodlands, TX",TX,Texas,1161666,30.15778,-95.48917,32
14,"Estero, FL",FL,Florida,1154015,26.43778,-81.80694,32
14,"Fort Lee, NJ",NJ,New Jersey,1126769,40.85083,-73.97056,32
14,"Madison, NJ",NJ,New Jersey,1126856,40.75972,-74.4175,32
14,"Lyndhurst, NJ",NJ,New Jersey,1126854,40.81194,-74.12472,32
14,"North Platte, NE",NE,Nebraska,1136402,41.12389,-100.765,32
14,"State College, PA",PA,Pennsylvania,1153370,40.79333,-77.86028,32
14,"Vineland, NJ",NJ,New Jersey,1127202,39.48611,-75.02611,32
14,"Westborough, MA",MA,Massachusetts,1154956,42.26944,-71.61667,32
14,"New Bedford, MA",MA,Massachusetts,1154781,41.63611,-70.93472,32
14,"Marlborough, MA",MA,Massachusetts,1154610,42.34583,-71.55278,32
14,"Novi, MI",MI,Michigan,1134704,42.48056,-83.47556,32
14,"Orem, UT",UT,Utah,1128244,40.29694,-111.69389,32
14,"Ocala, FL",FL,Florida,1154201,29.18694,-82.14028,32
14,"West Jordan, UT",UT,Utah,1128296,40.60972,-111.93833,32
14,"Eugene, OR",OR,Oregon,1151469,44.05222,-123.08556,32
14,"Farmington Hills, MI",MI,Michigan,1159753,42.48528,-83.37722,32
14,"Evansville, IN",IN,Indiana,1144913,37.97472,-87.55583,32
14,"West Chester, PA",PA,Pennsylvania,1152733,39.96056,-75.60583,32
14,"Lynchburg, VA",VA,Virginia,1130113,37.41361,-79.1425,32
14,"Ashburn, VA",VA,Virginia,1130338,39.04361,-77.48778,32
14,"Katy, TX",TX,Texas,1140177,29.78556,-95.82417,32
14,"Gilbert, AZ",AZ,Arizona,1133887,33.35278,-111.78833,32
14,"Temecula, CA",CA,California,1147145,33.49361,-117.1475,32
14,"Neenah, WI",WI,Wisconsin,1133635,44.18583,-88.4625,32
14,"Elk Grove, CA",CA,California,1147183,38.40889,-121.37056,32
14,"Duluth, MN",MN,Minnesota,1142353,46.78333,-92.10639,32
14,"New Haven, CT",CT,Connecticut,1148466,41.30806,-72.92861,32
14,"La Crosse, WI",WI,Wisconsin,1133440,43.80139,-91.23944,32
13,"Elkton, MD",MD,Maryland,1153773,39.60667,-75.83361,32
13,"Cherry Hill, NJ",NJ,New Jersey,1127090,39.90461,-74.997,32
13,"Maple Grove, MN",MN,Minnesota,1162297,45.0725,-93.45556,32
13,"Livonia, MI",MI,Michigan,1134687,42.36833,-83.35278,32
13,"Provo, UT",UT,Utah,1128247,40.23389,-111.65778,32
13,"South Jordan, UT",UT,Utah,1128291,40.56222,-111.92889,32
13,"Jackson, MI",MI,Michigan,1134877,42.24583,-84.40139,32
13,"Beaverton, OR",OR,Oregon,1151576,45.48722,-122.8025,32
13,"Evanston, IL",IL,Illinois,1128835,42.04111,-87.69,32
13,"Elgin, IL",IL,Illinois,1128828,42.03722,-88.28111,32
13,"Aurora, IL",IL,Illinois,1128780,41.76056,-88.32,32
13,"Youngstown, OH",OH,Ohio,1146406,41.09972,-80.64972,32
13,"Smithfield, RI",RI,Rhode Island,1151298,41.92194,-71.55,32
13,"Skokie, IL",IL,Illinois,1128973,42.03333,-87.73333,32
13,"Peoria, IL",IL,Illinois,1129349,40.69361,-89.58889,32
13,"Aliso Viejo, CA",CA,California,1146741,33.60833,-117.74444,32
13,"Santa Fe, NM",NM,New Mexico,1138171,35.68694,-105.93722,32
13,"Fullerton, CA",CA,California,1146784,33.87028,-117.92444,32
13,"Palmdale, CA",CA,California,1146846,34.57944,-118.11556,32
13,"Bowling Green, KY",KY,Kentucky,1137525,36.99028,-86.44361,32
13,"Glen Allen, VA",VA,Virginia,1130160,37.66583,-77.50667,32
13,"Woodbridge, VA",VA,Virginia,1130422,38.65806,-77.25,32
13,"Roanoke, VA",VA,Virginia,1130242,37.27083,-79.94167,32
13,"Okmulgee, OK",OK,Oklahoma,1137034,35.62333,-95.96028,32
13,"Dublin, OH",OH,Ohio,1145850,40.102497,-83.11432,32
13,"Dulles, VA",VA,Virginia,1130356,39.073128,-77.4685,32
13,"Garland, TX",TX,Texas,1139995,32.9125,-96.63861,32
13,"McKinney, TX",TX,Texas,1140029,33.1975,-96.615,32
13,"Bryan, TX",TX,Texas,1139896,30.67417,-96.36972,32
13,"Alexandria, LA",LA,Louisiana,1149749,31.31111,-92.445,32
13,"Kapolei, HI",HI,Hawaii,1140661,21.329206,-158.05,32
13,"Ames, IA",IA,Iowa,1149127,42.03472,-93.61972,32
13,"Tacoma, WA",WA,Washington,1150517,47.25306,-122.44306,32
13,"Yardley, PA",PA,Pennsylvania,1165396,40.24556,-74.84639,32
13,"Suwanee, GA",GA,Georgia,1155695,34.05139,-84.07139,32
13,"Roswell, GA",GA,Georgia,1155681,34.02306,-84.36167,32
13,"Rochester, MN",MN,Minnesota,1142638,44.02167,-92.46972,32
13,"Corona, CA",CA,California,1147072,33.87528,-117.56556,32
13,"Ontario, CA",CA,California,1147122,34.06333,-117.65,32
13,"Racine, WI",WI,Wisconsin,1133669,42.72611,-87.78278,32
13,"Chula Vista, CA",CA,California,1147280,32.64,-117.08333,32
13,"Mankato, MN",MN,Minnesota,1142471,44.16361,-93.99917,32
13,"Minot, ND",ND,North Dakota,1156308,48.2325,-101.29583,32
13,"Westminster, CO",CO,Colorado,1148207,39.83667,-105.03667,32
12,"Germantown, MD",MD,Maryland,1153854,39.17306,-77.27194,32
12,"Clarksville, TN",TN,Tennessee,1144270,36.52972,-87.35944,32
12,"Fort George G Meade, MD",MD,Maryland,1153566,39.10968,-76.73694,32
12,"Owings Mills, MD",MD,Maryland,1153614,39.41944,-76.78056,32
12,"Toms River, NJ",NJ,New Jersey,1127016,39.95361,-74.19833,32
12,"Florence, AL",AL,Alabama,1127615,34.79972,-87.67722,32
12,"Watertown, MA",MA,Massachusetts,1154705,42.37083,-71.18333,32
12,"Woburn, MA",MA,Massachusetts,1154729,42.47917,-71.15278,32
12,"Warren, MI",MI,Michigan,1134741,42.4775,-83.02778,32
12,"Headquarters, KY",KY,Kentucky,3752857,38.35833,-84.11444,32
12,"Port Saint Lucie, FL",FL,Florida,1154324,27.29361,-80.35056,32
12,"Bradenton, FL",FL,Florida,1154335,27.49861,-82.575,32
12,"Richmond, UT",UT,Utah,1128204,41.92278,-111.81278,32
12,"American Fork, UT",UT,Utah,1128232,40.37694,-111.795,32
12,"North Chicago, IL",IL,Illinois,1128933,42.32556,-87.84111,32
12,"Naperville, IL",IL,Illinois,1128928,41.78583,-88.14722,32
12,"Itasca, IL",IL,Illinois,1128879,41.975,-88.00722,32
12,"Lake Zurich, IL",IL,Illinois,1128894,42.19694,-88.09333,32
12,"Downers Grove, IL",IL,Illinois,1128825,41.80889,-88.01111,32
12,"Champaign, IL",IL,Illinois,1128722,40.11639,-88.24333,32
12,"Murray, KY",KY,Kentucky,1137810,36.61028,-88.31472,32
12,"Owensboro, KY",KY,Kentucky,1137821,37.77417,-87.11333,32
12,"Leawood, KS",KS,Kansas,1151039,38.96667,-94.61667,32
12,"Lancaster, CA",CA,California,1146814,34.69806,-118.13583,32
12,"Sterling Heights, MI",MI,Michigan,1159809,42.58028,-83.03028,32
12,"Marina del Rey, CA",CA,California,1146825,33.98028,-118.45083,32
12,"North Canton, OH",OH,Ohio,1145669,40.87583,-81.4025,32
12,"Edmond, OK",OK,Oklahoma,1136930,35.65278,-97.47778,32
12,"Camp Hill, PA",PA,Pennsylvania,1152174,40.23972,-76.92028,32
12,"Hershey, PA",PA,Pennsylvania,1152186,40.28583,-76.65056,32
12,"Pearland, TX",TX,Texas,1140202,29.56333,-95.28583,32
12,"Greenville, TX",TX,Texas,1140000,33.13833,-96.11056,32
12,"Southlake, TX",TX,Texas,1140065,32.94111,-97.13389,32
12,"Fort Polk, LA",LA,Louisiana,1149871,31.04639,-93.20528,32
12,"Brownsville, TX",TX,Texas,1139874,25.90139,-97.49722,32
12,"McAllen, TX",TX,Texas,1140353,26.20306,-98.22972,32
12,"Elk Grove Village, IL",IL,Illinois,1158001,42.00389,-87.97028,32
12,"Dubuque, IA",IA,Iowa,1149290,42.50056,-90.66444,32
12,"Adelphi, MD",MD,Maryland,1165846,39.00306,-76.97222,32
12,"Federal Way, WA",WA,Washington,1150460,47.3225,-122.31139,32
12,"Roles Inn of America, AZ",AZ,Arizona,3741533,33.54472,-112.16694,32
12,"Cupertino, CA",CA,California,1147422,37.32306,-122.03111,32
12,"Bay City, MI",MI,Michigan,1134582,43.59444,-83.88889,32
12,"Burlington, VT",VT,Vermont,1141772,44.47583,-73.2125,32
12,"Oxnard, CA",CA,California,1146980,34.1975,-119.17611,32
12,"Rancho Cucamonga, CA",CA,California,1147132,34.10639,-117.59222,32
12,"Rapid City, SD",SD,South Dakota,1141002,44.08056,-103.23056,32
12,"Bismarck, ND",ND,North Dakota,1156224,46.80833,-100.78333,32
12,"Hollywood, CA",CA,California,1163681,34.09833,-118.32583,32
12,"Meridian, MS",MS,Mississippi,1141447,32.36417,-88.70361,32
11,"College Park, MD",MD,Maryland,1153841,38.98056,-76.93722,32
11,"Research Triangle Park, NC",NC,North Carolina,1161290,35.90657,-78.8633,32
11,"Glen Burnie, MD",MD,Maryland,1153575,39.1625,-76.625,32
11,"Hendersonville, TN",TN,Tennessee,1144525,36.30472,-86.62,32
11,"Paramus, NJ",NJ,New Jersey,1126928,40.94444,-74.07583,32
11,"Crane, IN",IN,Indiana,1144637,38.89111,-86.90389,32
11,"Conway, AR",AR,Arkansas,1143176,35.08861,-92.44194,32
11,"Hingham, MA",MA,Massachusetts,1154586,42.24167,-70.89028,32
11,"Dedham, MA",MA,Massachusetts,1154556,42.24167,-71.16667,32
11,"Chelmsford, MA",MA,Massachusetts,1154550,42.59972,-71.36778,32
11,"Hollywood, FL",FL,Florida,1154163,26.01083,-80.14972,32
11,"Sandusky, OH",OH,Ohio,1146158,41.44889,-82.70806,32
11,"Medford, OR",OR,Oregon,1151534,42.32667,-122.87444,32
11,"Lisle, IL",IL,Illinois,1128900,41.80111,-88.07472,32
11,"Clackamas, OR",OR,Oregon,1151583,45.40778,-122.56917,32
11,"Joliet, IL",IL,Illinois,1128880,41.525,-88.08167,32
11,"Rockford, IL",IL,Illinois,1129425,42.27111,-89.09389,32
11,"Gardena, CA",CA,California,1146786,33.88833,-118.30806,32
11,"Mission Viejo, CA",CA,California,1146829,33.6,-117.67111,32
11,"Elkhart, IN",IN,Indiana,1144901,41.68194,-85.97667,32
11,"Saint George, UT",UT,Utah,3724218,37.10417,-113.58333,32
11,"Blacksburg, VA",VA,Virginia,1129954,37.231148,-80.413055,32
11,"South Bend, IN",IN,Indiana,1145268,41.68333,-86.25,32
11,"Plymouth Meeting, PA",PA,Pennsylvania,1152677,40.10222,-75.27472,32
11,"Hampton, VA",VA,Virginia,1130294,37.02972,-76.34556,32
11,"Swiftwater, PA",PA,Pennsylvania,1152130,41.09528,-75.32528,32
11,"Humble, TX",TX,Texas,1140175,29.99999,-95.26125,32
11,"Hammond, LA",LA,Louisiana,1149883,30.50417,-90.46111,32
11,"Addison, TX",TX,Texas,1139944,32.96167,-96.82889,32
11,"Kingston, NY",NY,New York,1132106,41.92694,-73.99778,32
11,"Victoria, TX",TX,Texas,1140584,28.805,-97.00333,32
11,"Tyler, TX",TX,Texas,1140559,32.35111,-95.30083,32
11,"Iowa City, IA",IA,Iowa,1149332,41.66111,-91.53,32
11,"Landover, MD",MD,Maryland,1165886,38.93389,-76.89694,32
11,"Wellington, FL",FL,Florida,1166229,26.65833,-80.24167,32
11,"Shreveport, LA",LA,Louisiana,1150108,32.525,-93.75,32
11,"Olympia, WA",WA,Washington,1150386,47.03806,-122.89944,32
11,"Rock Hill, SC",SC,South Carolina,1155111,34.92472,-81.02528,32
11,"Fairfield, CA",CA,California,1147605,38.24944,-122.03889,32
11,"Athens, GA",GA,Georgia,1155564,33.96083,-83.37806,32
11,"Kennesaw, GA",GA,Georgia,1155639,34.02333,-84.61556,32
11,"Thornton, CO",CO,Colorado,1164313,39.86806,-104.97139,32
11,"Moreno Valley, CA",CA,California,1147111,33.9375,-117.22972,32
11,"Yuma, AZ",AZ,Arizona,1134005,32.72528,-114.62361,32
11,"Salinas, CA",CA,California,1147265,36.67778,-121.65444,32
11,"Alameda, CA",CA,California,1147323,37.76528,-122.24056,32
11,"Burlingame, CA",CA,California,1147335,37.58417,-122.365,32
11,"Chaska, MN",MN,Minnesota,1142509,44.78944,-93.60194,32
11,"Pleasant Prairie, WI",WI,Wisconsin,1133353,42.55306,-87.93333,32
11,"Manitowoc, WI",WI,Wisconsin,1133498,44.08861,-87.6575,32
11,"Beavercreek, OH",OH,Ohio,1163394,39.70917,-84.06333,32
11,"Nashua, NH",NH,New Hampshire,1147911,42.76528,-71.46806,32
11,"Shelton, CT",CT,Connecticut,1148352,41.31639,-73.09361,32
10,"Clarksburg, WV",WV,West Virginia,1143841,39.28056,-80.34472,32
10,"Beltsville, MD",MD,Maryland,1153815,39.03472,-76.90778,32
10,"Hagerstown, MD",MD,Maryland,1153716,39.64167,-77.72028,32
10,"Eatontown, NJ",NJ,New Jersey,1126746,40.29611,-74.05139,32
10,"York, PA",PA,Pennsylvania,1153468,39.9625,-76.72806,32
10,"Bel Air, MD",MD,Maryland,1153529,39.53583,-76.34861,32
10,"Mount Laurel, NJ",NJ,New Jersey,1127131,39.93389,-74.89139,32
10,"Kingsport, TN",TN,Tennessee,1144380,36.54833,-82.56194,32
10,"West Orange, NJ",NJ,New Jersey,1127040,40.79861,-74.23944,32
10,"Auburn, AL",AL,Alabama,1127412,32.60972,-85.48083,32
10,"Walpole, MA",MA,Massachusetts,1154702,42.14167,-71.25,32
10,"Jonesboro, AR",AR,Arkansas,1143154,35.84222,-90.70417,32
10,"Arden Hills, MN",MN,Minnesota,1162255,45.05028,-93.15639,32
10,"Fort Smith, AR",AR,Arkansas,1143091,35.38583,-94.39833,32
10,"Rogers, AR",AR,Arkansas,1143060,36.33194,-94.11833,32
10,"Billerica, MA",MA,Massachusetts,1154531,42.55833,-71.26944,32
10,"Andover, MA",MA,Massachusetts,1154518,42.65833,-71.1375,32
10,"Westerville, OH",OH,Ohio,1145913,40.12611,-82.92917,32
10,"Findlay, OH",OH,Ohio,1146001,41.04417,-83.65,32
10,"Bethlehem, PA",PA,Pennsylvania,1151922,40.62583,-75.37083,32
10,"Orland Park, IL",IL,Illinois,1128940,41.63028,-87.85389,32
10,"Oak Brook, IL",IL,Illinois,1128935,41.83278,-87.92889,32
10,"Maywood, IL",IL,Illinois,1128911,41.87917,-87.84306,32
10,"Buffalo Grove, IL",IL,Illinois,1128800,42.15139,-87.95972,32
10,"Lexington, KY",KY,Kentucky,1137677,37.98861,-84.47778,32
10,"Manhattan, KS",KS,Kansas,1151078,39.18361,-96.57139,32
10,"Carson, CA",CA,California,1146761,33.83139,-118.28111,32
10,"Rosemead, CA",CA,California,1146861,34.08056,-118.07194,32
10,"Muncie, IN",IN,Indiana,1145190,40.19333,-85.38639,32
10,"Willow Grove, PA",PA,Pennsylvania,1152737,40.14389,-75.11611,32
10,"Frankfort, KY",KY,Kentucky,1137650,38.20083,-84.87333,32
10,"Johnstown, PA",PA,Pennsylvania,1152309,40.32667,-78.92222,32
10,"Lawton, OK",OK,Oklahoma,1136871,34.60861,-98.39,32
10,"Norman, OK",OK,Oklahoma,1136949,35.2225,-97.43917,32
10,"Chillicothe, OH",OH,Ohio,1145690,39.33306,-82.9825,32
10,"Solon, OH",OH,Ohio,1145817,41.38972,-81.44139,32
10,"Williamsburg, VA",VA,Virginia,1130328,37.27056,-76.70778,32
10,"Port Washington, NY",NY,New York,1132379,40.82556,-73.69861,32
10,"New Rochelle, NY",NY,New York,1132346,40.91139,-73.78278,32
10,"Garden City, NY",NY,New York,1132254,40.72667,-73.63472,32
10,"Pineville, LA",LA,Louisiana,1149772,31.32222,-92.43417,32
10,"Binghamton, NY",NY,New York,1131807,42.09861,-75.91833,32
10,"Huntsville, TX",TX,Texas,1140238,30.72333,-95.55056,32
10,"Puyallup, WA",WA,Washington,1150497,47.18556,-122.29167,32
10,"Kent, WA",WA,Washington,1150471,47.38111,-122.23361,32
10,"High Point, NC",NC,North Carolina,1138756,35.95556,-80.00556,32
10,"Fort Bragg, NC",NC,North Carolina,1138721,35.13975,-78.99903,32
10,"Clayton, MO",MO,Missouri,1158732,38.6425,-90.32361,32
10,"Bothell, WA",WA,Washington,1150445,47.7625,-122.20417,32
10,"San Rafael, CA",CA,California,1147409,37.97361,-122.53,32
10,"Visalia, CA",CA,California,1147641,36.33028,-119.29111,32
10,"Vacaville, CA",CA,California,1147609,38.35667,-121.98667,32
10,"Sparks, GA",GA,Georgia,1155512,31.16667,-83.4375,32
10,"Tustin, CA",CA,California,1146897,33.74583,-117.82528,32
10,"Westlake Village, Los Angeles, CA",CA,California,1146990,34.14583,-118.80472,32
10,"Simi Valley, CA",CA,California,1146986,34.26944,-118.78056,32
10,"Chino Hills, CA",CA,California,1147068,33.89361,-117.72639,32
10,"Grand Junction, CO",CO,Colorado,1164330,39.070377,-108.54904,32
10,"El Cajon, CA",CA,California,1147285,32.79472,-116.96167,32
10,"Burnsville, MN",MN,Minnesota,1142501,44.76778,-93.2775,32
10,"New London, CT",CT,Connecticut,1148496,41.35556,-72.1,32
10,"Milford, CT",CT,Connecticut,1148464,41.22222,-73.05694,32
10,"Hattiesburg, MS",MS,Mississippi,1141337,31.32694,-89.29028,32
10,"Poughkeepsie, NY",NY,New York,1132662,41.70028,-73.92139,32
10,"Danbury, CT",CT,Connecticut,1148332,41.39472,-73.45444,32
9,"Hastings, NE",NE,Nebraska,1136326,40.58611,-98.38806,32
9,"Williamstown, WV",WV,West Virginia,1144002,39.40056,-81.44833,32
9,"Easton, MD",MD,Maryland,1153695,38.77417,-76.07667,32
9,"Camden, NJ",NJ,New Jersey,1127087,39.92583,-75.12,32
9,"Pennington, NJ",NJ,New Jersey,1127178,40.32833,-74.79111,32
9,"Edgefield, SC",SC,South Carolina,1155048,33.78944,-81.92972,32
9,"Pittsfield, MA",MA,Massachusetts,1154753,42.45,-73.24583,32
9,"Hope Hull, AL",AL,Alabama,1127695,32.26972,-86.35722,32
9,"Mountain Home, AR",AR,Arkansas,1143236,36.338497,-92.38112,32
9,"Needham, MA",MA,Massachusetts,1154631,42.28333,-71.23333,32
9,"Billings, MT",MT,Montana,1135402,45.78333,-108.5,32
9,"Quincy, MA",MA,Massachusetts,1154667,42.25278,-71.00278,32
9,"Richfield, MN",MN,Minnesota,1162332,44.88333,-93.28278,32
9,"Helena, MT",MT,Montana,1135460,46.59278,-112.03528,32
9,"Fayetteville, AR",AR,Arkansas,1143041,36.0625,-94.15722,32
9,"Brockton, MA",MA,Massachusetts,1154539,42.08333,-71.01889,32
9,"Wyoming, MI",MI,Michigan,1134822,42.91333,-85.70528,32
9,"Canton, MI",MI,Michigan,1134629,42.30861,-83.48222,32
9,"Pinellas Park, FL",FL,Florida,1154414,27.8425,-82.69972,32
9,"Madison Heights, MI",MI,Michigan,1134689,42.48583,-83.10528,32
9,"Melbourne, FL",FL,Florida,1154286,28.08333,-80.60833,32
9,"Oviedo, FL",FL,Florida,1154248,28.66972,-81.20833,32
9,"Naples, FL",FL,Florida,1154189,26.14167,-81.795,32
9,"Anthem, AZ",AZ,Arizona,1159522,33.86722,-112.14611,32
9,"Mansfield, OH",OH,Ohio,1146055,40.75833,-82.51556,32
9,"Bensenville, IL",IL,Illinois,1128787,41.955,-87.94,32
9,"Zanesville, OH",OH,Ohio,1146423,39.94028,-82.01333,32
9,"Farmington, NM",NM,New Mexico,1138046,36.72806,-108.21806,32
9,"Brea, CA",CA,California,1146754,33.91667,-117.89917,32
9,"Cerritos, CA",CA,California,1146763,33.85833,-118.06389,32
9,"El Monte, CA",CA,California,1146778,34.06861,-118.02667,32
9,"Salina, KS",KS,Kansas,1151134,38.84028,-97.61111,32
9,"Sherman Oaks, CA",CA,California,1146875,34.15111,-118.44833,32
9,"Columbus, IN",IN,Indiana,1144872,39.20139,-85.92139,32
9,"Greenwood, IN",IN,Indiana,1145010,39.61139,-86.11806,32
9,"Lansdale, PA",PA,Pennsylvania,1152627,40.24139,-75.28417,32
9,"Erie, PA",PA,Pennsylvania,1152139,42.12917,-80.08528,32
9,"North Las Vegas, NV",NV,Nevada,1149609,36.19889,-115.11667,32
9,"Coppell, TX",TX,Texas,1139974,32.95444,-97.01472,32
9,"Flushing, NY",NY,New York,1132249,40.750717,-73.83395,32
9,"Painted Post, NY",NY,New York,1131920,42.16194,-77.09444,32
9,"Schenectady, NY",NY,New York,1131729,42.81417,-73.94,32
9,"Latham, NY",NY,New York,1131702,42.74694,-73.75944,32
9,"Longview, TX",TX,Texas,1140307,32.50056,-94.74028,32
9,"Mooresville, NC",NC,North Carolina,1139057,35.58472,-80.81028,32
9,"Machesney Park, IL",IL,Illinois,1158201,42.3503,-89.03835,32
9,"Coral Gables, FL",FL,Florida,1166105,25.72111,-80.26861,32
9,"Coral Springs, FL",FL,Florida,1166106,26.27083,-80.27083,32
9,"Hazelwood, MO",MO,Missouri,1131233,38.77139,-90.37083,32
9,"Tamarac, FL",FL,Florida,1166215,26.2125,-80.25,32
9,"Independence, MO",MO,Missouri,1131039,39.09111,-94.41528,32
9,"Lenoir, NC",NC,North Carolina,1138814,35.91389,-81.53917,32
9,"Slidell, LA",LA,Louisiana,1150047,30.275,-89.78111,32
9,"Branson, MO",MO,Missouri,1130839,36.64361,-93.21833,32
9,"Richland, WA",WA,Washington,1150330,46.28583,-119.28333,32
9,"Linthicum, MD",MD,Maryland,1165775,39.205,-76.65306,32
9,"Los Gatos, CA",CA,California,1147427,37.22667,-121.97361,32
9,"International Falls, MN",MN,Minnesota,1142055,48.60111,-93.41083,32
9,"Fort Richardson, AK",AK,Alaska,1134206,61.25444,-149.68832,32
9,"Tucker, GA",GA,Georgia,1155701,33.85444,-84.21722,32
9,"Woodland Hills, CA",CA,California,1146915,34.16833,-118.605,32
9,"Lithonia, GA",GA,Georgia,1155645,33.71222,-84.10528,32
9,"Ventura, CA",CA,California,1146989,34.27833,-119.29222,32
9,"Wallingford, CT",CT,Connecticut,1148476,41.45694,-72.82361,32
9,"Eau Claire, WI",WI,Wisconsin,1133380,44.81139,-91.49833,32
9,"Wisconsin Rapids, WI",WI,Wisconsin,1133533,44.38361,-89.81722,32
9,"Dover, DE",DE,Delaware,1156347,39.15806,-75.52472,32
9,"Longmont, CO",CO,Colorado,1148118,40.16722,-105.10139,32
9,"Port Jervis, NY",NY,New York,1132661,41.375,-74.69306,32
9,"Trumbull, CT",CT,Connecticut,1148358,41.24278,-73.20111,32
8,"Point Pleasant, WV",WV,West Virginia,1144014,38.860966,-82.13156,32
8,"Clifton, NJ",NJ,New Jersey,1126726,40.85833,-74.16417,32
8,"Hunt Valley, MD",MD,Maryland,1153589,39.49972,-76.64139,32
8,"Lakewood, NJ",NJ,New Jersey,1126832,40.09778,-74.21806,32
8,"Hoboken, NJ",NJ,New Jersey,1126809,40.74389,-74.03278,32
8,"Hackensack, NJ",NJ,New Jersey,1126787,40.88583,-74.04389,32
8,"Secaucus, NJ",NJ,New Jersey,1126983,40.78944,-74.05694,32
8,"South Plainfield, NJ",NJ,New Jersey,1126995,40.57917,-74.41194,32
8,"Warren, NJ",NJ,New Jersey,1127032,40.631565,-74.508064,32
8,"Gallatin, TN",TN,Tennessee,1144519,36.38833,-86.44667,32
8,"Marlton, NJ",NJ,New Jersey,1127123,39.89111,-74.92222,32
8,"Scranton, PA",PA,Pennsylvania,1153278,41.40889,-75.66278,32
8,"Atmore, AL",AL,Alabama,1127215,31.02361,-87.49389,32
8,"Oxford, AL",AL,Alabama,1127408,33.61417,-85.835,32
8,"Lincoln, AL",AL,Alabama,1127742,33.61306,-86.11833,32
8,"Benton, AR",AR,Arkansas,1143169,34.56444,-92.58667,32
8,"Peabody, MA",MA,Massachusetts,1154659,42.52778,-70.92917,32
8,"Woodbury, MN",MN,Minnesota,1162363,46.67917,-92.95972,32
8,"Methuen, MA",MA,Massachusetts,1154621,42.72611,-71.19139,32
8,"Mounds View, MN",MN,Minnesota,1162309,45.105,-93.20833,32
8,"Ipswich, MA",MA,Massachusetts,1154594,42.67917,-70.84167,32
8,"Meridian, ID",ID,Idaho,1127945,43.61222,-116.39056,32
8,"Braintree, MA",MA,Massachusetts,1154535,42.22222,-71,32
8,"Concord, MA",MA,Massachusetts,1154554,42.46028,-71.34944,32
8,"Royal Oak, MI",MI,Michigan,1134726,42.48944,-83.14472,32
8,"The Villages, FL",FL,Florida,1154443,28.93333,-81.94861,32
8,"Newtown, OH",OH,Ohio,1163257,39.12444,-84.36167,32
8,"Twin Falls, ID",ID,Idaho,1128054,42.56306,-114.46,32
8,"Birmingham, MI",MI,Michigan,1134626,42.54667,-83.21139,32
8,"Brandon, FL",FL,Florida,1154386,27.9375,-82.28611,32
8,"Vero Beach, FL",FL,Florida,1154357,27.63833,-80.3975,32
8,"Port Huron, MI",MI,Michigan,1134715,42.97083,-82.425,32
8,"Sanford, FL",FL,Florida,1154252,28.75833,-81.29444,32
8,"Lake Mary, FL",FL,Florida,1154234,28.75861,-81.31806,32
8,"Jupiter, FL",FL,Florida,1154165,26.93389,-80.09444,32
8,"East Lansing, MI",MI,Michigan,1134922,42.73694,-84.48389,32
8,"Grove City, OH",OH,Ohio,1145858,39.88139,-83.09306,32
8,"Niles, IL",IL,Illinois,1128931,42.01889,-87.80278,32
8,"Mundelein, IL",IL,Illinois,1128927,42.26306,-88.00389,32
8,"McHenry, IL",IL,Illinois,1128913,42.33333,-88.26667,32
8,"Hoffman Estates, IL",IL,Illinois,1128872,42.086994,-88.11034,32
8,"Tualatin, OR",OR,Oregon,1151624,45.38417,-122.76278,32
8,"Des Plaines, IL",IL,Illinois,1128823,42.03333,-87.88333,32
8,"Elmhurst, IL",IL,Illinois,1128830,41.89944,-87.94028,32
8,"Cranston, RI",RI,Rhode Island,1151253,41.77972,-71.43778,32
8,"West Kingston, RI",RI,Rhode Island,1151304,41.48306,-71.55194,32
8,"Moline, IL",IL,Illinois,1129070,41.50667,-90.515,32
8,"Round Lake, IL",IL,Illinois,1128965,42.35333,-88.09333,32
8,"Paducah, KY",KY,Kentucky,1137839,37.08333,-88.6,32
8,"Woodridge, IL",IL,Illinois,1129014,41.74694,-88.05028,32
8,"Corvallis, OR",OR,Oregon,1151455,44.56472,-123.26083,32
8,"Oroville, CA",CA,California,1146617,39.51389,-121.55528,32
8,"El Centro, CA",CA,California,1146646,32.79194,-115.56222,32
8,"Lawrence, KS",KS,Kansas,1151068,38.97167,-95.235,32
8,"Redondo Beach, CA",CA,California,1146859,33.84917,-118.3875,32
8,"Canonsburg, PA",PA,Pennsylvania,1152796,40.2625,-80.1875,32
8,"Beaver Falls, PA",PA,Pennsylvania,1152769,40.75194,-80.31944,32
8,"Merrillville, IN",IN,Indiana,1144838,41.48278,-87.33278,32
8,"Shelbyville, IN",IN,Indiana,1145037,39.52139,-85.77694,32
8,"Exton, PA",PA,Pennsylvania,1152576,40.02889,-75.62111,32
8,"Fort Washington, PA",PA,Pennsylvania,1152585,40.14167,-75.20944,32
8,"Jeffersonville, IN",IN,Indiana,1145141,38.2775,-85.73722,32
8,"Florence, KY",KY,Kentucky,1137567,38.99889,-84.62667,32
8,"Offutt AFB, NE",NE,Nebraska,1160341,0,0,32
8,"Brunswick, OH",OH,Ohio,1145772,41.23806,-81.84194,32
8,"Woodbury, NY",NY,New York,1132467,40.82556,-73.46806,32
8,"Valley Stream, NY",NY,New York,1132447,40.66417,-73.70889,32
8,"Hurst, TX",TX,Texas,1140004,32.82333,-97.17028,32
8,"Hauppauge, NY",NY,New York,1132272,40.82556,-73.20306,32
8,"Allen, TX",TX,Texas,1139946,33.10306,-96.67028,32
8,"Carrollton, TX",TX,Texas,1139964,32.95361,-96.89,32
8,"San Marcos, TX",TX,Texas,1139795,29.88306,-97.94111,32
8,"Corning, NY",NY,New York,1131913,42.14278,-77.055,32
8,"Niagara Falls, NY",NY,New York,1131882,43.09444,-79.05694,32
8,"Texarkana, TX",TX,Texas,1140553,33.425,-94.0475,32
8,"Weslaco, TX",TX,Texas,1140361,26.15917,-97.99056,32
8,"Northlake, IL",IL,Illinois,1158071,41.91722,-87.89556,32
8,"Lufkin, TX",TX,Texas,1140329,31.33806,-94.72889,32
8,"Sanford, NC",NC,North Carolina,1139030,35.47972,-79.18056,32
8,"Fairview Heights, IL",IL,Illinois,1158216,38.58889,-89.99028,32
8,"Fenton, MO",MO,Missouri,1131220,38.51306,-90.43583,32
8,"Lebanon, MO",MO,Missouri,1131103,37.68056,-92.66361,32
8,"Metairie, LA",LA,Louisiana,1150033,29.98389,-90.15278,32
8,"Na Ah Tee, AZ",AZ,Arizona,3741308,35.49028,-110.14389,32
8,"Centralia, WA",WA,Washington,1150289,46.71639,-122.95306,32
8,"Spartanburg, SC",SC,South Carolina,1155311,34.94944,-81.93222,32
8,"Albany, GA",GA,Georgia,1155542,31.57833,-84.15583,32
8,"Concord, NH",NH,New Hampshire,1147789,43.20806,-71.53806,32
8,"Lebanon, NH",NH,New Hampshire,1147869,43.64222,-72.25222,32
8,"Stone Mountain, GA",GA,Georgia,1155693,33.80806,-84.17028,32
8,"West Hollywood, CA",CA,California,1146909,34.09,-118.36083,32
8,"Venice, CA",CA,California,1146903,33.99083,-118.45917,32
8,"Turlock, CA",CA,California,1146959,37.49472,-120.84556,32
8,"Dalton, GA",GA,Georgia,1155803,34.775177,-84.970665,32
8,"Lakewood, CO",CO,Colorado,1164305,39.70472,-105.08083,32
8,"Sierra Vista, AZ",AZ,Arizona,1133980,31.55444,-110.30306,32
8,"Palm Springs, CA",CA,California,1147125,33.83028,-116.54444,32
8,"Victorville, CA",CA,California,1147152,34.53611,-117.29028,32
8,"Dublin, CA",CA,California,1147348,37.70222,-121.93472,32
8,"Windsor Locks, CT",CT,Connecticut,1148451,41.92917,-72.62778,32
8,"Grand Forks, ND",ND,North Dakota,1156271,47.92528,-97.0325,32
8,"Bethany Beach, DE",DE,Delaware,1156378,38.53944,-75.05556,32
8,"Utica, NY",NY,New York,1132931,43.10083,-75.23306,32
8,"Antigo, WI",WI,Wisconsin,1132992,45.14028,-89.15222,32
8,"Flowood, MS",MS,Mississippi,1141366,32.30944,-90.13889,32
8,"Loveland, CO",CO,Colorado,1148237,40.39778,-105.07444,32
8,"Biloxi, MS",MS,Mississippi,1141320,30.39583,-88.88528,32
8,"Golden, CO",CO,Colorado,1148181,39.75556,-105.22056,32
8,"Pueblo, CO",CO,Colorado,1148308,38.25444,-104.60861,32
8,"Commerce, CA",CA,California,1163642,34.00056,-118.15889,32
8,"Bridgeport, CT",CT,Connecticut,1148329,41.16694,-73.20528,32
8,"Ridgeland, MS",MS,Mississippi,1141383,32.42833,-90.13222,32
7,"Kearney, NE",NE,Nebraska,1136341,40.69944,-99.08111,32
7,"Wheeling, WV",WV,West Virginia,1144051,40.06389,-80.72111,32
7,"Daytona Beach, FL",FL,Florida,1154028,29.21056,-81.02306,32
7,"Grand Island, NE",NE,Nebraska,1136313,40.925,-98.34167,32
7,"Elizabeth, NJ",NJ,New Jersey,1126749,40.66389,-74.21111,32
7,"Ellicott City, MD",MD,Maryland,1153560,39.26722,-76.79861,32
7,"Mountain Lakes, Morris, NJ",NJ,New Jersey,1126895,40.89472,-74.43333,32
7,"Morristown, NJ",NJ,New Jersey,1126891,40.79667,-74.48194,32
7,"Montvale, NJ",NJ,New Jersey,1126886,41.04667,-74.02333,32
7,"New Tazewell, TN",TN,Tennessee,1144175,36.4425,-83.59972,32
7,"Gordonsville, TN",TN,Tennessee,1144522,36.1725,-85.92972,32
7,"Plainfield, NJ",NJ,New Jersey,1126942,40.63361,-74.40778,32
7,"Raritan, NJ",NJ,New Jersey,1126955,40.56944,-74.63333,32
7,"Roseland, NJ",NJ,New Jersey,1126969,40.82056,-74.29417,32
7,"Humboldt, TN",TN,Tennessee,1144340,35.81972,-88.91583,32
7,"Brighton, Erie, NY",NY,New York,3735329,42.99111,-78.83722,32
7,"Reading, PA",PA,Pennsylvania,1153175,40.33556,-75.92722,32
7,"South Portland, ME",ME,Maine,1135912,43.64139,-70.24139,32
7,"Leominster, MA",MA,Massachusetts,1154913,42.525,-71.76028,32
7,"Springfield, MA",MA,Massachusetts,1154860,42.10139,-72.59028,32
7,"Athens, AL",AL,Alabama,1127645,34.80278,-86.97167,32
7,"Prattville, AL",AL,Alabama,1127708,32.46389,-86.45972,32
7,"Taunton, MA",MA,Massachusetts,1154795,41.9,-71.09028,32
7,"Amherst, MA",MA,Massachusetts,1154799,42.38028,-72.52361,32
7,"Wellesley, MA",MA,Massachusetts,1154708,42.29639,-71.29306,32
7,"Wilmington, MA",MA,Massachusetts,1154726,42.54639,-71.17417,32
7,"Norwood, MA",MA,Massachusetts,1154655,42.19444,-71.2,32
7,"Foxboro, MA",MA,Massachusetts,1154570,42.05833,-71.25,32
7,"Lawrence, MA",MA,Massachusetts,1154598,42.70694,-71.16361,32
7,"Idaho Falls, ID",ID,Idaho,1127978,43.46667,-112.03333,32
7,"Holland, MI",MI,Michigan,1134828,42.7875,-86.10889,32
7,"Byron Center, MI",MI,Michigan,1134784,42.81222,-85.72278,32
7,"Jerome, ID",ID,Idaho,1128050,42.72417,-114.51778,32
7,"Palmetto, FL",FL,Florida,1154348,27.52111,-82.5725,32
7,"Pontiac, MI",MI,Michigan,1134714,42.63889,-83.29111,32
7,"Logan, UT",UT,Utah,1128198,41.73556,-111.83361,32
7,"Muskegon, MI",MI,Michigan,1135006,43.23417,-86.24833,32
7,"Spanish Fork, UT",UT,Utah,1128251,40.115,-111.65417,32
7,"Winter Garden, FL",FL,Florida,1154258,28.565,-81.58639,32
7,"Kissimmee, FL",FL,Florida,1154232,28.29167,-81.40778,32
7,"Tooele, UT",UT,Utah,1128293,40.53083,-112.2975,32
7,"Lake Worth, FL",FL,Florida,1154168,26.61556,-80.05722,32
7,"Welch, WV",WV,West Virginia,1143659,37.43278,-81.58472,32
7,"Marquette, MI",MI,Michigan,1134966,46.54361,-87.39528,32
7,"Grand Ledge, MI",MI,Michigan,1134927,42.75333,-84.74639,32
7,"Wauwatosa, WI",WI,Wisconsin,1159476,43.04944,-88.0075,32
7,"Danville, PA",PA,Pennsylvania,1151993,40.96333,-76.61306,32
7,"Altoona, PA",PA,Pennsylvania,1151974,40.51861,-78.395,32
7,"Marion, OH",OH,Ohio,1146062,40.58861,-83.12861,32
7,"Palatine, IL",IL,Illinois,1128942,42.11028,-88.03417,32
7,"Oak Lawn, IL",IL,Illinois,1128937,41.71083,-87.75806,32
7,"Geneva, IL",IL,Illinois,1128846,41.8875,-88.30528,32
7,"Glenview, IL",IL,Illinois,1128852,42.072487,-87.78677,32
7,"Prineville, OR",OR,Oregon,1151635,44.3,-120.83333,32
7,"Crystal Lake, IL",IL,Illinois,1128819,42.24111,-88.31611,32
7,"Davidson, NC",NC,North Carolina,1138650,35.49917,-80.84889,32
7,"Matthews, NC",NC,North Carolina,1138660,35.11667,-80.72389,32
7,"Madisonville, KY",KY,Kentucky,1137753,37.32806,-87.49889,32
7,"Warren, OH",OH,Ohio,1146404,41.2375,-80.81861,32
7,"Wood Dale, IL",IL,Illinois,1129013,41.96333,-87.97889,32
7,"Chico, CA",CA,California,1146608,39.72861,-121.83639,32
7,"Hays, KS",KS,Kansas,1151003,38.87917,-99.32639,32
7,"Carlsbad, NM",NM,New Mexico,1138000,32.42056,-104.22833,32
7,"Rochester Hills, MI",MI,Michigan,1159796,42.65833,-83.15,32
7,"Azusa, CA",CA,California,1146748,34.13361,-117.90667,32
7,"Bell, CA",CA,California,1146750,33.9775,-118.18611,32
7,"Arcadia, CA",CA,California,1146744,34.13972,-118.03444,32
7,"Cypress, CA",CA,California,1146772,33.81694,-118.03639,32
7,"Northridge, CA",CA,California,1146841,34.22833,-118.53583,32
7,"Coraopolis, PA",PA,Pennsylvania,1152815,40.51833,-80.16694,32
7,"Munster, IN",IN,Indiana,1144841,41.56444,-87.5125,32
7,"Bala Cynwyd, PA",PA,Pennsylvania,1152523,40.0138,-75.231705,32
7,"Radford, VA",VA,Virginia,1129972,37.13167,-80.57667,32
7,"West Lafayette, IN",IN,Indiana,1145111,40.42583,-86.90806,32
7,"Doylestown, PA",PA,Pennsylvania,1152563,40.31,-75.13028,32
7,"Campbellsville, KY",KY,Kentucky,1137536,37.34333,-85.34194,32
7,"Covington, KY",KY,Kentucky,1137560,39.08361,-84.50861,32
7,"Erlanger, KY",KY,Kentucky,1137565,39.01667,-84.60083,32
7,"Hebron, KY",KY,Kentucky,1137573,39.06583,-84.70111,32
7,"Moore, OK",OK,Oklahoma,1160405,35.33944,-97.48639,32
7,"Ashland, OH",OH,Ohio,1145563,40.86861,-82.31833,32
7,"Mc Lean, VA",VA,Virginia,1130384,38.939877,-77.19016,32
7,"Franklin, OH",OH,Ohio,1145714,39.55889,-84.30417,32
7,"Broken Arrow, OK",OK,Oklahoma,1137003,36.0525,-95.79056,32
7,"Fishersville, VA",VA,Virginia,1130254,38.09889,-78.96944,32
7,"Rocky Mount, VA",VA,Virginia,1130243,36.9975,-79.89222,32
7,"Strongsville, OH",OH,Ohio,1145819,41.31444,-81.83583,32
7,"Mason, OH",OH,Ohio,1145728,39.36,-84.31,32
7,"Beachwood, OH",OH,Ohio,1145766,41.46444,-81.50889,32
7,"Independence, OH",OH,Ohio,1145790,41.37114,-81.63821,32
7,"Baytown, TX",TX,Texas,1140132,29.73528,-94.97722,32
7,"Pearl River, NY",NY,New York,1132367,41.05889,-74.02222,32
7,"New Hyde Park, NY",NY,New York,1132345,40.735,-73.68833,32
7,"Great Neck, NY",NY,New York,1132263,40.80056,-73.72889,32
7,"Brentwood, NY",NY,New York,1132192,40.78111,-73.24667,32
7,"Cedar Park, TX",TX,Texas,1139765,30.505,-97.82,32
7,"Glens Falls, NY",NY,New York,1131968,43.30944,-73.64444,32
7,"Stephenville, TX",TX,Texas,1140532,32.22056,-98.20194,32
7,"New Braunfels, TX",TX,Texas,1140485,29.70278,-98.12417,32
7,"Rosemont, IL",IL,Illinois,1158097,38.62694,-90.09722,32
7,"Clifton Park, NY",NY,New York,1131668,42.86556,-73.77139,32
7,"Saint Peters, MO",MO,Missouri,1131271,38.80028,-90.62639,32
7,"Marysville, WA",WA,Washington,1150481,48.05194,-122.17583,32
7,"Saint Joseph, MO",MO,Missouri,1131187,39.76861,-94.84639,32
7,"Davie, FL",FL,Florida,1166110,26.0625,-80.23333,32
7,"Pratt, KS",KS,Kansas,1150874,37.64389,-98.73722,32
7,"Hickory, NC",NC,North Carolina,1138808,35.73319,-81.341194,32
7,"Elizabeth City, NC",NC,North Carolina,1138713,36.29444,-76.25139,32
7,"Kirksville, MO",MO,Missouri,1131096,40.19472,-92.58306,32
7,"Bossier City, LA",LA,Louisiana,1150087,32.51583,-93.73194,32
7,"Joplin, MO",MO,Missouri,1130983,37.08417,-94.51306,32
7,"Creve Coeur, MO",MO,Missouri,1158736,38.66083,-90.4225,32
7,"Nevada, MO",MO,Missouri,1130697,37.83917,-94.35444,32
7,"Bellingham, WA",WA,Washington,1150256,48.75972,-122.48694,32
7,"West Columbia, SC",SC,South Carolina,1155154,33.99333,-81.07417,32
7,"San Leandro, CA",CA,California,1147404,37.725,-122.155,32
7,"San Luis Obispo, CA",CA,California,1147458,35.28278,-120.65861,32
7,"Ypsilanti, MI",MI,Michigan,1134570,42.24111,-83.61306,32
7,"Manteca, CA",CA,California,1147537,37.7975,-121.215,32
7,"Tarzana, CA",CA,California,1146890,34.17333,-118.55306,32
7,"Oracle, AZ",AZ,Arizona,1133900,32.61083,-110.77028,32
7,"Peachtree City, GA",GA,Georgia,1155672,33.39667,-84.59583,32
7,"Forest Park, GA",GA,Georgia,1155620,33.624626,-84.36848,32
7,"Buford, GA",GA,Georgia,1155595,34.12056,-84.00444,32
7,"Conyers, GA",GA,Georgia,1155604,33.6675,-84.01778,32
7,"Cumming, GA",GA,Georgia,1155606,34.20722,-84.14028,32
7,"Willmar, MN",MN,Minnesota,1142689,45.12194,-95.04306,32
7,"Sheboygan, WI",WI,Wisconsin,1133685,43.75083,-87.71444,32
7,"Rocklin, CA",CA,California,1147225,38.79083,-121.23472,32
7,"Monterey, CA",CA,California,1147261,36.60028,-121.89361,32
7,"Flagstaff, AZ",AZ,Arizona,1133807,35.19806,-111.65056,32
7,"Daly City, CA",CA,California,1147343,37.70583,-122.46083,32
7,"Livermore, CA",CA,California,1147367,37.68194,-121.76694,32
7,"Whitewater, WI",WI,Wisconsin,1133738,42.83361,-88.73222,32
7,"Groton, CT",CT,Connecticut,1148487,41.35,-72.07889,32
7,"Windsor, CT",CT,Connecticut,1148450,41.8525,-72.64417,32
7,"Fond du Lac, WI",WI,Wisconsin,1133392,43.77306,-88.44694,32
7,"Middleton, WI",WI,Wisconsin,1133474,43.09722,-89.50417,32
7,"New Castle, DE",DE,Delaware,1156368,39.66194,-75.56667,32
7,"Hayward, WI",WI,Wisconsin,1133112,46.01306,-91.48444,32
7,"Vandenberg AFB, CA",CA,California,1164059,0,0,32
7,"Waupaca, WI",WI,Wisconsin,1133268,44.35806,-89.08583,32
7,"Rome, NY",NY,New York,1132922,43.21278,-75.45611,32
7,"Greeley, CO",CO,Colorado,1148276,40.42333,-104.70861,32
7,"Grenada, MS",MS,Mississippi,1141316,33.76889,-89.80833,32
7,"Tupelo, MS",MS,Mississippi,1141500,34.2575,-88.70333,32
6,"Morgantown, WV",WV,West Virginia,1143936,39.62944,-79.95611,32
6,"Bowie, MD",MD,Maryland,1153819,39.00667,-76.77944,32
6,"Lanham, MD",MD,Maryland,1153870,38.96694,-76.86222,32
6,"Westminster, Luzerne, PA",PA,Pennsylvania,3806749,41.27833,-75.77583,32
6,"Kingwood, WV",WV,West Virginia,1143933,39.47167,-79.68361,32
6,"Flemington, NJ",NJ,New Jersey,1126765,40.51222,-74.85972,32
6,"Florham Park, NJ",NJ,New Jersey,1126766,40.78778,-74.38861,32
6,"Basking Ridge, NJ",NJ,New Jersey,1126687,40.70611,-74.54972,32
6,"Neptune, NJ",NJ,New Jersey,1126898,40.205845,-74.04787,32
6,"Iselin, NJ",NJ,New Jersey,1126816,40.57528,-74.32278,32
6,"Papillion, NE",NE,Nebraska,1136441,41.15444,-96.04194,32
6,"Collierville, TN",TN,Tennessee,1144451,35.04194,-89.66444,32
6,"Brunswick, ME",ME,Maine,1135851,43.91444,-69.96583,32
6,"Short Hills, NJ",NJ,New Jersey,1126986,40.74778,-74.32583,32
6,"Falmouth, ME",ME,Maine,1135867,43.72944,-70.2425,32
6,"Teaneck, NJ",NJ,New Jersey,1127011,40.8975,-74.01639,32
6,"Summit, NJ",NJ,New Jersey,1127008,40.74139,-74.36,32
6,"Union, NJ",NJ,New Jersey,1127022,40.698925,-74.26363,32
6,"Lewiston, ME",ME,Maine,1135827,44.10028,-70.21528,32
6,"Mount Juliet, TN",TN,Tennessee,1144539,36.2,-86.51861,32
6,"Rockaway, NJ",NJ,New Jersey,1126966,40.90111,-74.51472,32
6,"Hazleton, PA",PA,Pennsylvania,1153248,40.95833,-75.975,32
6,"Moosic, PA",PA,Pennsylvania,1153263,41.35333,-75.73861,32
6,"Monroeville, AL",AL,Alabama,1127326,31.52778,-87.32472,32
6,"Westbrook, ME",ME,Maine,1135923,43.67694,-70.37167,32
6,"Kennebunk, ME",ME,Maine,1135875,43.38389,-70.54528,32
6,"China Lake, CA",CA,California,3786906,35.65083,-117.66083,32
6,"Alabaster, AL",AL,Alabama,1127424,33.24417,-86.81639,32
6,"Bennettsville, SC",SC,South Carolina,1155064,34.61722,-79.685,32
6,"Foley, AL",AL,Alabama,1127542,30.40639,-87.68361,32
6,"Springville, AL",AL,Alabama,1127499,33.775,-86.47167,32
