numJobs,name,stateAbbreviation,stateName,id,latitude,longitude,category_id
659,"San Antonio, TX",TX,Texas,1140494,29.42389,-98.49333,7
599,"Las Vegas, NV",NV,Nevada,1149603,36.175,-115.13639,7
595,"Houston, TX",TX,Texas,1140171,29.76306,-95.36306,7
480,"Chicago, IL",IL,Illinois,1128808,41.85,-87.65,7
456,"New York, NY",NY,New York,1132348,40.71417,-74.00639,7
414,"Phoenix, AZ",AZ,Arizona,1133904,33.44833,-112.07333,7
367,"Orlando, FL",FL,Florida,1154247,28.53806,-81.37944,7
354,"Dallas, TX",TX,Texas,1139977,32.78333,-96.8,7
337,"Austin, TX",TX,Texas,1139761,30.26694,-97.74278,7
316,"Jacksonville, FL",FL,Florida,1154093,30.33194,-81.65583,7
306,"Miami, FL",FL,Florida,1154170,25.77389,-80.19389,7
306,"Cincinnati, OH",OH,Ohio,1145705,39.16194,-84.45694,7
286,"Atlanta, GA",GA,Georgia,1155583,33.74889,-84.38806,7
282,"San Diego, CA",CA,California,1147311,32.71528,-117.15639,7
280,"San Francisco, CA",CA,California,1147401,37.775,-122.41833,7
272,"Los Angeles, CA",CA,California,1146821,34.05222,-118.24278,7
266,"Tucson, AZ",AZ,Arizona,1133996,32.22167,-110.92583,7
260,"Charlotte, NC",NC,North Carolina,1138644,35.22694,-80.84333,7
242,"Colorado Springs, CO",CO,Colorado,1148136,38.83389,-104.82083,7
239,"Columbus, OH",OH,Ohio,1145845,39.96111,-82.99889,7
237,"Scottsdale, AZ",AZ,Arizona,1133911,33.50917,-111.89833,7
232,"Omaha, NE",NE,Nebraska,1136440,41.25861,-95.9375,7
231,"Denver, CO",CO,Colorado,1148170,39.73917,-104.98417,7
225,"Louisville, KY",KY,Kentucky,1137724,38.25417,-85.75944,7
222,"Indianapolis, IN",IN,Indiana,1145013,39.76833,-86.15806,7
207,"Tampa, FL",FL,Florida,1154429,27.94722,-82.45861,7
201,"Virginia Beach, VA",VA,Virginia,1130324,36.85278,-75.97833,7
197,"Saint Louis, MO",MO,Missouri,1131270,38.636864,-90.28388,7
193,"Raleigh, NC",NC,North Carolina,1138960,35.77194,-78.63889,7
192,"Mesa, AZ",AZ,Arizona,1133897,33.42222,-111.82194,7
188,"Tulsa, OK",OK,Oklahoma,1137055,36.15389,-95.9925,7
181,"Pittsburgh, PA",PA,Pennsylvania,1152990,40.44056,-79.99611,7
181,"Fort Worth, TX",TX,Texas,1139993,32.72528,-97.32056,7
177,"Albuquerque, NM",NM,New Mexico,1137959,35.08444,-106.65056,7
176,"San Jose, CA",CA,California,1147436,37.33944,-121.89389,7
173,"Kansas City, MO",MO,Missouri,1131040,39.09972,-94.57833,7
170,"Knoxville, TN",TN,Tennessee,1144394,35.96056,-83.92083,7
170,"Aurora, CO",CO,Colorado,1148156,39.72944,-104.83139,7
166,"Nashville, TN",TN,Tennessee,1144541,36.16583,-86.78444,7
164,"Salt Lake City, UT",UT,Utah,1128289,40.76083,-111.89028,7
161,"Plano, TX",TX,Texas,1140045,33.01972,-96.69861,7
158,"Honolulu, HI",HI,Hawaii,1140656,21.30694,-157.85834,7
156,"Portland, OR",OR,Oregon,1151614,45.52361,-122.675,7
153,"Washington, DC",DC,District of Columbia,1138213,38.895,-77.03667,7
152,"Philadelphia, PA",PA,Pennsylvania,1152672,39.95222,-75.16417,7
149,"Seattle, WA",WA,Washington,1150505,47.60639,-122.33083,7
148,"Richmond, VA",VA,Virginia,1130198,37.55361,-77.46056,7
148,"Arlington, VA",VA,Virginia,1130337,38.89028,-77.08444,7
142,"Naples, FL",FL,Florida,1154189,26.14167,-81.795,7
142,"Oklahoma City, OK",OK,Oklahoma,1136950,35.4675,-97.51611,7
141,"Sacramento, CA",CA,California,1147229,38.58167,-121.49333,7
135,"Minneapolis, MN",MN,Minnesota,1142551,44.98,-93.26361,7
134,"Baltimore, MD",MD,Maryland,1153527,39.29028,-76.6125,7
130,"Boston, MA",MA,Massachusetts,1154532,42.35833,-71.06028,7
125,"Sioux Falls, SD",SD,South Dakota,1141041,43.55,-96.7,7
122,"Sarasota, FL",FL,Florida,1154350,27.33611,-82.53083,7
122,"Naperville, IL",IL,Illinois,1128928,41.78583,-88.14722,7
121,"Wichita, KS",KS,Kansas,1151230,37.69222,-97.33722,7
121,"Henderson, NV",NV,Nevada,1149600,36.03972,-114.98111,7
119,"Birmingham, AL",AL,Alabama,1127429,33.52056,-86.8025,7
119,"Littleton, CO",CO,Colorado,1148194,39.61333,-105.01611,7
118,"Glendale, AZ",AZ,Arizona,1133888,33.53861,-112.18528,7
117,"Reno, NV",NV,Nevada,1149627,39.52972,-119.81278,7
117,"Columbia, SC",SC,South Carolina,1155132,34.00056,-81.035,7
115,"Fort Wayne, IN",IN,Indiana,1144939,41.13056,-85.12889,7
115,"Frisco, TX",TX,Texas,1139994,33.15056,-96.82333,7
113,"Boca Raton, FL",FL,Florida,1154153,26.35833,-80.08333,7
113,"Greenville, SC",SC,South Carolina,1155193,34.8525,-82.39417,7
112,"Gilbert, AZ",AZ,Arizona,1133887,33.35278,-111.78833,7
112,"Madison, WI",WI,Wisconsin,1133470,43.07306,-89.40111,7
109,"Fredericksburg, VA",VA,Virginia,1130363,38.30306,-77.46083,7
108,"Chandler, AZ",AZ,Arizona,1133878,33.30611,-111.84056,7
107,"Spokane, WA",WA,Washington,1150554,47.65889,-117.425,7
107,"Vancouver, WA",WA,Washington,1150413,45.63889,-122.66028,7
105,"Grand Rapids, MI",MI,Michigan,1134796,42.96333,-85.66806,7
105,"Overland Park, KS",KS,Kansas,1151049,38.98222,-94.67056,7
105,"Chesapeake, VA",VA,Virginia,1130279,36.81889,-76.27528,7
104,"Fort Myers, FL",FL,Florida,1154016,26.64028,-81.8725,7
103,"Greensboro, NC",NC,North Carolina,1138755,36.0725,-79.79222,7
102,"Newport Beach, CA",CA,California,1146837,33.61889,-117.92806,7
101,"Costa Mesa, CA",CA,California,1146769,33.64111,-117.91778,7
100,"Bellevue, WA",WA,Washington,1150442,47.61056,-122.19944,7
99,"Memphis, TN",TN,Tennessee,1144463,35.14944,-90.04889,7
99,"Spring, TX",TX,Texas,1140222,30.07972,-95.41694,7
97,"Katy, TX",TX,Texas,1140177,29.78556,-95.82417,7
97,"Alpharetta, GA",GA,Georgia,1155582,34.07528,-84.29417,7
96,"Toledo, OH",OH,Ohio,1146248,41.66389,-83.55528,7
95,"Fort Lauderdale, FL",FL,Florida,1154160,26.12194,-80.14361,7
94,"Bradenton, FL",FL,Florida,1154335,27.49861,-82.575,7
94,"Arlington, TX",TX,Texas,1139951,32.73556,-97.10778,7
94,"Rochester, NY",NY,New York,1132765,43.15472,-77.61583,7
93,"Lincoln, NE",NE,Nebraska,1136371,40.8,-96.66667,7
93,"Winston-Salem, NC",NC,North Carolina,1139151,36.09766,-80.24728,7
91,"Alexandria, VA",VA,Virginia,1130334,38.79755,-77.08908,7
91,"Des Moines, IA",IA,Iowa,1149246,41.60056,-93.60889,7
91,"Marietta, GA",GA,Georgia,1155654,33.9525,-84.55,7
91,"Fort Collins, CO",CO,Colorado,1148233,40.58528,-105.08389,7
90,"West Des Moines, IA",IA,Iowa,1149284,41.57722,-93.71111,7
89,"Fresno, CA",CA,California,1146705,36.74778,-119.77139,7
87,"Chattanooga, TN",TN,Tennessee,1144251,35.04556,-85.30972,7
87,"Springfield, MO",MO,Missouri,1131348,37.21528,-93.29806,7
87,"Anchorage, AK",AK,Alaska,1134201,61.21806,-149.90028,7
86,"Schaumburg, IL",IL,Illinois,1128969,42.03333,-88.08333,7
86,"Long Beach, CA",CA,California,1146819,33.76694,-118.18833,7
85,"Dayton, OH",OH,Ohio,1145937,39.75889,-84.19167,7
85,"Tempe, AZ",AZ,Arizona,1133917,33.41472,-111.90861,7
85,"Westminster, CO",CO,Colorado,1148207,39.83667,-105.03667,7
84,"Norfolk, VA",VA,Virginia,1130306,36.84667,-76.28556,7
82,"Asheville, NC",NC,North Carolina,1138579,35.60083,-82.55417,7
82,"Charlottesville, VA",VA,Virginia,1130001,38.02917,-78.47694,7
80,"Clearwater, FL",FL,Florida,1154388,27.96556,-82.80028,7
80,"Roanoke, VA",VA,Virginia,1130242,37.27083,-79.94167,7
79,"Saint Petersburg, FL",FL,Florida,1154421,27.77056,-82.67944,7
79,"West Palm Beach, FL",FL,Florida,1154182,26.715,-80.05361,7
79,"Milwaukee, WI",WI,Wisconsin,1133579,43.03889,-87.90639,7
78,"Murfreesboro, TN",TN,Tennessee,1144540,35.84556,-86.39028,7
78,"Erie, PA",PA,Pennsylvania,1152139,42.12917,-80.08528,7
78,"El Paso, TX",TX,Texas,1140105,31.75861,-106.48639,7
77,"Boise, ID",ID,Idaho,1127927,43.61361,-116.2025,7
77,"Olathe, KS",KS,Kansas,1151046,38.88139,-94.81889,7
76,"Durham, NC",NC,North Carolina,1138697,35.99389,-78.89889,7
75,"Chesterfield, MO",MO,Missouri,1131207,38.66306,-90.57694,7
74,"McKinney, TX",TX,Texas,1140029,33.1975,-96.615,7
74,"Peoria, AZ",AZ,Arizona,1133903,33.58056,-112.23667,7
74,"Modesto, CA",CA,California,1146953,37.63917,-120.99583,7
73,"Humble, TX",TX,Texas,1140175,29.99999,-95.26125,7
73,"Baton Rouge, LA",LA,Louisiana,1149789,30.45056,-91.15444,7
73,"Cedar Rapids, IA",IA,Iowa,1149160,42.00833,-91.64389,7
73,"Santa Rosa, CA",CA,California,1147518,38.44056,-122.71333,7
72,"Bethesda, MD",MD,Maryland,1153817,38.98056,-77.10056,7
72,"York, PA",PA,Pennsylvania,1153468,39.9625,-76.72806,7
72,"Midlothian, VA",VA,Virginia,1130183,37.50583,-77.64944,7
72,"Manassas, VA",VA,Virginia,1130381,38.75083,-77.47556,7
72,"Davenport, IA",IA,Iowa,1149216,41.52361,-90.5775,7
72,"Saint Paul, MN",MN,Minnesota,1142575,44.94444,-93.09306,7
71,"Gainesville, FL",FL,Florida,1154062,29.65139,-82.325,7
71,"Fairfax, VA",VA,Virginia,1130359,38.84611,-77.30667,7
71,"Wilmington, NC",NC,North Carolina,1139117,34.22556,-77.945,7
71,"Coral Springs, FL",FL,Florida,1166106,26.27083,-80.27083,7
71,"Broomfield, CO",CO,Colorado,1148161,39.92056,-105.08611,7
70,"The Woodlands, TX",TX,Texas,1161666,30.15778,-95.48917,7
70,"Port Saint Lucie, FL",FL,Florida,1154324,27.29361,-80.35056,7
70,"Miami Beach, FL",FL,Florida,1154171,25.79028,-80.13028,7
70,"Bakersfield, CA",CA,California,1146557,35.37333,-119.01778,7
70,"Glen Allen, VA",VA,Virginia,1130160,37.66583,-77.50667,7
70,"Corpus Christi, TX",TX,Texas,1139919,27.80028,-97.39611,7
70,"Laredo, TX",TX,Texas,1140286,27.50611,-99.50722,7
70,"Fargo, ND",ND,North Dakota,1156255,46.87722,-96.78944,7
69,"Little Rock, AR",AR,Arkansas,1143190,34.74639,-92.28944,7
69,"Ocala, FL",FL,Florida,1154201,29.18694,-82.14028,7
69,"Amarillo, TX",TX,Texas,1139740,35.22194,-101.83083,7
69,"Myrtle Beach, SC",SC,South Carolina,1155247,33.68889,-78.88694,7
68,"Huntsville, AL",AL,Alabama,1127653,34.73028,-86.58611,7
68,"Lubbock, TX",TX,Texas,1140320,33.57778,-101.85472,7
68,"Charleston, SC",SC,South Carolina,1155074,32.77639,-79.93111,7
68,"Savannah, GA",GA,Georgia,1155906,32.08333,-81.1,7
67,"Boynton Beach, FL",FL,Florida,1154154,26.525,-80.06667,7
67,"Rockford, IL",IL,Illinois,1129425,42.27111,-89.09389,7
67,"Peoria, IL",IL,Illinois,1129349,40.69361,-89.58889,7
67,"Williamsburg, VA",VA,Virginia,1130328,37.27056,-76.70778,7
67,"Cleveland, OH",OH,Ohio,1145778,41.49944,-81.69556,7
67,"Lexington-Fayette, KY",KY,Kentucky,3749474,38.04972,-84.45861,7
67,"Cary, NC",NC,North Carolina,1138945,35.79139,-78.78139,7
67,"Riverside, CA",CA,California,1147138,33.95333,-117.39528,7
65,"Bloomington, MN",MN,Minnesota,1162257,44.84083,-93.29806,7
65,"Beaverton, OR",OR,Oregon,1151576,45.48722,-122.8025,7
65,"Aurora, IL",IL,Illinois,1128780,41.76056,-88.32,7
65,"San Mateo, CA",CA,California,1147406,37.56306,-122.32444,7
64,"Tallahassee, FL",FL,Florida,1154378,30.43806,-84.28083,7
64,"Lancaster, PA",PA,Pennsylvania,1152360,40.03778,-76.30583,7
64,"Redmond, WA",WA,Washington,1150499,47.67417,-122.12028,7
64,"Roseville, CA",CA,California,1147226,38.75222,-121.28694,7
64,"Wilmington, DE",DE,Delaware,1156375,39.74583,-75.54694,7
64,"Appleton, WI",WI,Wisconsin,1133289,44.26194,-88.41528,7
63,"Lakeland, FL",FL,Florida,1154143,28.03917,-81.95,7
63,"Staten Island, NY",NY,New York,1132430,40.58901,-74.145874,7
63,"Denton, TX",TX,Texas,1139980,33.21472,-97.13278,7
63,"Brooklyn, NY",NY,New York,1132200,40.65,-73.95,7
63,"Puyallup, WA",WA,Washington,1150497,47.18556,-122.29167,7
63,"Santa Clara, CA",CA,California,1147439,37.35417,-121.95417,7
63,"Ann Arbor, MI",MI,Michigan,1134560,42.27083,-83.72639,7
62,"Round Rock, TX",TX,Texas,1139794,30.50806,-97.67861,7
62,"Chula Vista, CA",CA,California,1147280,32.64,-117.08333,7
61,"Silver Spring, MD",MD,Maryland,1153904,38.99056,-77.02639,7
61,"Vero Beach, FL",FL,Florida,1154357,27.63833,-80.3975,7
61,"Newport News, VA",VA,Virginia,1130305,36.97861,-76.42833,7
61,"Lafayette, LA",LA,Louisiana,1149927,30.22389,-92.01972,7
61,"Buffalo, NY",NY,New York,1131850,42.88639,-78.87861,7
61,"Lynnwood, WA",WA,Washington,1150479,47.82111,-122.31389,7
61,"Burnsville, MN",MN,Minnesota,1142501,44.76778,-93.2775,7
61,"Brookfield, WI",WI,Wisconsin,1133554,43.06056,-88.10639,7
60,"Irvine, CA",CA,California,1146798,33.66944,-117.82222,7
60,"Lakewood, CO",CO,Colorado,1164305,39.70472,-105.08083,7
59,"Rapid City, SD",SD,South Dakota,1141002,44.08056,-103.23056,7
59,"Nashua, NH",NH,New Hampshire,1147911,42.76528,-71.46806,7
58,"Montgomery, AL",AL,Alabama,1127704,32.36667,-86.3,7
58,"New Orleans, LA",LA,Louisiana,1150035,29.95444,-90.075,7
58,"Longmont, CO",CO,Colorado,1148118,40.16722,-105.10139,7
57,"Annapolis, MD",MD,Maryland,1153523,38.97833,-76.4925,7
57,"Billings, MT",MT,Montana,1135402,45.78333,-108.5,7
57,"Fayetteville, AR",AR,Arkansas,1143041,36.0625,-94.15722,7
57,"Lexington, KY",KY,Kentucky,1137677,37.98861,-84.47778,7
57,"Lewisville, TX",TX,Texas,1140022,33.047523,-96.99417,7
57,"Cumming, GA",GA,Georgia,1155606,34.20722,-84.14028,7
57,"Carlsbad, CA",CA,California,1147279,33.15806,-117.34972,7
56,"Franklin, TN",TN,Tennessee,1144518,35.925,-86.86889,7
56,"Pembroke Pines, FL",FL,Florida,1154179,26.00278,-80.22417,7
56,"Leesburg, VA",VA,Virginia,1130376,39.11556,-77.56389,7
55,"Lansing, MI",MI,Michigan,1134930,42.7325,-84.55556,7
55,"Lawrence, KS",KS,Kansas,1151068,38.97167,-95.235,7
55,"Huntington Beach, CA",CA,California,1146795,33.66028,-117.99833,7
55,"Topeka, KS",KS,Kansas,1151173,39.04833,-95.67778,7
55,"Greenwood, IN",IN,Indiana,1145010,39.61139,-86.11806,7
55,"Pearland, TX",TX,Texas,1140202,29.56333,-95.28583,7
55,"Duluth, MN",MN,Minnesota,1142353,46.78333,-92.10639,7
54,"Columbia, MD",MD,Maryland,1153546,39.24028,-76.83972,7
54,"Portage, MI",MI,Michigan,1134909,42.20111,-85.58,7
54,"Brea, CA",CA,California,1146754,33.91667,-117.89917,7
54,"Springfield, IL",IL,Illinois,1129562,39.80167,-89.64361,7
54,"McLean, VA",VA,Virginia,1158535,38.93417,-77.17778,7
54,"Palo Alto, CA",CA,California,1147434,37.44194,-122.14194,7
54,"Loveland, CO",CO,Colorado,1148237,40.39778,-105.07444,7
53,"Rockville, MD",MD,Maryland,1153899,39.08389,-77.15306,7
53,"Mobile, AL",AL,Alabama,1127676,30.69417,-88.04306,7
53,"Maple Grove, MN",MN,Minnesota,1162297,45.0725,-93.45556,7
53,"Livonia, MI",MI,Michigan,1134687,42.36833,-83.35278,7
53,"Wauwatosa, WI",WI,Wisconsin,1159476,43.04944,-88.0075,7
53,"Allentown, PA",PA,Pennsylvania,1151916,40.60833,-75.49056,7
53,"Visalia, CA",CA,California,1147641,36.33028,-119.29111,7
53,"Fairfield, CA",CA,California,1147605,38.24944,-122.03889,7
53,"Thousand Oaks, CA",CA,California,1146988,34.17056,-118.83667,7
53,"Greeley, CO",CO,Colorado,1148276,40.42333,-104.70861,7
52,"Cape Coral, FL",FL,Florida,1154013,26.5625,-81.94972,7
52,"Salem, OR",OR,Oregon,1151682,44.94306,-123.03389,7
52,"Sterling Heights, MI",MI,Michigan,1159809,42.58028,-83.03028,7
52,"Canton, OH",OH,Ohio,1145650,40.79889,-81.37861,7
52,"Falls Church, VA",VA,Virginia,1130361,38.88222,-77.17139,7
52,"Sugar Land, TX",TX,Texas,1140225,29.61944,-95.63472,7
52,"Newark, DE",DE,Delaware,1156369,39.68361,-75.75,7
51,"Paramus, NJ",NJ,New Jersey,1126928,40.94444,-74.07583,7
51,"Holland, MI",MI,Michigan,1134828,42.7875,-86.10889,7
51,"Altamonte Springs, FL",FL,Florida,1154211,28.66083,-81.36583,7
51,"Tyler, TX",TX,Texas,1140559,32.35111,-95.30083,7
51,"Council Bluffs, IA",IA,Iowa,1149408,41.26194,-95.86083,7
51,"Summerville, SC",SC,South Carolina,1155103,33.02133,-80.177536,7
51,"Santa Barbara, CA",CA,California,1147473,34.42083,-119.69722,7
51,"Stockton, CA",CA,California,1147539,37.95778,-121.28972,7
51,"Bismarck, ND",ND,North Dakota,1156224,46.80833,-100.78333,7
50,"Woodbury, MN",MN,Minnesota,1162363,46.67917,-92.95972,7
50,"Wesley Chapel, FL",FL,Florida,1154434,28.23944,-82.32806,7
50,"Lima, OH",OH,Ohio,1146050,40.744137,-84.10532,7
50,"Orland Park, IL",IL,Illinois,1128940,41.63028,-87.85389,7
50,"Sioux City, IA",IA,Iowa,1149480,42.5,-96.4,7
50,"Irving, TX",TX,Texas,1140006,32.81389,-96.94861,7
50,"Beaumont, TX",TX,Texas,1139817,30.08583,-94.10167,7
50,"Augusta, GA",GA,Georgia,1155718,33.47083,-81.975,7
50,"Mankato, MN",MN,Minnesota,1142471,44.16361,-93.99917,7
49,"Vienna, VA",VA,Virginia,1130417,38.90111,-77.26556,7
49,"North Las Vegas, NV",NV,Nevada,1149609,36.19889,-115.11667,7
49,"Cypress, TX",TX,Texas,1140146,29.96889,-95.69694,7
49,"Bellingham, WA",WA,Washington,1150256,48.75972,-122.48694,7
49,"Mount Pleasant, SC",SC,South Carolina,1155092,32.79389,-79.86278,7
49,"Napa, CA",CA,California,1146966,38.29722,-122.28444,7
49,"Buford, GA",GA,Georgia,1155595,34.12056,-84.00444,7
49,"Temecula, CA",CA,California,1147145,33.49361,-117.1475,7
49,"Livermore, CA",CA,California,1147367,37.68194,-121.76694,7
49,"Boulder, CO",CO,Colorado,1148112,40.015,-105.27,7
49,"Englewood, CO",CO,Colorado,1148176,39.64778,-104.98722,7
48,"Clarksville, TN",TN,Tennessee,1144270,36.52972,-87.35944,7
48,"Bel Air, MD",MD,Maryland,1153529,39.53583,-76.34861,7
48,"Strongsville, OH",OH,Ohio,1145819,41.31444,-81.83583,7
48,"Suffolk, VA",VA,Virginia,1130320,36.72806,-76.58389,7
48,"Pasadena, TX",TX,Texas,1140200,29.69083,-95.20889,7
48,"Shreveport, LA",LA,Louisiana,1150108,32.525,-93.75,7
48,"Sunnyvale, CA",CA,California,1147442,37.36889,-122.03528,7
48,"Surprise, AZ",AZ,Arizona,1133916,33.63056,-112.3325,7
47,"Westland, MI",MI,Michigan,1134746,42.32417,-83.40028,7
47,"Brandon, FL",FL,Florida,1154386,27.9375,-82.28611,7
47,"Cheyenne, WY",WY,Wyoming,1138322,41.14,-104.81972,7
47,"Clovis, CA",CA,California,1146698,36.82528,-119.70194,7
47,"Lafayette, IN",IN,Indiana,1145102,40.41667,-86.87528,7
47,"Lawton, OK",OK,Oklahoma,1136871,34.60861,-98.39,7
47,"Winchester, VA",VA,Virginia,1130431,39.18556,-78.16361,7
47,"Sparks, NV",NV,Nevada,1149628,39.535,-119.75167,7
47,"Garland, TX",TX,Texas,1139995,32.9125,-96.63861,7
47,"Davie, FL",FL,Florida,1166110,26.0625,-80.23333,7
47,"Columbus, GA",GA,Georgia,1155778,32.46083,-84.98778,7
47,"Grand Junction, CO",CO,Colorado,1164330,39.070377,-108.54904,7
46,"Bozeman, MT",MT,Montana,1135421,45.67972,-111.03778,7
46,"Kissimmee, FL",FL,Florida,1154232,28.29167,-81.40778,7
46,"Kalamazoo, MI",MI,Michigan,1134900,42.29167,-85.58722,7
46,"Ames, IA",IA,Iowa,1149127,42.03472,-93.61972,7
46,"Waco, TX",TX,Texas,1140600,31.54917,-97.14639,7
46,"Renton, WA",WA,Washington,1150501,47.48306,-122.21583,7
46,"Columbia, MO",MO,Missouri,1130886,38.95167,-92.33389,7
46,"Rochester, MN",MN,Minnesota,1142638,44.02167,-92.46972,7
45,"Freehold, NJ",NJ,New Jersey,1126774,40.26,-74.27417,7
45,"Glen Burnie, MD",MD,Maryland,1153575,39.1625,-76.625,7
45,"Bloomington, IN",IN,Indiana,1144789,39.16528,-86.52639,7
45,"Blaine, MN",MN,Minnesota,1162256,45.16083,-93.23472,7
45,"Concord, NC",NC,North Carolina,1138646,35.416473,-80.57785,7
45,"Warwick, RI",RI,Rhode Island,1151302,41.7,-71.41667,7
45,"Eugene, OR",OR,Oregon,1151469,44.05222,-123.08556,7
45,"Burbank, CA",CA,California,1146756,34.18083,-118.30806,7
45,"Santa Monica, CA",CA,California,1146873,34.01944,-118.49028,7
45,"Florence, KY",KY,Kentucky,1137567,38.99889,-84.62667,7
45,"Akron, OH",OH,Ohio,1145529,41.08139,-81.51917,7
45,"Mentor, OH",OH,Ohio,1145800,41.66611,-81.33972,7
45,"Tigard, OR",OR,Oregon,1165048,45.43139,-122.77028,7
45,"Spartanburg, SC",SC,South Carolina,1155311,34.94944,-81.93222,7
45,"Elk Grove, CA",CA,California,1147183,38.40889,-121.37056,7
45,"Macon, GA",GA,Georgia,1155868,32.84056,-83.6325,7
44,"Cherry Hill, NJ",NJ,New Jersey,1127090,39.90461,-74.997,7
44,"Missoula, MT",MT,Montana,1135489,46.87222,-113.99306,7
44,"Novi, MI",MI,Michigan,1134704,42.48056,-83.47556,7
44,"Sandy, UT",UT,Utah,1128290,40.574997,-111.84344,7
44,"Lake Worth, FL",FL,Florida,1154168,26.61556,-80.05722,7
44,"Hillsboro, OR",OR,Oregon,1151603,45.52306,-122.98861,7
44,"King of Prussia, PA",PA,Pennsylvania,1152620,40.08917,-75.39639,7
44,"Conroe, TX",TX,Texas,1140144,30.31167,-95.45583,7
44,"Cedar Park, TX",TX,Texas,1139765,30.505,-97.82,7
44,"McAllen, TX",TX,Texas,1140353,26.20306,-98.22972,7
44,"Fayetteville, NC",NC,North Carolina,1138720,35.0525,-78.87861,7
44,"Roswell, GA",GA,Georgia,1155681,34.02306,-84.36167,7
44,"Minnetonka, MN",MN,Minnesota,1142552,44.91333,-93.50306,7
44,"Rancho Mirage, CA",CA,California,1147133,33.73972,-116.41194,7
43,"Frederick, MD",MD,Maryland,1153851,39.41417,-77.41083,7
43,"Rogers, AR",AR,Arkansas,1143060,36.33194,-94.11833,7
43,"Troy, MI",MI,Michigan,1134737,42.60556,-83.15,7
43,"Clermont, FL",FL,Florida,1154219,28.54917,-81.77306,7
43,"Mission Viejo, CA",CA,California,1146829,33.6,-117.67111,7
43,"Terre Haute, IN",IN,Indiana,1145310,39.46667,-87.41389,7
43,"Hoover, AL",AL,Alabama,1157612,33.40528,-86.81139,7
43,"Carrollton, TX",TX,Texas,1139964,32.95361,-96.89,7
43,"Concord, CA",CA,California,1147340,37.97806,-122.03,7
43,"Green Bay, WI",WI,Wisconsin,1133406,44.51917,-88.01972,7
43,"Pueblo, CO",CO,Colorado,1148308,38.25444,-104.60861,7
43,"Danbury, CT",CT,Connecticut,1148332,41.39472,-73.45444,7
42,"Princeton, NJ",NJ,New Jersey,1127179,40.34861,-74.65944,7
42,"Roseville, MN",MN,Minnesota,1162334,45.00611,-93.15639,7
42,"Plymouth, MN",MN,Minnesota,1162329,45.01056,-93.45528,7
42,"Shawnee, KS",KS,Kansas,1151059,39.04167,-94.72,7
42,"South Bend, IN",IN,Indiana,1145268,41.68333,-86.25,7
42,"Dublin, OH",OH,Ohio,1145850,40.102497,-83.11432,7
42,"Harrisburg, PA",PA,Pennsylvania,1152185,40.27361,-76.88472,7
42,"Plantation, FL",FL,Florida,1166193,26.127102,-80.23334,7
42,"Federal Way, WA",WA,Washington,1150460,47.3225,-122.31139,7
42,"Torrance, CA",CA,California,1146894,33.83583,-118.33972,7
42,"Lawrenceville, GA",GA,Georgia,1155641,33.95611,-83.98806,7
42,"Saint Cloud, MN",MN,Minnesota,1142664,45.56083,-94.16222,7
42,"Eden Prairie, MN",MN,Minnesota,1142521,44.85472,-93.47056,7
42,"Eau Claire, WI",WI,Wisconsin,1133380,44.81139,-91.49833,7
42,"Stamford, CT",CT,Connecticut,1148355,41.05333,-73.53917,7
41,"Hagerstown, MD",MD,Maryland,1153716,39.64167,-77.72028,7
41,"Anderson, SC",SC,South Carolina,1155033,34.50333,-82.65028,7
41,"Nampa, ID",ID,Idaho,1127948,43.54083,-116.5625,7
41,"Grandville, MI",MI,Michigan,1134797,42.90972,-85.76306,7
41,"Pensacola, FL",FL,Florida,1154318,30.42111,-87.21694,7
41,"Medford, OR",OR,Oregon,1151534,42.32667,-122.87444,7
41,"Gastonia, NC",NC,North Carolina,1138651,35.26194,-81.1875,7
41,"Pasadena, CA",CA,California,1146850,34.14778,-118.14361,7
41,"Evansville, IN",IN,Indiana,1144913,37.97472,-87.55583,7
41,"Fishers, IN",IN,Indiana,1145003,39.95556,-86.01389,7
41,"Flushing, NY",NY,New York,1132249,40.750717,-73.83395,7
41,"Kapolei, HI",HI,Hawaii,1140661,21.329206,-158.05,7
41,"Woodstock, GA",GA,Georgia,1155715,34.10139,-84.51944,7
40,"Salisbury, MD",MD,Maryland,1153799,38.36056,-75.59972,7
40,"Cambridge, MA",MA,Massachusetts,1154545,42.375,-71.10611,7
40,"Melbourne, FL",FL,Florida,1154286,28.08333,-80.60833,7
40,"Sanford, FL",FL,Florida,1154252,28.75833,-81.29444,7
40,"Saint Augustine, FL",FL,Florida,1154105,29.89444,-81.31472,7
40,"Lynchburg, VA",VA,Virginia,1130113,37.41361,-79.1425,7
40,"Hampton, VA",VA,Virginia,1130294,37.02972,-76.34556,7
40,"San Marcos, TX",TX,Texas,1139795,29.88306,-97.94111,7
40,"Issaquah, WA",WA,Washington,1150468,47.53028,-122.03139,7
40,"Independence, MO",MO,Missouri,1131039,39.09111,-94.41528,7
40,"Everett, WA",WA,Washington,1150458,47.97917,-122.20083,7
40,"Canton, GA",GA,Georgia,1155596,34.23667,-84.49083,7
40,"Minot, ND",ND,North Dakota,1156308,48.2325,-101.29583,7
39,"Dothan, AL",AL,Alabama,1127583,31.22306,-85.39056,7
39,"Palm Beach Gardens, FL",FL,Florida,1154178,26.82306,-80.13889,7
39,"Hialeah, FL",FL,Florida,1154162,25.85722,-80.27833,7
39,"Noblesville, IN",IN,Indiana,1145028,40.04556,-86.00861,7
39,"Muncie, IN",IN,Indiana,1145190,40.19333,-85.38639,7
39,"Sterling, VA",VA,Virginia,1130411,39.00611,-77.42889,7
39,"Flower Mound, TX",TX,Texas,1139990,33.01444,-97.09667,7
39,"Saint Joseph, MO",MO,Missouri,1131187,39.76861,-94.84639,7
39,"Greenville, NC",NC,North Carolina,1138785,35.6125,-77.36667,7
39,"Kennewick, WA",WA,Washington,1150324,46.21139,-119.13611,7
39,"Florence, SC",SC,South Carolina,1155168,34.19528,-79.76278,7
39,"Grand Forks, ND",ND,North Dakota,1156271,47.92528,-97.0325,7
38,"Cleveland, TN",TN,Tennessee,1144280,35.15944,-84.87667,7
38,"Warren, MI",MI,Michigan,1134741,42.4775,-83.02778,7
38,"Stuart, FL",FL,Florida,1154326,27.19722,-80.25306,7
38,"Saginaw, MI",MI,Michigan,1135057,43.41944,-83.95083,7
38,"Champaign, IL",IL,Illinois,1128722,40.11639,-88.24333,7
38,"Sherman Oaks, CA",CA,California,1146875,34.15111,-118.44833,7
38,"Carmel, IN",IN,Indiana,1144991,39.97833,-86.11806,7
38,"Mishawaka, IN",IN,Indiana,1145263,41.66194,-86.15861,7
38,"Dubuque, IA",IA,Iowa,1149290,42.50056,-90.66444,7
38,"Saint Charles, MO",MO,Missouri,1131268,38.78389,-90.48111,7
38,"Lees Summit, MO",MO,Missouri,1131046,38.91083,-94.38194,7
38,"Walnut Creek, CA",CA,California,1147417,37.90639,-122.06389,7
38,"Goodyear, AZ",AZ,Arizona,1133890,33.43528,-112.3575,7
38,"Kennesaw, GA",GA,Georgia,1155639,34.02333,-84.61556,7
37,"Hanover, PA",PA,Pennsylvania,1153449,39.802998,-76.98326,7
37,"Fort Smith, AR",AR,Arkansas,1143091,35.38583,-94.39833,7
37,"Idaho Falls, ID",ID,Idaho,1127978,43.46667,-112.03333,7
37,"Charleston, WV",WV,West Virginia,1143753,38.34972,-81.63278,7
37,"Bloomington, IL",IL,Illinois,1128636,40.48417,-88.99361,7
37,"Altoona, PA",PA,Pennsylvania,1151974,40.51861,-78.395,7
37,"Santa Fe, NM",NM,New Mexico,1138171,35.68694,-105.93722,7
37,"Norman, OK",OK,Oklahoma,1136949,35.2225,-97.43917,7
37,"College Station, TX",TX,Texas,1139900,30.62778,-96.33417,7
37,"Saint Peters, MO",MO,Missouri,1131271,38.80028,-90.62639,7
37,"Marysville, WA",WA,Washington,1150481,48.05194,-122.17583,7
37,"Olympia, WA",WA,Washington,1150386,47.03806,-122.89944,7
37,"San Rafael, CA",CA,California,1147409,37.97361,-122.53,7
37,"Turlock, CA",CA,California,1146959,37.49472,-120.84556,7
37,"Tukwila, WA",WA,Washington,1164776,47.47417,-122.25972,7
37,"Salinas, CA",CA,California,1147265,36.67778,-121.65444,7
37,"Dover, DE",DE,Delaware,1156347,39.15806,-75.52472,7
36,"Tuscaloosa, AL",AL,Alabama,1127776,33.20972,-87.56917,7
36,"Jonesboro, AR",AR,Arkansas,1143154,35.84222,-90.70417,7
36,"Edina, MN",MN,Minnesota,1162277,44.88972,-93.34972,7
36,"Flint, MI",MI,Michigan,1134766,43.0125,-83.6875,7
36,"Orem, UT",UT,Utah,1128244,40.29694,-111.69389,7
36,"South Jordan, UT",UT,Utah,1128291,40.56222,-111.92889,7
36,"Delray Beach, FL",FL,Florida,1154159,26.46111,-80.07306,7
36,"Downers Grove, IL",IL,Illinois,1128825,41.80889,-88.01111,7
36,"Vernon Hills, IL",IL,Illinois,1128989,42.21944,-87.97944,7
36,"Wheaton, IL",IL,Illinois,1129003,41.86611,-88.10694,7
36,"Rochester Hills, MI",MI,Michigan,1159796,42.65833,-83.15,7
36,"Las Cruces, NM",NM,New Mexico,1138109,32.31222,-106.77778,7
36,"Allen, TX",TX,Texas,1139946,33.10306,-96.67028,7
36,"Tacoma, WA",WA,Washington,1150517,47.25306,-122.44306,7
36,"Lexington, SC",SC,South Carolina,1155142,33.98139,-81.23639,7
36,"Prescott, AZ",AZ,Arizona,1133944,34.54,-112.46778,7
36,"El Cajon, CA",CA,California,1147285,32.79472,-116.96167,7
36,"Escondido, CA",CA,California,1147287,33.11917,-117.08556,7
36,"Citrus Heights, CA",CA,California,1163932,38.70722,-121.28,7
36,"Norwalk, CT",CT,Connecticut,1148344,41.1175,-73.40833,7
35,"Port Orange, FL",FL,Florida,1154042,29.13806,-80.99583,7
35,"Waltham, MA",MA,Massachusetts,1154703,42.37639,-71.23611,7
35,"Kalispell, MT",MT,Montana,1135471,48.19583,-114.31194,7
35,"Casper, WY",WY,Wyoming,1138311,42.86667,-106.3125,7
35,"Bloomingdale, IL",IL,Illinois,1128791,41.9575,-88.08083,7
35,"Exton, PA",PA,Pennsylvania,1152576,40.02889,-75.62111,7
35,"Bowling Green, KY",KY,Kentucky,1137525,36.99028,-86.44361,7
35,"Baytown, TX",TX,Texas,1140132,29.73528,-94.97722,7
35,"Abilene, TX",TX,Texas,1139716,32.44861,-99.73278,7
35,"Wichita Falls, TX",TX,Texas,1140617,33.91361,-98.49306,7
35,"Jacksonville, NC",NC,North Carolina,1138830,34.75389,-77.43056,7
35,"Rock Hill, SC",SC,South Carolina,1155111,34.92472,-81.02528,7
35,"Vacaville, CA",CA,California,1147609,38.35667,-121.98667,7
35,"Thornton, CO",CO,Colorado,1164313,39.86806,-104.97139,7
35,"San Marcos, CA",CA,California,1147313,33.14333,-117.16528,7
35,"Oceanside, CA",CA,California,1147301,33.19583,-117.37861,7
34,"Gaithersburg, MD",MD,Maryland,1153852,39.14333,-77.20167,7
34,"Gambrills, MD",MD,Maryland,1153572,39.06694,-76.66556,7
34,"Hendersonville, TN",TN,Tennessee,1144525,36.30472,-86.62,7
34,"Clinton Township, MI",MI,Michigan,1134636,42.58191,-82.92577,7
34,"Oviedo, FL",FL,Florida,1154248,28.66972,-81.20833,7
34,"Pompano Beach, FL",FL,Florida,1154180,26.2375,-80.125,7
34,"Algonquin, IL",IL,Illinois,1128776,42.16556,-88.29417,7
34,"Bend, OR",OR,Oregon,1151424,44.05833,-121.31417,7
34,"Santa Ana, CA",CA,California,1146870,33.74556,-117.86694,7
34,"League City, TX",TX,Texas,1140185,29.50722,-95.09472,7
34,"Grand Prairie, TX",TX,Texas,1139997,32.74583,-96.9975,7
34,"Carson City, NV",NV,Nevada,1149563,39.16389,-119.76639,7
34,"Mason City, IA",IA,Iowa,1149366,43.15361,-93.20083,7
34,"Deerfield Beach, FL",FL,Florida,1166111,26.31806,-80.1,7
33,"Brentwood, TN",TN,Tennessee,1144496,36.000107,-86.78849,7
33,"Johnson City, TN",TN,Tennessee,1144365,36.31333,-82.35361,7
33,"Vineland, NJ",NJ,New Jersey,1127202,39.48611,-75.02611,7
33,"Conway, AR",AR,Arkansas,1143176,35.08861,-92.44194,7
33,"Port Charlotte, FL",FL,Florida,1154331,26.97583,-82.09083,7
33,"Geneva, IL",IL,Illinois,1128846,41.8875,-88.30528,7
33,"Matthews, NC",NC,North Carolina,1138660,35.11667,-80.72389,7
33,"Farmington, NM",NM,New Mexico,1138046,36.72806,-108.21806,7
33,"West Chester, PA",PA,Pennsylvania,1152733,39.96056,-75.60583,7
33,"Chambersburg, PA",PA,Pennsylvania,1152023,39.9375,-77.66139,7
33,"Ashburn, VA",VA,Virginia,1130338,39.04361,-77.48778,7
33,"Lake Jackson, TX",TX,Texas,1140184,29.03361,-95.43417,7
33,"Longview, TX",TX,Texas,1140307,32.50056,-94.74028,7
33,"Mooresville, NC",NC,North Carolina,1139057,35.58472,-80.81028,7
33,"Amherst, NY",NY,New York,1158923,42.97833,-78.8,7
33,"Westminster, CA",CA,California,1146911,33.75917,-118.00583,7
33,"Newnan, GA",GA,Georgia,1155666,33.38056,-84.79972,7
33,"Oshkosh, WI",WI,Wisconsin,1133637,44.02472,-88.5425,7
33,"Dublin, CA",CA,California,1147348,37.70222,-121.93472,7
33,"Biloxi, MS",MS,Mississippi,1141320,30.39583,-88.88528,7
33,"Victor, NY",NY,New York,1132782,42.9825,-77.40917,7
32,"Bangor, ME",ME,Maine,1135774,44.80111,-68.77833,7
32,"Great Falls, MT",MT,Montana,1135435,47.50028,-111.3,7
32,"Taylor, MI",MI,Michigan,1134735,42.24083,-83.26972,7
32,"Canton, MI",MI,Michigan,1134629,42.30861,-83.48222,7
32,"Largo, FL",FL,Florida,1154404,27.90917,-82.7875,7
32,"Northbrook, IL",IL,Illinois,1128934,42.1275,-87.82889,7
32,"Bolingbrook, IL",IL,Illinois,1128793,41.69861,-88.06833,7
32,"Salina, KS",KS,Kansas,1151134,38.84028,-97.61111,7
32,"Harrisonburg, VA",VA,Virginia,1130069,38.44944,-78.86917,7
32,"Southlake, TX",TX,Texas,1140065,32.94111,-97.13389,7
32,"Athens, GA",GA,Georgia,1155564,33.96083,-83.37806,7
32,"Lone Tree, CO",CO,Colorado,1164306,39.53611,-104.89583,7
32,"Palm Desert, CA",CA,California,1147124,33.72222,-116.37361,7
32,"Rancho Cucamonga, CA",CA,California,1147132,34.10639,-117.59222,7
32,"Castle Rock, CO",CO,Colorado,1148164,39.37222,-104.85556,7
31,"Easton, MD",MD,Maryland,1153695,38.77417,-76.07667,7
31,"Edison, NJ",NJ,New Jersey,1126748,40.52424,-74.41246,7
31,"Bellevue, NE",NE,Nebraska,1136412,41.13667,-95.89056,7
31,"Kingsport, TN",TN,Tennessee,1144380,36.54833,-82.56194,7
31,"Washington, PA",PA,Pennsylvania,1153058,40.17389,-80.24639,7
31,"Madison, AL",AL,Alabama,1127655,34.70154,-86.74873,7
31,"Meridian, ID",ID,Idaho,1127945,43.61222,-116.39056,7
31,"Panama City Beach, FL",FL,Florida,1154306,30.17639,-85.80556,7
31,"Jensen Beach, FL",FL,Florida,1154322,27.25417,-80.23,7
31,"Muskegon, MI",MI,Michigan,1135006,43.23417,-86.24833,7
31,"Apopka, FL",FL,Florida,1154213,28.68028,-81.50972,7
31,"Bourbonnais, IL",IL,Illinois,1129186,41.14167,-87.875,7
31,"Romeoville, IL",IL,Illinois,1128963,41.6475,-88.08944,7
31,"Paducah, KY",KY,Kentucky,1137839,37.08333,-88.6,7
31,"Garden City, KS",KS,Kansas,1150991,37.97167,-100.87222,7
31,"Shelby Township, MI",MI,Michigan,1159803,0,0,7
31,"Manhattan, KS",KS,Kansas,1151078,39.18361,-96.57139,7
31,"Cerritos, CA",CA,California,1146763,33.85833,-118.06389,7
31,"Glendale, CA",CA,California,1146787,34.1425,-118.25417,7
31,"Santa Clarita, CA",CA,California,1146871,34.39167,-118.54167,7
31,"Missouri City, TX",TX,Texas,1140190,29.61833,-95.5375,7
31,"Hurst, TX",TX,Texas,1140004,32.82333,-97.17028,7
31,"Brownsville, TX",TX,Texas,1139874,25.90139,-97.49722,7
31,"Alexandria, LA",LA,Louisiana,1149749,31.31111,-92.445,7
31,"San Angelo, TX",TX,Texas,1140445,31.46361,-100.43667,7
31,"West Valley City, UT",UT,Utah,1157900,40.69167,-112.00028,7
31,"Garner, NC",NC,North Carolina,1138950,35.71111,-78.61444,7
31,"Battle Creek, MI",MI,Michigan,1134573,42.32111,-85.17972,7
31,"Concord, NH",NH,New Hampshire,1147789,43.20806,-71.53806,7
31,"Queen Creek, AZ",AZ,Arizona,1133906,33.24861,-111.63361,7
31,"La Quinta, CA",CA,California,1147097,33.66333,-116.30917,7
31,"Yuma, AZ",AZ,Arizona,1134005,32.72528,-114.62361,7
31,"Flagstaff, AZ",AZ,Arizona,1133807,35.19806,-111.65056,7
31,"Fremont, CA",CA,California,1147355,37.54833,-121.9875,7
30,"Estero, FL",FL,Florida,1154015,26.43778,-81.80694,7
30,"Morristown, TN",TN,Tennessee,1144477,36.21389,-83.295,7
30,"Rockaway, NJ",NJ,New Jersey,1126966,40.90111,-74.51472,7
30,"Mount Laurel, NJ",NJ,New Jersey,1127131,39.93389,-74.89139,7
30,"Saugus, MA",MA,Massachusetts,1154679,42.46472,-71.01056,7
30,"West Jordan, UT",UT,Utah,1128296,40.60972,-111.93833,7
30,"Hollywood, FL",FL,Florida,1154163,26.01083,-80.14972,7
30,"Orange Park, FL",FL,Florida,1154101,30.16583,-81.70667,7
30,"Okemos, MI",MI,Michigan,1134935,42.72222,-84.4275,7
30,"Bethlehem, PA",PA,Pennsylvania,1151922,40.62583,-75.37083,7
30,"Springfield, OH",OH,Ohio,1146179,39.92417,-83.80889,7
30,"Burlington, NC",NC,North Carolina,1138632,36.09556,-79.43806,7
30,"Huntersville, NC",NC,North Carolina,1138654,35.41056,-80.84306,7
30,"Lakewood, CA",CA,California,1146813,33.85361,-118.13306,7
30,"Butler, PA",PA,Pennsylvania,1152790,40.86111,-79.89556,7
30,"Springfield, PA",PA,Pennsylvania,1152710,41.84917,-76.74611,7
30,"Hamilton, OH",OH,Ohio,1145718,39.39944,-84.56139,7
30,"Woodbridge, VA",VA,Virginia,1130422,38.65806,-77.25,7
30,"Mason, OH",OH,Ohio,1145728,39.36,-84.31,7
30,"Kingwood, TX",TX,Texas,1140181,30.052557,-95.21405,7
30,"Mansfield, TX",TX,Texas,1140027,32.56306,-97.14139,7
30,"Niagara Falls, NY",NY,New York,1131882,43.09444,-79.05694,7
30,"New Braunfels, TX",TX,Texas,1140485,29.70278,-98.12417,7
30,"Holly Springs, NC",NC,North Carolina,1138951,35.65111,-78.83389,7
30,"Wellington, FL",FL,Florida,1166229,26.65833,-80.24167,7
30,"Lacey, WA",WA,Washington,1150384,47.03444,-122.82194,7
30,"Suwanee, GA",GA,Georgia,1155695,34.05139,-84.07139,7
30,"McDonough, GA",GA,Georgia,1155655,33.44722,-84.14694,7
30,"Douglasville, GA",GA,Georgia,1155611,33.75139,-84.74778,7
30,"Folsom, CA",CA,California,1147188,38.67806,-121.175,7
30,"Pleasanton, CA",CA,California,1147390,37.6625,-121.87361,7
30,"Kenosha, WI",WI,Wisconsin,1133351,42.58472,-87.82111,7
30,"Trumbull, CT",CT,Connecticut,1148358,41.24278,-73.20111,7
29,"Morgantown, WV",WV,West Virginia,1143936,39.62944,-79.95611,7
29,"Daytona Beach, FL",FL,Florida,1154028,29.21056,-81.02306,7
29,"Traverse City, MI",MI,Michigan,1135118,44.76306,-85.62056,7
29,"North Attleboro, MA",MA,Massachusetts,1154782,41.98333,-71.33333,7
29,"Draper, UT",UT,Utah,1128274,40.52472,-111.86306,7
29,"Normal, IL",IL,Illinois,1128652,40.51417,-88.99056,7
29,"Lancaster, OH",OH,Ohio,1145871,39.71361,-82.59944,7
29,"Grove City, OH",OH,Ohio,1145858,39.88139,-83.09306,7
29,"Skokie, IL",IL,Illinois,1128973,42.03333,-87.73333,7
29,"Culver City, CA",CA,California,1146771,34.02111,-118.39556,7
29,"Bensalem, PA",PA,Pennsylvania,1152525,40.10444,-74.95167,7
29,"Herndon, VA",VA,Virginia,1130374,38.96944,-77.38639,7
29,"Mechanicsburg, PA",PA,Pennsylvania,1152196,40.21506,-77.00858,7
29,"Yonkers, NY",NY,New York,1132473,40.93111,-73.89917,7
29,"Mesquite, TX",TX,Texas,1140032,32.76667,-96.59914,7
29,"Odessa, TX",TX,Texas,1140385,31.84556,-102.36722,7
29,"Arlington Heights, IL",IL,Illinois,1157971,42.092873,-87.97989,7
29,"Wake Forest, NC",NC,North Carolina,1138964,35.97972,-78.51,7
29,"Jefferson City, MO",MO,Missouri,1130954,38.57667,-92.17333,7
29,"Blue Springs, MO",MO,Missouri,1131005,39.01694,-94.28139,7
29,"Branson, MO",MO,Missouri,1130839,36.64361,-93.21833,7
29,"Williamsville, NY",NY,New York,1158944,42.96389,-78.73806,7
29,"Salem, NH",NH,New Hampshire,1147759,42.78833,-71.20139,7
29,"Valencia, CA",CA,California,1146899,34.44361,-118.60861,7
29,"Sierra Vista, AZ",AZ,Arizona,1133980,31.55444,-110.30306,7
29,"Antioch, CA",CA,California,1147326,38.005,-121.80472,7
29,"Janesville, WI",WI,Wisconsin,1133435,42.68278,-89.01861,7
28,"Martinsburg, WV",WV,West Virginia,1143899,39.45611,-77.96417,7
28,"Smyrna, TN",TN,Tennessee,1144559,35.98278,-86.51861,7
28,"Reading, PA",PA,Pennsylvania,1153175,40.33556,-75.92722,7
28,"Auburn, AL",AL,Alabama,1127412,32.60972,-85.48083,7
28,"Florence, AL",AL,Alabama,1127615,34.79972,-87.67722,7
28,"Maplewood, MN",MN,Minnesota,1162298,44.95306,-92.995,7
28,"Coon Rapids, MN",MN,Minnesota,1162269,45.12,-93.2875,7
28,"Burlington, MA",MA,Massachusetts,1154543,42.50472,-71.19611,7
28,"Macomb, MI",MI,Michigan,1134688,42.70083,-82.95917,7
28,"Jupiter, FL",FL,Florida,1154165,26.93389,-80.09444,7
28,"Mansfield, OH",OH,Ohio,1146055,40.75833,-82.51556,7
28,"Sandusky, OH",OH,Ohio,1146158,41.44889,-82.70806,7
28,"Springfield, OR",OR,Oregon,1151481,44.04639,-123.02083,7
28,"Marina del Rey, CA",CA,California,1146825,33.98028,-118.45083,7
28,"Elkhart, IN",IN,Indiana,1144901,41.68194,-85.97667,7
28,"Kokomo, IN",IN,Indiana,1145080,40.48639,-86.13361,7
28,"Stow, OH",OH,Ohio,1145557,41.15944,-81.44056,7
28,"North Canton, OH",OH,Ohio,1145669,40.87583,-81.4025,7
28,"Edmond, OK",OK,Oklahoma,1136930,35.65278,-97.47778,7
28,"Springfield, VA",VA,Virginia,1130409,38.791557,-77.18702,7
28,"West Chester, OH",OH,Ohio,1145760,39.346878,-84.40942,7
28,"Friendswood, TX",TX,Texas,1140158,29.52917,-95.20083,7
28,"Kaneohe, HI",HI,Hawaii,1140660,21.417372,-157.81197,7
28,"Midland, TX",TX,Texas,1140362,31.99722,-102.0775,7
28,"Apex, NC",NC,North Carolina,1138942,35.7325,-78.85056,7
28,"Slidell, LA",LA,Louisiana,1150047,30.275,-89.78111,7
28,"Petaluma, CA",CA,California,1147515,38.2325,-122.63556,7
28,"Simpsonville, SC",SC,South Carolina,1155204,34.73694,-82.25444,7
28,"Peachtree City, GA",GA,Georgia,1155672,33.39667,-84.59583,7
28,"Camarillo, CA",CA,California,1146973,34.21639,-119.03667,7
28,"Casa Grande, AZ",AZ,Arizona,1133875,32.87944,-111.75667,7
28,"Murrieta, CA",CA,California,1147115,33.55389,-117.21306,7
27,"Grand Island, NE",NE,Nebraska,1136313,40.925,-98.34167,7
27,"Ellicott City, MD",MD,Maryland,1153560,39.26722,-76.79861,7
27,"Collierville, TN",TN,Tennessee,1144451,35.04194,-89.66444,7
27,"Wayne, NJ",NJ,New Jersey,1127034,40.92528,-74.27694,7
27,"Oxford, AL",AL,Alabama,1127408,33.61417,-85.835,7
27,"Hot Springs, AR",AR,Arkansas,1162464,34.50361,-93.055,7
27,"Natick, MA",MA,Massachusetts,1154630,42.28333,-71.35,7
27,"Peabody, MA",MA,Massachusetts,1154659,42.52778,-70.92917,7
27,"Twin Falls, ID",ID,Idaho,1128054,42.56306,-114.46,7
27,"Layton, UT",UT,Utah,1128218,41.06783,-111.94993,7
27,"Midvale, UT",UT,Utah,1128283,40.61111,-111.89917,7
27,"Findlay, OH",OH,Ohio,1146001,41.04417,-83.65,7
27,"Whitehall, PA",PA,Pennsylvania,1151971,40.36111,-79.99111,7
27,"Joliet, IL",IL,Illinois,1128880,41.525,-88.08167,7
27,"Saint Charles, IL",IL,Illinois,1128967,41.91417,-88.30861,7
27,"Farmington Hills, MI",MI,Michigan,1159753,42.48528,-83.37722,7
27,"Quincy, IL",IL,Illinois,1129397,39.93556,-91.40972,7
27,"Munster, IN",IN,Indiana,1144841,41.56444,-87.5125,7
27,"Plainfield, IN",IN,Indiana,1145032,39.70417,-86.39944,7
27,"Monroeville, PA",PA,Pennsylvania,1152956,40.42111,-79.78833,7
27,"Pottstown, PA",PA,Pennsylvania,1152681,40.24528,-75.65,7
27,"Reston, VA",VA,Virginia,1130404,38.96861,-77.34139,7
27,"Milford, OH",OH,Ohio,1145732,39.17528,-84.29444,7
27,"Rockwall, TX",TX,Texas,1140056,32.93111,-96.45944,7
27,"Burleson, TX",TX,Texas,1139961,32.54194,-97.32056,7
27,"Coralville, IA",IA,Iowa,1149329,41.67639,-91.58028,7
27,"Fort Dodge, IA",IA,Iowa,1149309,42.4975,-94.16778,7
27,"Wentzville, MO",MO,Missouri,1131285,38.81139,-90.85278,7
27,"Aventura, FL",FL,Florida,1166089,25.95611,-80.13944,7
27,"Metairie, LA",LA,Louisiana,1150033,29.98389,-90.15278,7
27,"Avondale, AZ",AZ,Arizona,1133871,33.43556,-112.34889,7
27,"La Mesa, CA",CA,California,1147295,32.76778,-117.02222,7
27,"Beavercreek, OH",OH,Ohio,1163394,39.70917,-84.06333,7
27,"Syracuse, NY",NY,New York,1132872,43.04806,-76.14778,7
27,"Poughkeepsie, NY",NY,New York,1132662,41.70028,-73.92139,7
27,"Manchester, CT",CT,Connecticut,1148404,41.77583,-72.52194,7
26,"Bowie, MD",MD,Maryland,1153819,39.00667,-76.77944,7
26,"Spring Hill, TN",TN,Tennessee,1144296,35.75111,-86.93,7
26,"Cambridge, MD",MD,Maryland,1153658,38.56306,-76.07917,7
26,"Hermitage, TN",TN,Tennessee,1144526,36.19611,-86.6225,7
26,"Opelika, AL",AL,Alabama,1127416,32.64528,-85.37833,7
26,"Riverview, FL",FL,Florida,1154417,27.86583,-82.32667,7
26,"Palatine, IL",IL,Illinois,1128942,42.11028,-88.03417,7
26,"Oak Lawn, IL",IL,Illinois,1128937,41.71083,-87.75806,7
26,"Lombard, IL",IL,Illinois,1128902,41.88,-88.00778,7
26,"McHenry, IL",IL,Illinois,1128913,42.33333,-88.26667,7
26,"Anaheim, CA",CA,California,1146743,33.83528,-117.91361,7
26,"Palmdale, CA",CA,California,1146846,34.57944,-118.11556,7
26,"Greensburg, PA",PA,Pennsylvania,1152878,40.30139,-79.53917,7
26,"Merrillville, IN",IN,Indiana,1144838,41.48278,-87.33278,7
26,"Levittown, PA",PA,Pennsylvania,1152631,40.155,-74.82917,7
26,"Stafford, VA",VA,Virginia,1130410,38.42194,-77.40861,7
26,"Gainesville, VA",VA,Virginia,1130366,38.79556,-77.61417,7
26,"Cedar Falls, IA",IA,Iowa,1149509,42.52778,-92.44528,7
26,"Temple, TX",TX,Texas,1140277,31.09806,-97.3425,7
26,"Mount Vernon, WA",WA,Washington,1150372,48.42139,-122.33278,7
26,"Tustin, CA",CA,California,1146897,33.74583,-117.82528,7
26,"Lakeville, MN",MN,Minnesota,1142542,44.64972,-93.2425,7
26,"Redding, CA",CA,California,1147039,40.58667,-122.39056,7
26,"Corona, CA",CA,California,1147072,33.87528,-117.56556,7
26,"Evans, GA",GA,Georgia,1155722,33.53361,-82.13083,7
26,"Rocklin, CA",CA,California,1147225,38.79083,-121.23472,7
26,"Marshfield, WI",WI,Wisconsin,1133526,44.66889,-90.17167,7
25,"Destin, FL",FL,Florida,1154046,30.39333,-86.49583,7
25,"Waldorf, MD",MD,Maryland,1153917,38.62444,-76.93944,7
25,"Scranton, PA",PA,Pennsylvania,1153278,41.40889,-75.66278,7
25,"South Portland, ME",ME,Maine,1135912,43.64139,-70.24139,7
25,"Worcester, MA",MA,Massachusetts,1154962,42.2625,-71.80278,7
25,"The Villages, FL",FL,Florida,1154443,28.93333,-81.94861,7
25,"Winter Park, FL",FL,Florida,1154259,28.59972,-81.33944,7
25,"Carbondale, IL",IL,Illinois,1128694,37.72722,-89.21667,7
25,"Heath, OH",OH,Ohio,1145861,40.02278,-82.44472,7
25,"Oak Brook, IL",IL,Illinois,1128935,41.83278,-87.92889,7
25,"Gurnee, IL",IL,Illinois,1128857,42.37028,-87.90194,7
25,"Glenview, IL",IL,Illinois,1128852,42.072487,-87.78677,7
25,"Youngstown, OH",OH,Ohio,1146406,41.09972,-80.64972,7
25,"Moline, IL",IL,Illinois,1129070,41.50667,-90.515,7
25,"Hanford, CA",CA,California,1146734,36.3275,-119.64472,7
25,"Lenexa, KS",KS,Kansas,1151040,38.95361,-94.73333,7
25,"Saint George, UT",UT,Utah,3724218,37.10417,-113.58333,7
25,"North Wales, PA",PA,Pennsylvania,1152657,40.21083,-75.27861,7
25,"Frankfort, KY",KY,Kentucky,1137650,38.20083,-84.87333,7
25,"North Olmsted, OH",OH,Ohio,1145804,41.41556,-81.92361,7
25,"Houma, LA",LA,Louisiana,1149904,29.59556,-90.71944,7
25,"Cedar Hill, TX",TX,Texas,1139965,32.58833,-96.95583,7
25,"Waipahu, HI",HI,Hawaii,1140674,21.38667,-158.00917,7
25,"Kahului, HI",HI,Hawaii,1140680,20.89472,-156.47,7
25,"Kirkland, WA",WA,Washington,1150472,47.68167,-122.2075,7
25,"Arnold, MO",MO,Missouri,1131193,38.43278,-90.3775,7
25,"Chapel Hill, NC",NC,North Carolina,1138696,35.91306,-79.05611,7
25,"Joplin, MO",MO,Missouri,1130983,37.08417,-94.51306,7
25,"Cheektowaga, NY",NY,New York,1158925,42.90333,-78.755,7
25,"San Luis Obispo, CA",CA,California,1147458,35.28278,-120.65861,7
25,"Valdosta, GA",GA,Georgia,1155947,30.8325,-83.27861,7
25,"Monterey, CA",CA,California,1147261,36.60028,-121.89361,7
25,"Encinitas, CA",CA,California,1147286,33.03694,-117.29111,7
25,"Beaver Dam, WI",WI,Wisconsin,1133326,43.45778,-88.83722,7
25,"Glenwood Springs, CO",CO,Colorado,1164219,39.55316,-107.32458,7
25,"Centennial, CO",CO,Colorado,1164284,39.57917,-104.87639,7
25,"Kettering, OH",OH,Ohio,1163398,39.68944,-84.16889,7
24,"Kearney, NE",NE,Nebraska,1136341,40.69944,-99.08111,7
24,"Lutz, FL",FL,Florida,1154406,28.15083,-82.46167,7
24,"Fort Gratiot, MI",MI,Michigan,1134655,43.075603,-82.48004,7
24,"Ogden, UT",UT,Utah,1128221,41.22306,-111.97306,7
24,"Easton, PA",PA,Pennsylvania,1151932,40.68833,-75.22111,7
24,"Oro Valley, AZ",AZ,Arizona,1159577,32.39083,-110.96583,7
24,"Oswego, IL",IL,Illinois,1128941,41.68278,-88.35139,7
24,"North Aurora, IL",IL,Illinois,1128932,41.80611,-88.32722,7
24,"Grants Pass, OR",OR,Oregon,1151491,42.43917,-123.32722,7
24,"New Lenox, IL",IL,Illinois,1128929,41.51194,-87.96556,7
24,"Hoffman Estates, IL",IL,Illinois,1128872,42.086994,-88.11034,7
24,"Evanston, IL",IL,Illinois,1128835,42.04111,-87.69,7
24,"Gresham, OR",OR,Oregon,1151601,45.49833,-122.43028,7
24,"Crystal Lake, IL",IL,Illinois,1128819,42.24111,-88.31611,7
24,"Providence, RI",RI,Rhode Island,1151289,41.82389,-71.41333,7
24,"Cranston, RI",RI,Rhode Island,1151253,41.77972,-71.43778,7
24,"Nicholasville, KY",KY,Kentucky,1137680,37.88056,-84.57306,7
24,"Pekin, IL",IL,Illinois,1129348,40.5675,-89.64056,7
24,"Orange, CA",CA,California,1146843,33.78778,-117.85222,7
24,"Northridge, CA",CA,California,1146841,34.22833,-118.53583,7
24,"Rancho Santa Margarita, CA",CA,California,1146858,33.64083,-117.60222,7
24,"Warrington, PA",PA,Pennsylvania,1152730,40.24917,-75.13444,7
24,"Willow Grove, PA",PA,Pennsylvania,1152737,40.14389,-75.11611,7
24,"Shawnee, OK",OK,Oklahoma,1136982,35.32722,-96.925,7
24,"Massillon, OH",OH,Ohio,1145663,40.79667,-81.52167,7
24,"Waterloo, IA",IA,Iowa,1149531,42.49278,-92.34278,7
24,"Lake Charles, LA",LA,Louisiana,1149940,30.22639,-93.21722,7
24,"Addison, TX",TX,Texas,1139944,32.96167,-96.82889,7
24,"Pflugerville, TX",TX,Texas,1139790,30.43917,-97.61972,7
24,"Sanford, NC",NC,North Carolina,1139030,35.47972,-79.18056,7
24,"Hickory, NC",NC,North Carolina,1138808,35.73319,-81.341194,7
24,"Goldsboro, NC",NC,North Carolina,1138743,35.38472,-77.99306,7
24,"Cranberry Township, PA",PA,Pennsylvania,1165426,0,0,7
24,"Covington, LA",LA,Louisiana,1150013,30.47528,-90.10083,7
24,"Bothell, WA",WA,Washington,1150445,47.7625,-122.20417,7
24,"Gig Harbor, WA",WA,Washington,1150462,47.32944,-122.57889,7
24,"North Charleston, SC",SC,South Carolina,1155093,32.85444,-79.975,7
24,"Bluffton, SC",SC,South Carolina,1155219,32.23694,-80.86056,7
24,"Wasilla, AK",AK,Alaska,1134215,61.58139,-149.43944,7
24,"Woodland Hills, CA",CA,California,1146915,34.16833,-118.605,7
24,"Covington, GA",GA,Georgia,1155605,33.59667,-83.86028,7
24,"Highlands Ranch, CO",CO,Colorado,1164304,39.55389,-104.96889,7
24,"West Sacramento, CA",CA,California,1147241,38.58056,-121.52917,7
24,"Kansas City, KS",KS,Kansas,4990210,39.11417,-94.62722,7
24,"Brentwood, CA",CA,California,1147333,37.9333,-121.6959,7
24,"Berkeley, CA",CA,California,1147330,37.87167,-122.27167,7
24,"Oakland, CA",CA,California,1147380,37.80444,-122.26972,7
24,"Aberdeen, SD",SD,South Dakota,1140944,45.46472,-98.48611,7
24,"Boardman, OH",OH,Ohio,1163500,41.02417,-80.66306,7
24,"Parma, OH",OH,Ohio,1163332,41.40472,-81.72306,7
24,"Enfield, CT",CT,Connecticut,1148393,41.97611,-72.59222,7
23,"Newark, NJ",NJ,New Jersey,1126906,40.73556,-74.17278,7
23,"Middletown, NJ",NJ,New Jersey,1126872,40.397354,-74.0915,7
23,"Papillion, NE",NE,Nebraska,1136441,41.15444,-96.04194,7
23,"Maryville, TN",TN,Tennessee,1144400,35.75639,-83.97056,7
23,"Holyoke, MA",MA,Massachusetts,1154831,42.20417,-72.61667,7
23,"North Little Rock, AR",AR,Arkansas,1143197,34.76944,-92.26694,7
23,"Eagan, MN",MN,Minnesota,1162274,44.80417,-93.16667,7
23,"Helena, MT",MT,Montana,1135460,46.59278,-112.03528,7
23,"Port Richey, FL",FL,Florida,1154416,28.27139,-82.71972,7
23,"Midland, MI",MI,Michigan,1134976,43.61556,-84.24722,7
23,"Jackson, MI",MI,Michigan,1134877,42.24583,-84.40139,7
23,"Yulee, FL",FL,Florida,1154108,30.63167,-81.60667,7
23,"Hilliard, OH",OH,Ohio,1145863,40.03333,-83.15833,7
23,"Klamath Falls, OR",OR,Oregon,1151516,42.225,-121.78056,7
23,"Mount Prospect, IL",IL,Illinois,1128926,42.06639,-87.93722,7
23,"DeKalb, IL",IL,Illinois,1128822,41.92944,-88.75028,7
23,"Georgetown, KY",KY,Kentucky,1137675,38.215256,-84.559364,7
23,"Beverly Hills, CA",CA,California,1146753,34.07361,-118.39944,7
23,"Columbus, IN",IN,Indiana,1144872,39.20139,-85.92139,7
23,"Schererville, IN",IN,Indiana,1144847,41.47889,-87.45472,7
23,"Warsaw, IN",IN,Indiana,1145346,41.23806,-85.85306,7
23,"Dulles, VA",VA,Virginia,1130356,39.073128,-77.4685,7
23,"Coppell, TX",TX,Texas,1139974,32.95444,-97.01472,7
23,"Commack, NY",NY,New York,1132215,40.84278,-73.29333,7
23,"Georgetown, TX",TX,Texas,1139774,30.6325,-97.67694,7
23,"Port Arthur, TX",TX,Texas,1139829,29.89861,-93.92861,7
23,"Kent, WA",WA,Washington,1150471,47.38111,-122.23361,7
23,"Florissant, MO",MO,Missouri,1131224,38.78917,-90.3225,7
23,"Fenton, MO",MO,Missouri,1131220,38.51306,-90.43583,7
23,"Bossier City, LA",LA,Louisiana,1150087,32.51583,-93.73194,7
23,"Cape Girardeau, MO",MO,Missouri,1130863,37.30583,-89.51806,7
23,"Wyomissing, PA",PA,Pennsylvania,1165577,40.32944,-75.96556,7
23,"Silverdale, WA",WA,Washington,1150283,47.64472,-122.69361,7
23,"San Leandro, CA",CA,California,1147404,37.725,-122.155,7
23,"Redwood City, CA",CA,California,1147394,37.48528,-122.23528,7
23,"Greer, SC",SC,South Carolina,1155194,34.93861,-82.22722,7
23,"North Myrtle Beach, Horry, SC",SC,South Carolina,1155249,33.81583,-78.68028,7
23,"Snellville, GA",GA,Georgia,1155689,33.85722,-84.02,7
23,"Gainesville, GA",GA,Georgia,1155838,34.29778,-83.82417,7
23,"Warner Robins, GA",GA,Georgia,1155961,32.62083,-83.6,7
23,"Sheboygan, WI",WI,Wisconsin,1133685,43.75083,-87.71444,7
23,"Statesboro, GA",GA,Georgia,1155912,32.44861,-81.78333,7
23,"Oak Creek, WI",WI,Wisconsin,1133587,42.88583,-87.86306,7
23,"Bear, DE",DE,Delaware,1156361,39.62917,-75.65861,7
23,"Manchester, NH",NH,New Hampshire,1147907,42.99556,-71.45528,7
23,"Parker, CO",CO,Colorado,1148198,39.51861,-104.76083,7
23,"Tupelo, MS",MS,Mississippi,1141500,34.2575,-88.70333,7
22,"Walker, MI",MI,Michigan,3744422,43.00139,-85.76806,7
22,"Toms River, NJ",NJ,New Jersey,1127016,39.95361,-74.19833,7
22,"Hermitage, PA",PA,Pennsylvania,1153479,41.23333,-80.44889,7
22,"Jackson, TN",TN,Tennessee,1144353,35.61444,-88.81389,7
22,"Cullman, AL",AL,Alabama,1127530,34.17472,-86.84361,7
22,"Apple Valley, MN",MN,Minnesota,1162254,44.73194,-93.2175,7
22,"Hudson, MA",MA,Massachusetts,1154590,42.39167,-71.56667,7
22,"Framingham, MA",MA,Massachusetts,1154571,42.27917,-71.41667,7
22,"Wyoming, MI",MI,Michigan,1134822,42.91333,-85.70528,7
22,"Detroit, MI",MI,Michigan,1134644,42.33139,-83.04583,7
22,"Merritt Island, FL",FL,Florida,1154288,28.53889,-80.67222,7
22,"Homestead, FL",FL,Florida,1154164,25.46833,-80.47778,7
22,"Westerville, OH",OH,Ohio,1145913,40.12611,-82.92917,7
22,"Tualatin, OR",OR,Oregon,1151624,45.38417,-122.76278,7
22,"Hendersonville, NC",NC,North Carolina,1138596,35.31861,-82.46111,7
22,"Zanesville, OH",OH,Ohio,1146423,39.94028,-82.01333,7
22,"Owensboro, KY",KY,Kentucky,1137821,37.77417,-87.11333,7
22,"Belleville, IL",IL,Illinois,1129439,38.52,-89.98389,7
22,"Glen Mills, PA",PA,Pennsylvania,1152593,39.91917,-75.49194,7
22,"New Albany, IN",IN,Indiana,1145150,38.28556,-85.82417,7
22,"Grapevine, TX",TX,Texas,1139999,32.93417,-97.07778,7
22,"Huntington, NY",NY,New York,1132283,40.86806,-73.42611,7
22,"Harlingen, TX",TX,Texas,1139876,26.19028,-97.69583,7
22,"Bastrop, TX",TX,Texas,1139762,30.11028,-97.315,7
22,"Depew, NY",NY,New York,1131859,42.90389,-78.6925,7
22,"Coeur d&#039;Alene, ID",ID,Idaho,3722279,47.67778,-116.77944,7
22,"Ankeny, IA",IA,Iowa,1149231,41.72972,-93.60556,7
22,"Raymore, MO",MO,Missouri,1131063,38.80194,-94.4525,7
22,"Longview, WA",WA,Washington,1150341,46.13833,-122.93694,7
22,"Richland, WA",WA,Washington,1150330,46.28583,-119.28333,7
22,"Paso Robles, CA",CA,California,1147456,35.62667,-120.69,7
22,"Beaufort, SC",SC,South Carolina,1155218,32.43139,-80.67,7
22,"Fairbanks, AK",AK,Alaska,1134219,64.83778,-147.71638,7
22,"Stockbridge, GA",GA,Georgia,1155692,33.54417,-84.23389,7
22,"Hastings, MN",MN,Minnesota,1142533,44.74333,-92.85222,7
22,"Willmar, MN",MN,Minnesota,1142689,45.12194,-95.04306,7
22,"Indio, CA",CA,California,1147095,33.72056,-116.21472,7
22,"Redlands, CA",CA,California,1147135,34.05556,-117.18167,7
22,"Danville, CA",CA,California,1147344,37.82167,-121.99889,7
22,"Corte Madera, CA",CA,California,1147341,37.92556,-122.52639,7
22,"Novato, CA",CA,California,1147379,38.1075,-122.56861,7
22,"Waterford, CT",CT,Connecticut,1148515,41.34181,-72.142944,7
22,"Manhattan Beach, CA",CA,California,1163714,33.88472,-118.41,7
22,"Greenwich, CT",CT,Connecticut,1148338,41.02639,-73.62889,7
21,"Orange City, FL",FL,Florida,1154038,28.94861,-81.29889,7
21,"Phillipsburg, NJ",NJ,New Jersey,1126636,40.69361,-75.19056,7
21,"East Brunswick, NJ",NJ,New Jersey,1126742,40.42778,-74.41639,7
21,"Cookeville, TN",TN,Tennessee,1144304,36.16278,-85.50167,7
21,"Hixson, TN",TN,Tennessee,1144256,35.14056,-85.23278,7
21,"Watchung, NJ",NJ,New Jersey,1127033,40.63778,-74.45139,7
21,"State College, PA",PA,Pennsylvania,1153370,40.79333,-77.86028,7
21,"Woodbury, NJ",NJ,New Jersey,1127172,39.83806,-75.15306,7
21,"Tarentum, PA",PA,Pennsylvania,1153039,40.60139,-79.76,7
21,"Daphne, AL",AL,Alabama,1127539,30.60333,-87.90361,7
21,"Leominster, MA",MA,Massachusetts,1154913,42.525,-71.76028,7
21,"Gadsden, AL",AL,Alabama,1127640,34.01417,-86.00667,7
21,"Howell, MI",MI,Michigan,1134675,42.60722,-83.92944,7
21,"Reynoldsburg, OH",OH,Ohio,1145895,39.95472,-82.81222,7
21,"Plainfield, IL",IL,Illinois,1128949,41.62694,-88.20389,7
21,"Huntley, IL",IL,Illinois,1128876,42.16806,-88.42806,7
21,"Batavia, IL",IL,Illinois,1128783,41.85,-88.3125,7
21,"Urbana, IL",IL,Illinois,1128760,40.11056,-88.20722,7
21,"Ashland, KY",KY,Kentucky,1137666,38.47833,-82.63806,7
21,"Albany, OR",OR,Oregon,1151402,44.63667,-123.10472,7
21,"Hutchinson, KS",KS,Kansas,1151012,38.06083,-97.92944,7
21,"Valparaiso, IN",IN,Indiana,1144853,41.47306,-87.06111,7
21,"Monaca, PA",PA,Pennsylvania,1152953,40.68722,-80.27167,7
21,"Broken Arrow, OK",OK,Oklahoma,1137003,36.0525,-95.79056,7
21,"Stillwater, OK",OK,Oklahoma,1136989,36.11556,-97.05806,7
21,"Wadsworth, OH",OH,Ohio,1145822,41.02556,-81.73,7
21,"Richmond, TX",TX,Texas,1140209,29.58194,-95.76056,7
21,"Weatherford, TX",TX,Texas,1140072,32.75917,-97.79694,7
21,"Waxahachie, TX",TX,Texas,1140071,32.38639,-96.84806,7
21,"Texarkana, TX",TX,Texas,1140553,33.425,-94.0475,7
21,"Killeen, TX",TX,Texas,1140266,31.11694,-97.7275,7
21,"Sandy Springs, Fulton, GA",GA,Georgia,1166829,33.92417,-84.37861,7
21,"Tomball, TX",TX,Texas,1140229,30.09694,-95.61583,7
21,"Sammamish, WA",WA,Washington,1150503,47.64194,-122.07917,7
21,"New Bern, NC",NC,North Carolina,1138922,35.10833,-77.04444,7
21,"Monroe, LA",LA,Louisiana,1149963,32.515842,-92.119675,7
21,"Burlington, WA",WA,Washington,1150364,48.47583,-122.32417,7
21,"Poulsbo, WA",WA,Washington,1150279,47.73611,-122.64528,7
21,"San Ramon, CA",CA,California,1147410,37.78,-121.97694,7
21,"Capitola, CA",CA,California,1147482,36.97528,-121.95222,7
21,"Tracy, CA",CA,California,1147541,37.73972,-121.42417,7
21,"Burlington, VT",VT,Vermont,1141772,44.47583,-73.2125,7
21,"West Covina, CA",CA,California,1146907,34.06861,-117.93806,7
21,"Duluth, GA",GA,Georgia,1155612,34.00278,-84.14472,7
21,"Fort Oglethorpe, GA",GA,Georgia,1155765,34.94889,-85.25694,7
21,"Auburn, CA",CA,California,1147164,38.89667,-121.07583,7
21,"Victorville, CA",CA,California,1147152,34.53611,-117.29028,7
21,"Waukesha, WI",WI,Wisconsin,1133599,43.01167,-88.23139,7
21,"New Berlin, WI",WI,Wisconsin,1133583,42.97639,-88.10833,7
21,"Greendale, WI",WI,Wisconsin,1133568,42.94056,-87.99583,7
21,"Onalaska, WI",WI,Wisconsin,1133442,43.88444,-91.235,7
21,"Milford, DE",DE,Delaware,1156392,38.9125,-75.42833,7
21,"Arvada, CO",CO,Colorado,1148155,39.80278,-105.08694,7
21,"Hattiesburg, MS",MS,Mississippi,1141337,31.32694,-89.29028,7
21,"Commerce City, CO",CO,Colorado,1148166,39.80833,-104.93333,7
21,"Fairfield, CT",CT,Connecticut,1148335,41.14111,-73.26417,7
20,"Deltona, FL",FL,Florida,1154032,28.90028,-81.26389,7
20,"Watauga, TX",TX,Texas,1161598,32.85778,-97.25444,7
20,"Flemington, NJ",NJ,New Jersey,1126765,40.51222,-74.85972,7
20,"Holmdel, NJ",NJ,New Jersey,1126810,40.345,-74.18444,7
20,"Westminster, MD",MD,Maryland,1153651,39.57528,-76.99611,7
20,"Gallatin, TN",TN,Tennessee,1144519,36.38833,-86.44667,7
20,"Moorestown, NJ",NJ,New Jersey,1127128,39.96694,-74.94306,7
20,"Woodbridge, NJ",NJ,New Jersey,1127049,40.5575,-74.285,7
20,"Aiken, SC",SC,South Carolina,1155044,33.56028,-81.71972,7
20,"Eagle, ID",ID,Idaho,1127930,43.698532,-116.35414,7
20,"Richfield, MN",MN,Minnesota,1162332,44.88333,-93.28278,7
20,"Fenton, MI",MI,Michigan,1134765,42.79778,-83.705,7
20,"Brighton, MI",MI,Michigan,1134628,42.52944,-83.78028,7
20,"Palm Harbor, FL",FL,Florida,1154413,28.07778,-82.76389,7
20,"Brooksville, FL",FL,Florida,1154387,28.555,-82.38806,7
20,"Venice, FL",FL,Florida,1154353,27.09944,-82.45444,7
20,"Titusville, FL",FL,Florida,1154298,28.61194,-80.80778,7
20,"Paradise Valley, AZ",AZ,Arizona,1159543,33.53111,-111.94194,7
20,"Marion, OH",OH,Ohio,1146062,40.58861,-83.12861,7
20,"Holland, OH",OH,Ohio,1146214,41.62167,-83.71167,7
20,"Willowbrook, IL",IL,Illinois,1129006,41.76972,-87.93583,7
20,"Alton, IL",IL,Illinois,1129434,38.89056,-90.18417,7
20,"Eureka, CA",CA,California,1146665,40.80222,-124.1625,7
20,"Chesterfield, MI",MI,Michigan,1159739,42.66278,-82.8425,7
20,"Buena Park, CA",CA,California,1146755,33.8675,-117.99722,7
20,"Downey, CA",CA,California,1146775,33.94,-118.13167,7
20,"Laguna Niguel, CA",CA,California,1146809,33.5225,-117.70667,7
20,"Lake Forest, CA",CA,California,1146811,33.64694,-117.68833,7
20,"Marion, IL",IL,Illinois,1129233,37.73056,-88.93306,7
20,"Newport, KY",KY,Kentucky,1137582,39.09139,-84.49583,7
20,"Elizabethtown, KY",KY,Kentucky,1137622,37.69389,-85.85917,7
20,"Mechanicsville, VA",VA,Virginia,1130182,37.60861,-77.37361,7
20,"Fairlawn, OH",OH,Ohio,1145539,41.12778,-81.61,7
20,"Westlake, OH",OH,Ohio,1145825,41.45528,-81.91806,7
20,"Canal Winchester, OH",OH,Ohio,1145840,39.84278,-82.80472,7
20,"Carlisle, PA",PA,Pennsylvania,1152175,40.20139,-77.18917,7
20,"Centreville, VA",VA,Virginia,1130352,38.84028,-77.42917,7
20,"Rehoboth Beach, DE",DE,Delaware,1167074,38.72083,-75.07639,7
20,"North Richland Hills, TX",TX,Texas,1140039,32.83417,-97.22861,7
20,"Lake Grove, NY",NY,New York,1132299,40.85278,-73.11556,7
20,"Bryan, TX",TX,Texas,1139896,30.67417,-96.36972,7
20,"Ewa Beach, HI",HI,Hawaii,1140651,21.33266,-158.02188,7
20,"Saratoga Springs, NY",NY,New York,1131727,43.08306,-73.785,7
20,"Washington, MO",MO,Missouri,1131284,38.55806,-91.01194,7
20,"San Bruno, CA",CA,California,1147399,37.63056,-122.41,7
20,"Hilton Head Island, SC",SC,South Carolina,1155224,32.21611,-80.75278,7
20,"Vallejo, CA",CA,California,1147610,38.10417,-122.25556,7
20,"Cave Creek, AZ",AZ,Arizona,1133877,33.83333,-111.95,7
20,"Rome, GA",GA,Georgia,1155887,34.25694,-85.16472,7
20,"West Bend, WI",WI,Wisconsin,1133600,43.42528,-88.18333,7
20,"El Cerrito, CA",CA,California,1147349,37.91583,-122.31056,7
20,"Menlo Park, CA",CA,California,1147371,37.45389,-122.18111,7
20,"Windsor, CT",CT,Connecticut,1148450,41.8525,-72.64417,7
20,"Delafield, WI",WI,Wisconsin,1133559,43.06083,-88.40361,7
19,"Germantown, MD",MD,Maryland,1153854,39.17306,-77.27194,7
19,"Howell, NJ",NJ,New Jersey,1126812,40.147324,-74.20653,7
19,"Goodlettsville, TN",TN,Tennessee,1144521,36.32306,-86.71333,7
19,"Piscataway, NJ",NJ,New Jersey,1126940,40.49917,-74.39944,7
19,"Sewell, NJ",NJ,New Jersey,1127156,39.76639,-75.14472,7
19,"Sevierville, TN",TN,Tennessee,1144586,35.86806,-83.56194,7
19,"Mansfield, MA",MA,Massachusetts,1154780,42.03333,-71.21944,7
19,"Prattville, AL",AL,Alabama,1127708,32.46389,-86.45972,7
19,"Woburn, MA",MA,Massachusetts,1154729,42.47917,-71.15278,7
19,"Dedham, MA",MA,Massachusetts,1154556,42.24167,-71.16667,7
19,"Chestnut Hill, MA",MA,Massachusetts,1154552,42.33056,-71.16667,7
19,"Pocatello, ID",ID,Idaho,1128031,42.87139,-112.44472,7
19,"North Port, FL",FL,Florida,1154345,27.04389,-82.23611,7
19,"Palm Coast, FL",FL,Florida,1154301,29.58472,-81.20806,7
19,"Mount Pleasant, MI",MI,Michigan,1134996,43.59778,-84.7675,7
