{
  "success": true,
  "status": "OK",
  "jsessionid": "CEFB397952C89691D39AFD69595B38D2",
  "response": {
    "attributionURL": "http://www.glassdoor.com/Job/jobs.htm",
    "countReturned": 56,
    "states": {
      "South Carolina": {
        "numJobs": 2061,
        "name": "South Carolina",
        "id": 3411,
        "score": 0.7646287871166174,
        "latitude": 33.985115,
        "longitude": -80.96936
      },
      "Rhode Island": {
        "numJobs": 538,
        "name": "Rhode Island",
        "id": 3156,
        "score": 0.6488270379868144,
        "latitude": 41.675617,
        "longitude": -71.503815
      },
      "Federated s of Micronesia": {
        "numJobs": 4,
        "name": "Federated s of Micronesia",
        "id": 1229,
        "score": 0.4184833355065034,
        "latitude": "",
        "longitude": ""
      },
      "New Mexico": {
        "numJobs": 519,
        "name": "New Mexico",
        "id": 1181,
        "score": 0.6135633948383666,
        "latitude": 34.695763,
        "longitude": -106.22367
      },
      "Florida": {
        "numJobs": 6589,
        "name": "Florida",
        "id": 3318,
        "score": 0.8698972251099463,
        "latitude": 28.63532,
        "longitude": -82.39836
      },
      "Alabama": {
        "numJobs": 2043,
        "name": "Alabama",
        "id": 105,
        "score": 0.7639152509374838,
        "latitude": 33.074646,
        "longitude": -86.72501
      },
      "California": {
        "numJobs": 21407,
        "name": "California",
        "id": 2280,
        "score": 1,
        "latitude": 37.016674,
        "longitude": -120.15913
      },
      "New Hampshire": {
        "numJobs": 732,
        "name": "New Hampshire",
        "id": 2403,
        "score": 0.6692864089669794,
        "latitude": 43.409595,
        "longitude": -71.541885
      },
      "Puerto Rico": {
        "numJobs": 243,
        "name": "Puerto Rico",
        "id": 1618,
        "score": 0.713996073863959,
        "latitude": 18.250437,
        "longitude": -66.402916
      },
      "Remote": {
        "numJobs": 72,
        "name": "Remote",
        "id": 11047,
        "score": 0.5550235812853318,
        "latitude": "",
        "longitude": ""
      },
      "Massachusetts": {
        "numJobs": 4915,
        "name": "Massachusetts",
        "id": 3399,
        "score": 0.8544425991918344,
        "latitude": 42.204845,
        "longitude": -71.496826
      },
      "Tennessee": {
        "numJobs": 2443,
        "name": "Tennessee",
        "id": 1968,
        "score": 0.7677521185453853,
        "latitude": 35.869774,
        "longitude": -85.69873
      },
      "Maryland": {
        "numJobs": 4304,
        "name": "Maryland",
        "id": 3201,
        "score": 0.8476420239133761,
        "latitude": 39.13058,
        "longitude": -76.71935
      },
      "Louisiana": {
        "numJobs": 1257,
        "name": "Louisiana",
        "id": 2792,
        "score": 0.7086230750065861,
        "latitude": 31.05971,
        "longitude": -91.839554
      },
      "Ohio": {
        "numJobs": 5066,
        "name": "Ohio",
        "id": 2235,
        "score": 0.8373458790891466,
        "latitude": 40.20804,
        "longitude": -82.68456
      },
      "West Virginia": {
        "numJobs": 423,
        "name": "West Virginia",
        "id": 1939,
        "score": 0.5880156778468648,
        "latitude": 38.646973,
        "longitude": -80.79809
      },
      "Idaho": {
        "numJobs": 410,
        "name": "Idaho",
        "id": 132,
        "score": 0.5970132739137863,
        "latitude": 44.72104,
        "longitude": -114.83413
      },
      "Virginia": {
        "numJobs": 6519,
        "name": "Virginia",
        "id": 323,
        "score": 0.886838364416898,
        "latitude": 37.71112,
        "longitude": -78.51438
      },
      "Mississippi": {
        "numJobs": 760,
        "name": "Mississippi",
        "id": 1553,
        "score": 0.6551497583647885,
        "latitude": 32.81446,
        "longitude": -89.712814
      },
      "Texas": {
        "numJobs": 10086,
        "name": "Texas",
        "id": 1347,
        "score": 0.906387864790629,
        "latitude": 30.541521,
        "longitude": -97.844345
      },
      "Vermont": {
        "numJobs": 224,
        "name": "Vermont",
        "id": 1765,
        "score": 0.5485719580009152,
        "latitude": 44.01336,
        "longitude": -72.68488
      },
      "Wyoming": {
        "numJobs": 194,
        "name": "Wyoming",
        "id": 1258,
        "score": 0.525656972743525,
        "latitude": 42.800774,
        "longitude": -107.330284
      },
      "New York": {
        "numJobs": 6640,
        "name": "New York",
        "id": 428,
        "score": 0.8698298385981907,
        "latitude": 42.56897,
        "longitude": -75.477
      },
      "Kansas": {
        "numJobs": 1231,
        "name": "Kansas",
        "id": 3107,
        "score": 0.7057215305360544,
        "latitude": 38.453106,
        "longitude": -97.173775
      },
      "Guam": {
        "numJobs": 12,
        "name": "Guam",
        "id": 566,
        "score": 0.40967178856284764,
        "latitude": 13.442065,
        "longitude": 144.7609
      },
      "New Jersey": {
        "numJobs": 3583,
        "name": "New Jersey",
        "id": 39,
        "score": 0.8081451570138594,
        "latitude": 40.219467,
        "longitude": -74.63167
      },
      "Michigan": {
        "numJobs": 6905,
        "name": "Michigan",
        "id": 527,
        "score": 0.911445680458138,
        "latitude": 43.92309,
        "longitude": -85.22649
      },
      "Colorado": {
        "numJobs": 3158,
        "name": "Colorado",
        "id": 2519,
        "score": 0.803153041743598,
        "latitude": 39.152225,
        "longitude": -105.41113
      },
      "Pennsylvania": {
        "numJobs": 5109,
        "name": "Pennsylvania",
        "id": 3185,
        "score": 0.8346437750987604,
        "latitude": 40.60347,
        "longitude": -77.41482
      },
      "Maine": {
        "numJobs": 375,
        "name": "Maine",
        "id": 758,
        "score": 0.5904822428120589,
        "latitude": 44.6072,
        "longitude": -69.434845
      },
      "Arkansas": {
        "numJobs": 779,
        "name": "Arkansas",
        "id": 1892,
        "score": 0.6492620235879033,
        "latitude": 34.997967,
        "longitude": -92.32213
      },
      "Missouri": {
        "numJobs": 2120,
        "name": "Missouri",
        "id": 386,
        "score": 0.74440219914991,
        "latitude": 38.196053,
        "longitude": -92.25109
      },
      "Iowa": {
        "numJobs": 1423,
        "name": "Iowa",
        "id": 2733,
        "score": 0.7144344924563147,
        "latitude": 42.001587,
        "longitude": -93.15462
      },
      "Oregon": {
        "numJobs": 2047,
        "name": "Oregon",
        "id": 3163,
        "score": 0.7715499087549406,
        "latitude": 44.54903,
        "longitude": -122.14273
      },
      "North Dakota": {
        "numJobs": 452,
        "name": "North Dakota",
        "id": 3517,
        "score": 0.6256914401664729,
        "latitude": 47.52474,
        "longitude": -99.81501
      },
      "Indiana": {
        "numJobs": 2561,
        "name": "Indiana",
        "id": 2124,
        "score": 0.7660864974730298,
        "latitude": 39.853703,
        "longitude": -86.26825
      },
      "Wisconsin": {
        "numJobs": 2785,
        "name": "Wisconsin",
        "id": 481,
        "score": 0.7936634469189957,
        "latitude": 44.22958,
        "longitude": -89.65535
      },
      "Virgin Islands": {
        "numJobs": 4,
        "name": "Virgin Islands",
        "id": 2564,
        "score": 0.26694240584541984,
        "latitude": 17.97962,
        "longitude": -64.825584
      },
      "Nevada": {
        "numJobs": 1075,
        "name": "Nevada",
        "id": 2756,
        "score": 0.7012462897544642,
        "latitude": 39.09225,
        "longitude": -116.94037
      },
      "Minnesota": {
        "numJobs": 2772,
        "name": "Minnesota",
        "id": 1775,
        "score": 0.793017412364803,
        "latitude": 45.81953,
        "longitude": -93.99869
      },
      "Washington": {
        "numJobs": 3901,
        "name": "Washington",
        "id": 3020,
        "score": 0.8306475773735582,
        "latitude": 47.318367,
        "longitude": -121.16399
      },
      "Delaware": {
        "numJobs": 351,
        "name": "Delaware",
        "id": 3523,
        "score": 0.5892891845712092,
        "latitude": 39.267464,
        "longitude": -75.50684
      },
      "Illinois": {
        "numJobs": 6125,
        "name": "Illinois",
        "id": 302,
        "score": 0.8548722342626349,
        "latitude": 40.22442,
        "longitude": -89.00813
      },
      "Hawaii": {
        "numJobs": 366,
        "name": "Hawaii",
        "id": 1385,
        "score": 0.6132778208011254,
        "latitude": 20.773073,
        "longitude": -156.91919
      },
      "Connecticut": {
        "numJobs": 2019,
        "name": "Connecticut",
        "id": 2697,
        "score": 0.7712683624468117,
        "latitude": 41.5664,
        "longitude": -72.77289
      },
      "Montana": {
        "numJobs": 230,
        "name": "Montana",
        "id": 669,
        "score": 0.5363915624086301,
        "latitude": 46.91542,
        "longitude": -110.718666
      },
      "District of Columbia": {
        "numJobs": 1467,
        "name": "District of Columbia",
        "id": 1211,
        "score": 0.7663364696461265,
        "latitude": 38.895,
        "longitude": -77.03667
      },
      "Oklahoma": {
        "numJobs": 1065,
        "name": "Oklahoma",
        "id": 847,
        "score": 0.6847830836095063,
        "latitude": 35.427067,
        "longitude": -96.773994
      },
      "Arizona": {
        "numJobs": 2807,
        "name": "Arizona",
        "id": 483,
        "score": 0.7952498650984545,
        "latitude": 33.67677,
        "longitude": -111.58828
      },
      "North Carolina": {
        "numJobs": 4374,
        "name": "North Carolina",
        "id": 1282,
        "score": 0.8363981665661685,
        "latitude": 35.576843,
        "longitude": -79.53007
      },
      "Kentucky": {
        "numJobs": 1405,
        "name": "Kentucky",
        "id": 1141,
        "score": 0.7083668368164057,
        "latitude": 37.58137,
        "longitude": -84.888466
      },
      "Alaska": {
        "numJobs": 263,
        "name": "Alaska",
        "id": 496,
        "score": 0.5757569746879564,
        "latitude": 61.27834,
        "longitude": -150.32988
      },
      "Georgia": {
        "numJobs": 4151,
        "name": "Georgia",
        "id": 3426,
        "score": 0.8245662794180516,
        "latitude": 33.18301,
        "longitude": -83.751396
      },
      "Utah": {
        "numJobs": 1269,
        "name": "Utah",
        "id": 255,
        "score": 0.7217616661296512,
        "latitude": 40.30287,
        "longitude": -111.84235
      },
      "Nebraska": {
        "numJobs": 680,
        "name": "Nebraska",
        "id": 792,
        "score": 0.648625600489797,
        "latitude": 41.321033,
        "longitude": -98.7876
      },
      "South Dakota": {
        "numJobs": 258,
        "name": "South Dakota",
        "id": 1502,
        "score": 0.5510294415308619,
        "latitude": 44.289787,
        "longitude": -99.61724
      }
    },
    "cities": [
      {
        "numJobs": 2423,
        "name": "New York, NY",
        "stateAbbreviation": "NY",
        "stateName": "New York",
        "id": 1132348,
        "latitude": 40.71417,
        "longitude": -74.00639
      },
      {
        "numJobs": 1946,
        "name": "San Diego, CA",
        "stateAbbreviation": "CA",
        "stateName": "California",
        "id": 1147311,
        "latitude": 32.71528,
        "longitude": -117.15639
      },
      {
        "numJobs": 1840,
        "name": "Houston, TX",
        "stateAbbreviation": "TX",
        "stateName": "Texas",
        "id": 1140171,
        "latitude": 29.76306,
        "longitude": -95.36306
      },
      {
        "numJobs": 1800,
        "name": "Chicago, IL",
        "stateAbbreviation": "IL",
        "stateName": "Illinois",
        "id": 1128808,
        "latitude": 41.85,
        "longitude": -87.65
      },
      {
        "numJobs": 1643,
        "name": "San Francisco, CA",
        "stateAbbreviation": "CA",
        "stateName": "California",
        "id": 1147401,
        "latitude": 37.775,
        "longitude": -122.41833
      },
      {
        "numJobs": 1544,
        "name": "San Jose, CA",
        "stateAbbreviation": "CA",
        "stateName": "California",
        "id": 1147436,
        "latitude": 37.33944,
        "longitude": -121.89389
      },
      {
        "numJobs": 1538,
        "name": "Atlanta, GA",
        "stateAbbreviation": "GA",
        "stateName": "Georgia",
        "id": 1155583,
        "latitude": 33.74889,
        "longitude": -84.38806
      },
      {
        "numJobs": 1467,
        "name": "Washington, DC",
        "stateAbbreviation": "DC",
        "stateName": "District of Columbia",
        "id": 1138213,
        "latitude": 38.895,
        "longitude": -77.03667
      },
      {
        "numJobs": 1400,
        "name": "Santa Clara, CA",
        "stateAbbreviation": "CA",
        "stateName": "California",
        "id": 1147439,
        "latitude": 37.35417,
        "longitude": -121.95417
      },
      {
        "numJobs": 1399,
        "name": "Seattle, WA",
        "stateAbbreviation": "WA",
        "stateName": "Washington",
        "id": 1150505,
        "latitude": 47.60639,
        "longitude": -122.33083
      },
      {
        "numJobs": 1267,
        "name": "Austin, TX",
        "stateAbbreviation": "TX",
        "stateName": "Texas",
        "id": 1139761,
        "latitude": 30.26694,
        "longitude": -97.74278
      },
      {
        "numJobs": 1226,
        "name": "Los Angeles, CA",
        "stateAbbreviation": "CA",
        "stateName": "California",
        "id": 1146821,
        "latitude": 34.05222,
        "longitude": -118.24278
      },
      {
        "numJobs": 1219,
        "name": "Dallas, TX",
        "stateAbbreviation": "TX",
        "stateName": "Texas",
        "id": 1139977,
        "latitude": 32.78333,
        "longitude": -96.8
      },
      {
        "numJobs": 1124,
        "name": "Phoenix, AZ",
        "stateAbbreviation": "AZ",
        "stateName": "Arizona",
        "id": 1133904,
        "latitude": 33.44833,
        "longitude": -112.07333
      },
      {
        "numJobs": 1030,
        "name": "Boston, MA",
        "stateAbbreviation": "MA",
        "stateName": "Massachusetts",
        "id": 1154532,
        "latitude": 42.35833,
        "longitude": -71.06028
      },
      {
        "numJobs": 897,
        "name": "Orlando, FL",
        "stateAbbreviation": "FL",
        "stateName": "Florida",
        "id": 1154247,
        "latitude": 28.53806,
        "longitude": -81.37944
      },
      {
        "numJobs": 896,
        "name": "Charlotte, NC",
        "stateAbbreviation": "NC",
        "stateName": "North Carolina",
        "id": 1138644,
        "latitude": 35.22694,
        "longitude": -80.84333
      },
      {
        "numJobs": 835,
        "name": "Denver, CO",
        "stateAbbreviation": "CO",
        "stateName": "Colorado",
        "id": 1148170,
        "latitude": 39.73917,
        "longitude": -104.98417
      },
      {
        "numJobs": 813,
        "name": "Philadelphia, PA",
        "stateAbbreviation": "PA",
        "stateName": "Pennsylvania",
        "id": 1152672,
        "latitude": 39.95222,
        "longitude": -75.16417
      },
      {
        "numJobs": 797,
        "name": "Auburn Hills, MI",
        "stateAbbreviation": "MI",
        "stateName": "Michigan",
        "id": 1134622,
        "latitude": 42.6875,
        "longitude": -83.23417
      },
      {
        "numJobs": 771,
        "name": "Indianapolis, IN",
        "stateAbbreviation": "IN",
        "stateName": "Indiana",
        "id": 1145013,
        "latitude": 39.76833,
        "longitude": -86.15806
      },
      {
        "numJobs": 751,
        "name": "Minneapolis, MN",
        "stateAbbreviation": "MN",
        "stateName": "Minnesota",
        "id": 1142551,
        "latitude": 44.98,
        "longitude": -93.26361
      },
      {
        "numJobs": 727,
        "name": "Sunnyvale, CA",
        "stateAbbreviation": "CA",
        "stateName": "California",
        "id": 1147442,
        "latitude": 37.36889,
        "longitude": -122.03528
      },
      {
        "numJobs": 718,
        "name": "Irvine, CA",
        "stateAbbreviation": "CA",
        "stateName": "California",
        "id": 1146798,
        "latitude": 33.66944,
        "longitude": -117.82222
      },
      {
        "numJobs": 674,
        "name": "Saint Louis, MO",
        "stateAbbreviation": "MO",
        "stateName": "Missouri",
        "id": 1131270,
        "latitude": 38.636864,
        "longitude": -90.28388
      },
      {
        "numJobs": 664,
        "name": "San Antonio, TX",
        "stateAbbreviation": "TX",
        "stateName": "Texas",
        "id": 1140494,
        "latitude": 29.42389,
        "longitude": -98.49333
      },
      {
        "numJobs": 647,
        "name": "Cincinnati, OH",
        "stateAbbreviation": "OH",
        "stateName": "Ohio",
        "id": 1145705,
        "latitude": 39.16194,
        "longitude": -84.45694
      },
      {
        "numJobs": 630,
        "name": "Baltimore, MD",
        "stateAbbreviation": "MD",
        "stateName": "Maryland",
        "id": 1153527,
        "latitude": 39.29028,
        "longitude": -76.6125
      },
      {
        "numJobs": 624,
        "name": "Columbus, OH",
        "stateAbbreviation": "OH",
        "stateName": "Ohio",
        "id": 1145845,
        "latitude": 39.96111,
        "longitude": -82.99889
      },
      {
        "numJobs": 623,
        "name": "Raleigh, NC",
        "stateAbbreviation": "NC",
        "stateName": "North Carolina",
        "id": 1138960,
        "latitude": 35.77194,
        "longitude": -78.63889
      },
      {
        "numJobs": 591,
        "name": "Tampa, FL",
        "stateAbbreviation": "FL",
        "stateName": "Florida",
        "id": 1154429,
        "latitude": 27.94722,
        "longitude": -82.45861
      },
      {
        "numJobs": 571,
        "name": "Pittsburgh, PA",
        "stateAbbreviation": "PA",
        "stateName": "Pennsylvania",
        "id": 1152990,
        "latitude": 40.44056,
        "longitude": -79.99611
      },
      {
        "numJobs": 561,
        "name": "Portland, OR",
        "stateAbbreviation": "OR",
        "stateName": "Oregon",
        "id": 1151614,
        "latitude": 45.52361,
        "longitude": -122.675
      },
      {
        "numJobs": 546,
        "name": "Detroit, MI",
        "stateAbbreviation": "MI",
        "stateName": "Michigan",
        "id": 1134644,
        "latitude": 42.33139,
        "longitude": -83.04583
      },
      {
        "numJobs": 539,
        "name": "Arlington, VA",
        "stateAbbreviation": "VA",
        "stateName": "Virginia",
        "id": 1130337,
        "latitude": 38.89028,
        "longitude": -77.08444
      },
      {
        "numJobs": 535,
        "name": "Hillsboro, OR",
        "stateAbbreviation": "OR",
        "stateName": "Oregon",
        "id": 1151603,
        "latitude": 45.52306,
        "longitude": -122.98861
      },
      {
        "numJobs": 510,
        "name": "Huntsville, AL",
        "stateAbbreviation": "AL",
        "stateName": "Alabama",
        "id": 1127653,
        "latitude": 34.73028,
        "longitude": -86.58611
      },
      {
        "numJobs": 508,
        "name": "Nashville, TN",
        "stateAbbreviation": "TN",
        "stateName": "Tennessee",
        "id": 1144541,
        "latitude": 36.16583,
        "longitude": -86.78444
      },
      {
        "numJobs": 507,
        "name": "Milwaukee, WI",
        "stateAbbreviation": "WI",
        "stateName": "Wisconsin",
        "id": 1133579,
        "latitude": 43.03889,
        "longitude": -87.90639
      },
      {
        "numJobs": 504,
        "name": "Cleveland, OH",
        "stateAbbreviation": "OH",
        "stateName": "Ohio",
        "id": 1145778,
        "latitude": 41.49944,
        "longitude": -81.69556
      },
      {
        "numJobs": 500,
        "name": "Salt Lake City, UT",
        "stateAbbreviation": "UT",
        "stateName": "Utah",
        "id": 1128289,
        "latitude": 40.76083,
        "longitude": -111.89028
      },
      {
        "numJobs": 500,
        "name": "Melbourne, FL",
        "stateAbbreviation": "FL",
        "stateName": "Florida",
        "id": 1154286,
        "latitude": 28.08333,
        "longitude": -80.60833
      },
      {
        "numJobs": 499,
        "name": "Fort Worth, TX",
        "stateAbbreviation": "TX",
        "stateName": "Texas",
        "id": 1139993,
        "latitude": 32.72528,
        "longitude": -97.32056
      },
      {
        "numJobs": 475,
        "name": "Jacksonville, FL",
        "stateAbbreviation": "FL",
        "stateName": "Florida",
        "id": 1154093,
        "latitude": 30.33194,
        "longitude": -81.65583
      },
      {
        "numJobs": 462,
        "name": "Redmond, WA",
        "stateAbbreviation": "WA",
        "stateName": "Washington",
        "id": 1150499,
        "latitude": 47.67417,
        "longitude": -122.12028
      },
      {
        "numJobs": 442,
        "name": "Sacramento, CA",
        "stateAbbreviation": "CA",
        "stateName": "California",
        "id": 1147229,
        "latitude": 38.58167,
        "longitude": -121.49333
      },
      {
        "numJobs": 439,
        "name": "Louisville, KY",
        "stateAbbreviation": "KY",
        "stateName": "Kentucky",
        "id": 1137724,
        "latitude": 38.25417,
        "longitude": -85.75944
      },
      {
        "numJobs": 425,
        "name": "Kansas City, MO",
        "stateAbbreviation": "MO",
        "stateName": "Missouri",
        "id": 1131040,
        "latitude": 39.09972,
        "longitude": -94.57833
      },
      {
        "numJobs": 395,
        "name": "Troy, MI",
        "stateAbbreviation": "MI",
        "stateName": "Michigan",
        "id": 1134737,
        "latitude": 42.60556,
        "longitude": -83.15
      },
      {
        "numJobs": 392,
        "name": "Las Vegas, NV",
        "stateAbbreviation": "NV",
        "stateName": "Nevada",
        "id": 1149603,
        "latitude": 36.175,
        "longitude": -115.13639
      },
      {
        "numJobs": 390,
        "name": "Rochester, NY",
        "stateAbbreviation": "NY",
        "stateName": "New York",
        "id": 1132765,
        "latitude": 43.15472,
        "longitude": -77.61583
      },
      {
        "numJobs": 386,
        "name": "Richmond, VA",
        "stateAbbreviation": "VA",
        "stateName": "Virginia",
        "id": 1130198,
        "latitude": 37.55361,
        "longitude": -77.46056
      },
      {
        "numJobs": 385,
        "name": "Miami, FL",
        "stateAbbreviation": "FL",
        "stateName": "Florida",
        "id": 1154170,
        "latitude": 25.77389,
        "longitude": -80.19389
      },
      {
        "numJobs": 372,
        "name": "Annapolis Junction, MD",
        "stateAbbreviation": "MD",
        "stateName": "Maryland",
        "id": 1153524,
        "latitude": 39.121613,
        "longitude": -76.79043
      },
      {
        "numJobs": 370,
        "name": "Fremont, CA",
        "stateAbbreviation": "CA",
        "stateName": "California",
        "id": 1147355,
        "latitude": 37.54833,
        "longitude": -121.9875
      },
      {
        "numJobs": 368,
        "name": "Herndon, VA",
        "stateAbbreviation": "VA",
        "stateName": "Virginia",
        "id": 1130374,
        "latitude": 38.96944,
        "longitude": -77.38639
      },
      {
        "numJobs": 366,
        "name": "Tucson, AZ",
        "stateAbbreviation": "AZ",
        "stateName": "Arizona",
        "id": 1133996,
        "latitude": 32.22167,
        "longitude": -110.92583
      },
      {
        "numJobs": 365,
        "name": "Chantilly, VA",
        "stateAbbreviation": "VA",
        "stateName": "Virginia",
        "id": 1130353,
        "latitude": 38.89417,
        "longitude": -77.43139
      },
      {
        "numJobs": 365,
        "name": "Palo Alto, CA",
        "stateAbbreviation": "CA",
        "stateName": "California",
        "id": 1147434,
        "latitude": 37.44194,
        "longitude": -122.14194
      },
      {
        "numJobs": 365,
        "name": "Colorado Springs, CO",
        "stateAbbreviation": "CO",
        "stateName": "Colorado",
        "id": 1148136,
        "latitude": 38.83389,
        "longitude": -104.82083
      },
      {
        "numJobs": 362,
        "name": "Reston, VA",
        "stateAbbreviation": "VA",
        "stateName": "Virginia",
        "id": 1130404,
        "latitude": 38.96861,
        "longitude": -77.34139
      },
      {
        "numJobs": 359,
        "name": "Memphis, TN",
        "stateAbbreviation": "TN",
        "stateName": "Tennessee",
        "id": 1144463,
        "latitude": 35.14944,
        "longitude": -90.04889
      },
      {
        "numJobs": 356,
        "name": "Dearborn, MI",
        "stateAbbreviation": "MI",
        "stateName": "Michigan",
        "id": 1134642,
        "latitude": 42.32222,
        "longitude": -83.17639
      },
      {
        "numJobs": 331,
        "name": "Oklahoma City, OK",
        "stateAbbreviation": "OK",
        "stateName": "Oklahoma",
        "id": 1136950,
        "latitude": 35.4675,
        "longitude": -97.51611
      },
      {
        "numJobs": 313,
        "name": "El Segundo, CA",
        "stateAbbreviation": "CA",
        "stateName": "California",
        "id": 1146779,
        "latitude": 33.91917,
        "longitude": -118.41556
      },
      {
        "numJobs": 308,
        "name": "Omaha, NE",
        "stateAbbreviation": "NE",
        "stateName": "Nebraska",
        "id": 1136440,
        "latitude": 41.25861,
        "longitude": -95.9375
      },
      {
        "numJobs": 303,
        "name": "Tulsa, OK",
        "stateAbbreviation": "OK",
        "stateName": "Oklahoma",
        "id": 1137055,
        "latitude": 36.15389,
        "longitude": -95.9925
      },
      {
        "numJobs": 303,
        "name": "Bellevue, WA",
        "stateAbbreviation": "WA",
        "stateName": "Washington",
        "id": 1150442,
        "latitude": 47.61056,
        "longitude": -122.19944
      },
      {
        "numJobs": 301,
        "name": "Greenville, SC",
        "stateAbbreviation": "SC",
        "stateName": "South Carolina",
        "id": 1155193,
        "latitude": 34.8525,
        "longitude": -82.39417
      },
      {
        "numJobs": 300,
        "name": "Grand Rapids, MI",
        "stateAbbreviation": "MI",
        "stateName": "Michigan",
        "id": 1134796,
        "latitude": 42.96333,
        "longitude": -85.66806
      },
      {
        "numJobs": 297,
        "name": "Cambridge, MA",
        "stateAbbreviation": "MA",
        "stateName": "Massachusetts",
        "id": 1154545,
        "latitude": 42.375,
        "longitude": -71.10611
      },
      {
        "numJobs": 296,
        "name": "Birmingham, AL",
        "stateAbbreviation": "AL",
        "stateName": "Alabama",
        "id": 1127429,
        "latitude": 33.52056,
        "longitude": -86.8025
      },
      {
        "numJobs": 296,
        "name": "Warren, MI",
        "stateAbbreviation": "MI",
        "stateName": "Michigan",
        "id": 1134741,
        "latitude": 42.4775,
        "longitude": -83.02778
      },
      {
        "numJobs": 295,
        "name": "Richardson, TX",
        "stateAbbreviation": "TX",
        "stateName": "Texas",
        "id": 1140053,
        "latitude": 32.94806,
        "longitude": -96.72944
      },
      {
        "numJobs": 291,
        "name": "Madison, WI",
        "stateAbbreviation": "WI",
        "stateName": "Wisconsin",
        "id": 1133470,
        "latitude": 43.07306,
        "longitude": -89.40111
      },
      {
        "numJobs": 282,
        "name": "Dayton, OH",
        "stateAbbreviation": "OH",
        "stateName": "Ohio",
        "id": 1145937,
        "latitude": 39.75889,
        "longitude": -84.19167
      },
      {
        "numJobs": 282,
        "name": "Farmington Hills, MI",
        "stateAbbreviation": "MI",
        "stateName": "Michigan",
        "id": 1159753,
        "latitude": 42.48528,
        "longitude": -83.37722
      },
      {
        "numJobs": 282,
        "name": "Mountain View, CA",
        "stateAbbreviation": "CA",
        "stateName": "California",
        "id": 1147431,
        "latitude": 37.38611,
        "longitude": -122.08278
      },
      {
        "numJobs": 280,
        "name": "Durham, NC",
        "stateAbbreviation": "NC",
        "stateName": "North Carolina",
        "id": 1138697,
        "latitude": 35.99389,
        "longitude": -78.89889
      },
      {
        "numJobs": 280,
        "name": "Overland Park, KS",
        "stateAbbreviation": "KS",
        "stateName": "Kansas",
        "id": 1151049,
        "latitude": 38.98222,
        "longitude": -94.67056
      },
      {
        "numJobs": 271,
        "name": "Alpharetta, GA",
        "stateAbbreviation": "GA",
        "stateName": "Georgia",
        "id": 1155582,
        "latitude": 34.07528,
        "longitude": -84.29417
      },
      {
        "numJobs": 266,
        "name": "Columbia, MD",
        "stateAbbreviation": "MD",
        "stateName": "Maryland",
        "id": 1153546,
        "latitude": 39.24028,
        "longitude": -76.83972
      },
      {
        "numJobs": 266,
        "name": "Albany, NY",
        "stateAbbreviation": "NY",
        "stateName": "New York",
        "id": 1131650,
        "latitude": 42.6525,
        "longitude": -73.75667
      },
      {
        "numJobs": 265,
        "name": "McLean, VA",
        "stateAbbreviation": "VA",
        "stateName": "Virginia",
        "id": 1158535,
        "latitude": 38.93417,
        "longitude": -77.17778
      },
      {
        "numJobs": 264,
        "name": "Greensboro, NC",
        "stateAbbreviation": "NC",
        "stateName": "North Carolina",
        "id": 1138755,
        "latitude": 36.0725,
        "longitude": -79.79222
      },
      {
        "numJobs": 264,
        "name": "Ann Arbor, MI",
        "stateAbbreviation": "MI",
        "stateName": "Michigan",
        "id": 1134560,
        "latitude": 42.27083,
        "longitude": -83.72639
      },
      {
        "numJobs": 260,
        "name": "Fairfax, VA",
        "stateAbbreviation": "VA",
        "stateName": "Virginia",
        "id": 1130359,
        "latitude": 38.84611,
        "longitude": -77.30667
      },
      {
        "numJobs": 260,
        "name": "Irving, TX",
        "stateAbbreviation": "TX",
        "stateName": "Texas",
        "id": 1140006,
        "latitude": 32.81389,
        "longitude": -96.94861
      },
      {
        "numJobs": 259,
        "name": "Fort Lauderdale, FL",
        "stateAbbreviation": "FL",
        "stateName": "Florida",
        "id": 1154160,
        "latitude": 26.12194,
        "longitude": -80.14361
      },
      {
        "numJobs": 257,
        "name": "Plano, TX",
        "stateAbbreviation": "TX",
        "stateName": "Texas",
        "id": 1140045,
        "latitude": 33.01972,
        "longitude": -96.69861
      },
      {
        "numJobs": 256,
        "name": "Columbia, SC",
        "stateAbbreviation": "SC",
        "stateName": "South Carolina",
        "id": 1155132,
        "latitude": 34.00056,
        "longitude": -81.035
      },
      {
        "numJobs": 255,
        "name": "Waltham, MA",
        "stateAbbreviation": "MA",
        "stateName": "Massachusetts",
        "id": 1154703,
        "latitude": 42.37639,
        "longitude": -71.23611
      },
      {
        "numJobs": 253,
        "name": "Littleton, CO",
        "stateAbbreviation": "CO",
        "stateName": "Colorado",
        "id": 1148194,
        "latitude": 39.61333,
        "longitude": -105.01611
      },
      {
        "numJobs": 251,
        "name": "Alexandria, VA",
        "stateAbbreviation": "VA",
        "stateName": "Virginia",
        "id": 1130334,
        "latitude": 38.79755,
        "longitude": -77.08908
      },
      {
        "numJobs": 251,
        "name": "Rockville, MD",
        "stateAbbreviation": "MD",
        "stateName": "Maryland",
        "id": 1153899,
        "latitude": 39.08389,
        "longitude": -77.15306
      },
      {
        "numJobs": 248,
        "name": "Charleston, SC",
        "stateAbbreviation": "SC",
        "stateName": "South Carolina",
        "id": 1155074,
        "latitude": 32.77639,
        "longitude": -79.93111
      },
      {
        "numJobs": 246,
        "name": "East Hartford, CT",
        "stateAbbreviation": "CT",
        "stateName": "Connecticut",
        "id": 1148388,
        "latitude": 41.78222,
        "longitude": -72.6125
      },
      {
        "numJobs": 245,
        "name": "Redwood City, CA",
        "stateAbbreviation": "CA",
        "stateName": "California",
        "id": 1147394,
        "latitude": 37.48528,
        "longitude": -122.23528
      },
      {
        "numJobs": 243,
        "name": "Springfield, VA",
        "stateAbbreviation": "VA",
        "stateName": "Virginia",
        "id": 1130409,
        "latitude": 38.791557,
        "longitude": -77.18702
      },
      {
        "numJobs": 243,
        "name": "Southfield, MI",
        "stateAbbreviation": "MI",
        "stateName": "Michigan",
        "id": 1134732,
        "latitude": 42.47333,
        "longitude": -83.22194
      },
      {
        "numJobs": 242,
        "name": "Albuquerque, NM",
        "stateAbbreviation": "NM",
        "stateName": "New Mexico",
        "id": 1137959,
        "latitude": 35.08444,
        "longitude": -106.65056
      },
      {
        "numJobs": 239,
        "name": "Torrance, CA",
        "stateAbbreviation": "CA",
        "stateName": "California",
        "id": 1146894,
        "latitude": 33.83583,
        "longitude": -118.33972
      },
      {
        "numJobs": 238,
        "name": "Buffalo, NY",
        "stateAbbreviation": "NY",
        "stateName": "New York",
        "id": 1131850,
        "latitude": 42.88639,
        "longitude": -78.87861
      },
      {
        "numJobs": 238,
        "name": "Des Moines, IA",
        "stateAbbreviation": "IA",
        "stateName": "Iowa",
        "id": 1149246,
        "latitude": 41.60056,
        "longitude": -93.60889
      },
      {
        "numJobs": 238,
        "name": "Milpitas, CA",
        "stateAbbreviation": "CA",
        "stateName": "California",
        "id": 1147428,
        "latitude": 37.42833,
        "longitude": -121.90556
      },
      {
        "numJobs": 237,
        "name": "Tempe, AZ",
        "stateAbbreviation": "AZ",
        "stateName": "Arizona",
        "id": 1133917,
        "latitude": 33.41472,
        "longitude": -111.90861
      },
      {
        "numJobs": 235,
        "name": "Menlo Park, CA",
        "stateAbbreviation": "CA",
        "stateName": "California",
        "id": 1147371,
        "latitude": 37.45389,
        "longitude": -122.18111
      },
      {
        "numJobs": 233,
        "name": "Fort Meade, MD",
        "stateAbbreviation": "MD",
        "stateName": "Maryland",
        "id": 1165756,
        "latitude": 39.10815,
        "longitude": -76.74323
      },
      {
        "numJobs": 232,
        "name": "Long Beach, CA",
        "stateAbbreviation": "CA",
        "stateName": "California",
        "id": 1146819,
        "latitude": 33.76694,
        "longitude": -118.18833
      },
      {
        "numJobs": 230,
        "name": "Norfolk, VA",
        "stateAbbreviation": "VA",
        "stateName": "Virginia",
        "id": 1130306,
        "latitude": 36.84667,
        "longitude": -76.28556
      },
      {
        "numJobs": 227,
        "name": "New Orleans, LA",
        "stateAbbreviation": "LA",
        "stateName": "Louisiana",
        "id": 1150035,
        "latitude": 29.95444,
        "longitude": -90.075
      },
      {
        "numJobs": 221,
        "name": "Plymouth, MI",
        "stateAbbreviation": "MI",
        "stateName": "Michigan",
        "id": 1134713,
        "latitude": 42.37139,
        "longitude": -83.47028
      },
      {
        "numJobs": 220,
        "name": "Chandler, AZ",
        "stateAbbreviation": "AZ",
        "stateName": "Arizona",
        "id": 1133878,
        "latitude": 33.30611,
        "longitude": -111.84056
      },
      {
        "numJobs": 213,
        "name": "Cedar Rapids, IA",
        "stateAbbreviation": "IA",
        "stateName": "Iowa",
        "id": 1149160,
        "latitude": 42.00833,
        "longitude": -91.64389
      },
      {
        "numJobs": 203,
        "name": "Pasadena, CA",
        "stateAbbreviation": "CA",
        "stateName": "California",
        "id": 1146850,
        "latitude": 34.14778,
        "longitude": -118.14361
      },
      {
        "numJobs": 201,
        "name": "Chattanooga, TN",
        "stateAbbreviation": "TN",
        "stateName": "Tennessee",
        "id": 1144251,
        "latitude": 35.04556,
        "longitude": -85.30972
      },
      {
        "numJobs": 201,
        "name": "Knoxville, TN",
        "stateAbbreviation": "TN",
        "stateName": "Tennessee",
        "id": 1144394,
        "latitude": 35.96056,
        "longitude": -83.92083
      },
      {
        "numJobs": 200,
        "name": "Savannah, GA",
        "stateAbbreviation": "GA",
        "stateName": "Georgia",
        "id": 1155906,
        "latitude": 32.08333,
        "longitude": -81.1
      },
      {
        "numJobs": 197,
        "name": "Saint Paul, MN",
        "stateAbbreviation": "MN",
        "stateName": "Minnesota",
        "id": 1142575,
        "latitude": 44.94444,
        "longitude": -93.09306
      },
      {
        "numJobs": 195,
        "name": "Boulder, CO",
        "stateAbbreviation": "CO",
        "stateName": "Colorado",
        "id": 1148112,
        "latitude": 40.015,
        "longitude": -105.27
      },
      {
        "numJobs": 193,
        "name": "Livonia, MI",
        "stateAbbreviation": "MI",
        "stateName": "Michigan",
        "id": 1134687,
        "latitude": 42.36833,
        "longitude": -83.35278
      },
      {
        "numJobs": 191,
        "name": "Broomfield, CO",
        "stateAbbreviation": "CO",
        "stateName": "Colorado",
        "id": 1148161,
        "latitude": 39.92056,
        "longitude": -105.08611
      },
      {
        "numJobs": 190,
        "name": "Scottsdale, AZ",
        "stateAbbreviation": "AZ",
        "stateName": "Arizona",
        "id": 1133911,
        "latitude": 33.50917,
        "longitude": -111.89833
      },
      {
        "numJobs": 189,
        "name": "Wichita, KS",
        "stateAbbreviation": "KS",
        "stateName": "Kansas",
        "id": 1151230,
        "latitude": 37.69222,
        "longitude": -97.33722
      },
      {
        "numJobs": 186,
        "name": "Anaheim, CA",
        "stateAbbreviation": "CA",
        "stateName": "California",
        "id": 1146743,
        "latitude": 33.83528,
        "longitude": -117.91361
      },
      {
        "numJobs": 185,
        "name": "Hawthorne, CA",
        "stateAbbreviation": "CA",
        "stateName": "California",
        "id": 1146793,
        "latitude": 33.91639,
        "longitude": -118.35167
      },
      {
        "numJobs": 185,
        "name": "Hanover, MD",
        "stateAbbreviation": "MD",
        "stateName": "Maryland",
        "id": 1153584,
        "latitude": 39.19278,
        "longitude": -76.72444
      },
      {
        "numJobs": 184,
        "name": "Folsom, CA",
        "stateAbbreviation": "CA",
        "stateName": "California",
        "id": 1147188,
        "latitude": 38.67806,
        "longitude": -121.175
      },
      {
        "numJobs": 183,
        "name": "Mobile, AL",
        "stateAbbreviation": "AL",
        "stateName": "Alabama",
        "id": 1127676,
        "latitude": 30.69417,
        "longitude": -88.04306
      },
      {
        "numJobs": 181,
        "name": "Baton Rouge, LA",
        "stateAbbreviation": "LA",
        "stateName": "Louisiana",
        "id": 1149789,
        "latitude": 30.45056,
        "longitude": -91.15444
      },
      {
        "numJobs": 179,
        "name": "Buffalo Grove, IL",
        "stateAbbreviation": "IL",
        "stateName": "Illinois",
        "id": 1128800,
        "latitude": 42.15139,
        "longitude": -87.95972
      },
      {
        "numJobs": 176,
        "name": "Palmdale, CA",
        "stateAbbreviation": "CA",
        "stateName": "California",
        "id": 1146846,
        "latitude": 34.57944,
        "longitude": -118.11556
      },
      {
        "numJobs": 175,
        "name": "Honolulu, HI",
        "stateAbbreviation": "HI",
        "stateName": "Hawaii",
        "id": 1140656,
        "latitude": 21.30694,
        "longitude": -157.85834
      },
      {
        "numJobs": 174,
        "name": "Ashburn, VA",
        "stateAbbreviation": "VA",
        "stateName": "Virginia",
        "id": 1130338,
        "latitude": 39.04361,
        "longitude": -77.48778
      },
      {
        "numJobs": 172,
        "name": "Oakland, CA",
        "stateAbbreviation": "CA",
        "stateName": "California",
        "id": 1147380,
        "latitude": 37.80444,
        "longitude": -122.26972
      },
      {
        "numJobs": 172,
        "name": "Syracuse, NY",
        "stateAbbreviation": "NY",
        "stateName": "New York",
        "id": 1132872,
        "latitude": 43.04806,
        "longitude": -76.14778
      },
      {
        "numJobs": 171,
        "name": "Fort Wayne, IN",
        "stateAbbreviation": "IN",
        "stateName": "Indiana",
        "id": 1144939,
        "latitude": 41.13056,
        "longitude": -85.12889
      },
      {
        "numJobs": 170,
        "name": "Newport News, VA",
        "stateAbbreviation": "VA",
        "stateName": "Virginia",
        "id": 1130305,
        "latitude": 36.97861,
        "longitude": -76.42833
      },
      {
        "numJobs": 169,
        "name": "Akron, OH",
        "stateAbbreviation": "OH",
        "stateName": "Ohio",
        "id": 1145529,
        "latitude": 41.08139,
        "longitude": -81.51917
      },
      {
        "numJobs": 168,
        "name": "York, PA",
        "stateAbbreviation": "PA",
        "stateName": "Pennsylvania",
        "id": 1153468,
        "latitude": 39.9625,
        "longitude": -76.72806
      },
      {
        "numJobs": 168,
        "name": "Hartford, CT",
        "stateAbbreviation": "CT",
        "stateName": "Connecticut",
        "id": 1148399,
        "latitude": 41.76361,
        "longitude": -72.68556
      },
      {
        "numJobs": 165,
        "name": "Everett, WA",
        "stateAbbreviation": "WA",
        "stateName": "Washington",
        "id": 1150458,
        "latitude": 47.97917,
        "longitude": -122.20083
      },
      {
        "numJobs": 165,
        "name": "Pleasanton, CA",
        "stateAbbreviation": "CA",
        "stateName": "California",
        "id": 1147390,
        "latitude": 37.6625,
        "longitude": -121.87361
      },
      {
        "numJobs": 164,
        "name": "Bethesda, MD",
        "stateAbbreviation": "MD",
        "stateName": "Maryland",
        "id": 1153817,
        "latitude": 38.98056,
        "longitude": -77.10056
      },
      {
        "numJobs": 161,
        "name": "Cary, NC",
        "stateAbbreviation": "NC",
        "stateName": "North Carolina",
        "id": 1138945,
        "latitude": 35.79139,
        "longitude": -78.78139
      },
      {
        "numJobs": 160,
        "name": "Novi, MI",
        "stateAbbreviation": "MI",
        "stateName": "Michigan",
        "id": 1134704,
        "latitude": 42.48056,
        "longitude": -83.47556
      },
      {
        "numJobs": 159,
        "name": "Rockford, IL",
        "stateAbbreviation": "IL",
        "stateName": "Illinois",
        "id": 1129425,
        "latitude": 42.27111,
        "longitude": -89.09389
      },
      {
        "numJobs": 157,
        "name": "Kalamazoo, MI",
        "stateAbbreviation": "MI",
        "stateName": "Michigan",
        "id": 1134900,
        "latitude": 42.29167,
        "longitude": -85.58722
      },
      {
        "numJobs": 153,
        "name": "Dulles, VA",
        "stateAbbreviation": "VA",
        "stateName": "Virginia",
        "id": 1130356,
        "latitude": 39.073128,
        "longitude": -77.4685
      },
      {
        "numJobs": 153,
        "name": "Lexington, MA",
        "stateAbbreviation": "MA",
        "stateName": "Massachusetts",
        "id": 1154599,
        "latitude": 42.44722,
        "longitude": -71.225
      },
      {
        "numJobs": 153,
        "name": "Tallahassee, FL",
        "stateAbbreviation": "FL",
        "stateName": "Florida",
        "id": 1154378,
        "latitude": 30.43806,
        "longitude": -84.28083
      },
      {
        "numJobs": 152,
        "name": "West Palm Beach, FL",
        "stateAbbreviation": "FL",
        "stateName": "Florida",
        "id": 1154182,
        "latitude": 26.715,
        "longitude": -80.05361
      },
      {
        "numJobs": 151,
        "name": "Costa Mesa, CA",
        "stateAbbreviation": "CA",
        "stateName": "California",
        "id": 1146769,
        "latitude": 33.64111,
        "longitude": -117.91778
      },
      {
        "numJobs": 150,
        "name": "Orange, CA",
        "stateAbbreviation": "CA",
        "stateName": "California",
        "id": 1146843,
        "latitude": 33.78778,
        "longitude": -117.85222
      },
      {
        "numJobs": 150,
        "name": "Marlborough, MA",
        "stateAbbreviation": "MA",
        "stateName": "Massachusetts",
        "id": 1154610,
        "latitude": 42.34583,
        "longitude": -71.55278
      },
      {
        "numJobs": 150,
        "name": "Burlington, MA",
        "stateAbbreviation": "MA",
        "stateName": "Massachusetts",
        "id": 1154543,
        "latitude": 42.50472,
        "longitude": -71.19611
      },
      {
        "numJobs": 148,
        "name": "Santa Ana, CA",
        "stateAbbreviation": "CA",
        "stateName": "California",
        "id": 1146870,
        "latitude": 33.74556,
        "longitude": -117.86694
      },
      {
        "numJobs": 145,
        "name": "Newark, NJ",
        "stateAbbreviation": "NJ",
        "stateName": "New Jersey",
        "id": 1126906,
        "latitude": 40.73556,
        "longitude": -74.17278
      },
      {
        "numJobs": 145,
        "name": "Plymouth, MN",
        "stateAbbreviation": "MN",
        "stateName": "Minnesota",
        "id": 1162329,
        "latitude": 45.01056,
        "longitude": -93.45528
      },
      {
        "numJobs": 145,
        "name": "Sterling, VA",
        "stateAbbreviation": "VA",
        "stateName": "Virginia",
        "id": 1130411,
        "latitude": 39.00611,
        "longitude": -77.42889
      },
      {
        "numJobs": 145,
        "name": "Lansing, MI",
        "stateAbbreviation": "MI",
        "stateName": "Michigan",
        "id": 1134930,
        "latitude": 42.7325,
        "longitude": -84.55556
      },
      {
        "numJobs": 143,
        "name": "Winston-Salem, NC",
        "stateAbbreviation": "NC",
        "stateName": "North Carolina",
        "id": 1139151,
        "latitude": 36.09766,
        "longitude": -80.24728
      },
      {
        "numJobs": 141,
        "name": "Little Rock, AR",
        "stateAbbreviation": "AR",
        "stateName": "Arkansas",
        "id": 1143190,
        "latitude": 34.74639,
        "longitude": -92.28944
      },
      {
        "numJobs": 140,
        "name": "Fresno, CA",
        "stateAbbreviation": "CA",
        "stateName": "California",
        "id": 1146705,
        "latitude": 36.74778,
        "longitude": -119.77139
      },
      {
        "numJobs": 139,
        "name": "Vancouver, WA",
        "stateAbbreviation": "WA",
        "stateName": "Washington",
        "id": 1150413,
        "latitude": 45.63889,
        "longitude": -122.66028
      },
      {
        "numJobs": 137,
        "name": "Boise, ID",
        "stateAbbreviation": "ID",
        "stateName": "Idaho",
        "id": 1127927,
        "latitude": 43.61361,
        "longitude": -116.2025
      },
      {
        "numJobs": 137,
        "name": "Reno, NV",
        "stateAbbreviation": "NV",
        "stateName": "Nevada",
        "id": 1149627,
        "latitude": 39.52972,
        "longitude": -119.81278
      },
      {
        "numJobs": 137,
        "name": "Englewood, CO",
        "stateAbbreviation": "CO",
        "stateName": "Colorado",
        "id": 1148176,
        "latitude": 39.64778,
        "longitude": -104.98722
      },
      {
        "numJobs": 136,
        "name": "Harrisburg, PA",
        "stateAbbreviation": "PA",
        "stateName": "Pennsylvania",
        "id": 1152185,
        "latitude": 40.27361,
        "longitude": -76.88472
      },
      {
        "numJobs": 135,
        "name": "Allentown, PA",
        "stateAbbreviation": "PA",
        "stateName": "Pennsylvania",
        "id": 1151916,
        "latitude": 40.60833,
        "longitude": -75.49056
      },
      {
        "numJobs": 135,
        "name": "Fort Collins, CO",
        "stateAbbreviation": "CO",
        "stateName": "Colorado",
        "id": 1148233,
        "latitude": 40.58528,
        "longitude": -105.08389
      },
      {
        "numJobs": 134,
        "name": "Virginia Beach, VA",
        "stateAbbreviation": "VA",
        "stateName": "Virginia",
        "id": 1130324,
        "latitude": 36.85278,
        "longitude": -75.97833
      },
      {
        "numJobs": 134,
        "name": "Aberdeen, MD",
        "stateAbbreviation": "MD",
        "stateName": "Maryland",
        "id": 1153520,
        "latitude": 39.50944,
        "longitude": -76.16444
      },
      {
        "numJobs": 133,
        "name": "Jersey City, NJ",
        "stateAbbreviation": "NJ",
        "stateName": "New Jersey",
        "id": 1126819,
        "latitude": 40.72806,
        "longitude": -74.07806
      },
      {
        "numJobs": 133,
        "name": "Sterling Heights, MI",
        "stateAbbreviation": "MI",
        "stateName": "Michigan",
        "id": 1159809,
        "latitude": 42.58028,
        "longitude": -83.03028
      },
      {
        "numJobs": 133,
        "name": "Manchester, NH",
        "stateAbbreviation": "NH",
        "stateName": "New Hampshire",
        "id": 1147907,
        "latitude": 42.99556,
        "longitude": -71.45528
      },
      {
        "numJobs": 132,
        "name": "Toledo, OH",
        "stateAbbreviation": "OH",
        "stateName": "Ohio",
        "id": 1146248,
        "latitude": 41.66389,
        "longitude": -83.55528
      },
      {
        "numJobs": 131,
        "name": "Lexington-Fayette, KY",
        "stateAbbreviation": "KY",
        "stateName": "Kentucky",
        "id": 3749474,
        "latitude": 38.04972,
        "longitude": -84.45861
      },
      {
        "numJobs": 131,
        "name": "Pontiac, MI",
        "stateAbbreviation": "MI",
        "stateName": "Michigan",
        "id": 1134714,
        "latitude": 42.63889,
        "longitude": -83.29111
      },
      {
        "numJobs": 131,
        "name": "Providence, RI",
        "stateAbbreviation": "RI",
        "stateName": "Rhode Island",
        "id": 1151289,
        "latitude": 41.82389,
        "longitude": -71.41333
      },
      {
        "numJobs": 130,
        "name": "Nashua, NH",
        "stateAbbreviation": "NH",
        "stateName": "New Hampshire",
        "id": 1147911,
        "latitude": 42.76528,
        "longitude": -71.46806
      },
      {
        "numJobs": 129,
        "name": "Pittsfield, MA",
        "stateAbbreviation": "MA",
        "stateName": "Massachusetts",
        "id": 1154753,
        "latitude": 42.45,
        "longitude": -73.24583
      },
      {
        "numJobs": 129,
        "name": "Lenexa, KS",
        "stateAbbreviation": "KS",
        "stateName": "Kansas",
        "id": 1151040,
        "latitude": 38.95361,
        "longitude": -94.73333
      },
      {
        "numJobs": 127,
        "name": "Edison, NJ",
        "stateAbbreviation": "NJ",
        "stateName": "New Jersey",
        "id": 1126748,
        "latitude": 40.52424,
        "longitude": -74.41246
      },
      {
        "numJobs": 127,
        "name": "Lincoln, AL",
        "stateAbbreviation": "AL",
        "stateName": "Alabama",
        "id": 1127742,
        "latitude": 33.61306,
        "longitude": -86.11833
      },
      {
        "numJobs": 127,
        "name": "Augusta, GA",
        "stateAbbreviation": "GA",
        "stateName": "Georgia",
        "id": 1155718,
        "latitude": 33.47083,
        "longitude": -81.975
      },
      {
        "numJobs": 126,
        "name": "Brooklyn, NY",
        "stateAbbreviation": "NY",
        "stateName": "New York",
        "id": 1132200,
        "latitude": 40.65,
        "longitude": -73.95
      },
      {
        "numJobs": 125,
        "name": "El Paso, TX",
        "stateAbbreviation": "TX",
        "stateName": "Texas",
        "id": 1140105,
        "latitude": 31.75861,
        "longitude": -106.48639
      },
      {
        "numJobs": 124,
        "name": "Andover, MA",
        "stateAbbreviation": "MA",
        "stateName": "Massachusetts",
        "id": 1154518,
        "latitude": 42.65833,
        "longitude": -71.1375
      },
      {
        "numJobs": 123,
        "name": "Canoga Park, CA",
        "stateAbbreviation": "CA",
        "stateName": "California",
        "id": 1146758,
        "latitude": 34.20111,
        "longitude": -118.59722
      },
      {
        "numJobs": 121,
        "name": "Mount Laurel, NJ",
        "stateAbbreviation": "NJ",
        "stateName": "New Jersey",
        "id": 1127131,
        "latitude": 39.93389,
        "longitude": -74.89139
      },
      {
        "numJobs": 120,
        "name": "Palm Bay, FL",
        "stateAbbreviation": "FL",
        "stateName": "Florida",
        "id": 1154291,
        "latitude": 28.03417,
        "longitude": -80.58889
      },
      {
        "numJobs": 118,
        "name": "Newark, DE",
        "stateAbbreviation": "DE",
        "stateName": "Delaware",
        "id": 1156369,
        "latitude": 39.68361,
        "longitude": -75.75
      },
      {
        "numJobs": 118,
        "name": "Waukesha, WI",
        "stateAbbreviation": "WI",
        "stateName": "Wisconsin",
        "id": 1133599,
        "latitude": 43.01167,
        "longitude": -88.23139
      },
      {
        "numJobs": 117,
        "name": "Ogden, UT",
        "stateAbbreviation": "UT",
        "stateName": "Utah",
        "id": 1128221,
        "latitude": 41.22306,
        "longitude": -111.97306
      },
      {
        "numJobs": 117,
        "name": "Anchorage, AK",
        "stateAbbreviation": "AK",
        "stateName": "Alaska",
        "id": 1134201,
        "latitude": 61.21806,
        "longitude": -149.90028
      },
      {
        "numJobs": 117,
        "name": "Carlsbad, CA",
        "stateAbbreviation": "CA",
        "stateName": "California",
        "id": 1147279,
        "latitude": 33.15806,
        "longitude": -117.34972
      },
      {
        "numJobs": 115,
        "name": "Marietta, GA",
        "stateAbbreviation": "GA",
        "stateName": "Georgia",
        "id": 1155654,
        "latitude": 33.9525,
        "longitude": -84.55
      },
      {
        "numJobs": 115,
        "name": "King of Prussia, PA",
        "stateAbbreviation": "PA",
        "stateName": "Pennsylvania",
        "id": 1152620,
        "latitude": 40.08917,
        "longitude": -75.39639
      },
      {
        "numJobs": 115,
        "name": "Bothell, WA",
        "stateAbbreviation": "WA",
        "stateName": "Washington",
        "id": 1150445,
        "latitude": 47.7625,
        "longitude": -122.20417
      },
      {
        "numJobs": 115,
        "name": "Aurora, CO",
        "stateAbbreviation": "CO",
        "stateName": "Colorado",
        "id": 1148156,
        "latitude": 39.72944,
        "longitude": -104.83139
      },
      {
        "numJobs": 114,
        "name": "Lincoln, NE",
        "stateAbbreviation": "NE",
        "stateName": "Nebraska",
        "id": 1136371,
        "latitude": 40.8,
        "longitude": -96.66667
      },
      {
        "numJobs": 113,
        "name": "Fort Walton Beach, FL",
        "stateAbbreviation": "FL",
        "stateName": "Florida",
        "id": 1154048,
        "latitude": 30.40556,
        "longitude": -86.61889
      },
      {
        "numJobs": 112,
        "name": "Springfield, MO",
        "stateAbbreviation": "MO",
        "stateName": "Missouri",
        "id": 1131348,
        "latitude": 37.21528,
        "longitude": -93.29806
      },
      {
        "numJobs": 112,
        "name": "Riverside, CA",
        "stateAbbreviation": "CA",
        "stateName": "California",
        "id": 1147138,
        "latitude": 33.95333,
        "longitude": -117.39528
      },
      {
        "numJobs": 111,
        "name": "Arlington, TX",
        "stateAbbreviation": "TX",
        "stateName": "Texas",
        "id": 1139951,
        "latitude": 32.73556,
        "longitude": -97.10778
      },
      {
        "numJobs": 110,
        "name": "San Mateo, CA",
        "stateAbbreviation": "CA",
        "stateName": "California",
        "id": 1147406,
        "latitude": 37.56306,
        "longitude": -122.32444
      },
      {
        "numJobs": 109,
        "name": "Towson, MD",
        "stateAbbreviation": "MD",
        "stateName": "Maryland",
        "id": 1153644,
        "latitude": 39.40139,
        "longitude": -76.60222
      },
      {
        "numJobs": 109,
        "name": "Aberdeen Proving Ground, MD",
        "stateAbbreviation": "MD",
        "stateName": "Maryland",
        "id": 1153521,
        "latitude": 39.430157,
        "longitude": -76.2193
      },
      {
        "numJobs": 108,
        "name": "Parsippany, NJ",
        "stateAbbreviation": "NJ",
        "stateName": "New Jersey",
        "id": 1126931,
        "latitude": 40.85778,
        "longitude": -74.42639
      },
      {
        "numJobs": 108,
        "name": "Fort Belvoir, VA",
        "stateAbbreviation": "VA",
        "stateName": "Virginia",
        "id": 1130362,
        "latitude": 38.712147,
        "longitude": -77.158615
      },
      {
        "numJobs": 108,
        "name": "Melville, NY",
        "stateAbbreviation": "NY",
        "stateName": "New York",
        "id": 1132326,
        "latitude": 40.79333,
        "longitude": -73.41556
      },
      {
        "numJobs": 107,
        "name": "Norcross, GA",
        "stateAbbreviation": "GA",
        "stateName": "Georgia",
        "id": 1155667,
        "latitude": 33.94111,
        "longitude": -84.21361
      },
      {
        "numJobs": 106,
        "name": "Brea, CA",
        "stateAbbreviation": "CA",
        "stateName": "California",
        "id": 1146754,
        "latitude": 33.91667,
        "longitude": -117.89917
      },
      {
        "numJobs": 104,
        "name": "Montgomery, AL",
        "stateAbbreviation": "AL",
        "stateName": "Alabama",
        "id": 1127704,
        "latitude": 32.36667,
        "longitude": -86.3
      },
      {
        "numJobs": 104,
        "name": "Evansville, IN",
        "stateAbbreviation": "IN",
        "stateName": "Indiana",
        "id": 1144913,
        "latitude": 37.97472,
        "longitude": -87.55583
      },
      {
        "numJobs": 103,
        "name": "Sioux Falls, SD",
        "stateAbbreviation": "SD",
        "stateName": "South Dakota",
        "id": 1141041,
        "latitude": 43.55,
        "longitude": -96.7
      },
      {
        "numJobs": 103,
        "name": "Fargo, ND",
        "stateAbbreviation": "ND",
        "stateName": "North Dakota",
        "id": 1156255,
        "latitude": 46.87722,
        "longitude": -96.78944
      },
      {
        "numJobs": 103,
        "name": "Saint Petersburg, FL",
        "stateAbbreviation": "FL",
        "stateName": "Florida",
        "id": 1154421,
        "latitude": 27.77056,
        "longitude": -82.67944
      },
      {
        "numJobs": 102,
        "name": "Spartanburg, SC",
        "stateAbbreviation": "SC",
        "stateName": "South Carolina",
        "id": 1155311,
        "latitude": 34.94944,
        "longitude": -81.93222
      },
      {
        "numJobs": 101,
        "name": "Lisle, IL",
        "stateAbbreviation": "IL",
        "stateName": "Illinois",
        "id": 1128900,
        "latitude": 41.80111,
        "longitude": -88.07472
      },
      {
        "numJobs": 101,
        "name": "Amarillo, TX",
        "stateAbbreviation": "TX",
        "stateName": "Texas",
        "id": 1139740,
        "latitude": 35.22194,
        "longitude": -101.83083
      },
      {
        "numJobs": 101,
        "name": "Worcester, MA",
        "stateAbbreviation": "MA",
        "stateName": "Massachusetts",
        "id": 1154962,
        "latitude": 42.2625,
        "longitude": -71.80278
      },
      {
        "numJobs": 101,
        "name": "Berkeley, CA",
        "stateAbbreviation": "CA",
        "stateName": "California",
        "id": 1147330,
        "latitude": 37.87167,
        "longitude": -122.27167
      },
      {
        "numJobs": 100,
        "name": "Clearwater, FL",
        "stateAbbreviation": "FL",
        "stateName": "Florida",
        "id": 1154388,
        "latitude": 27.96556,
        "longitude": -82.80028
      },
      {
        "numJobs": 100,
        "name": "Groton, CT",
        "stateAbbreviation": "CT",
        "stateName": "Connecticut",
        "id": 1148487,
        "latitude": 41.35,
        "longitude": -72.07889
      },
      {
        "numJobs": 98,
        "name": "Naperville, IL",
        "stateAbbreviation": "IL",
        "stateName": "Illinois",
        "id": 1128928,
        "latitude": 41.78583,
        "longitude": -88.14722
      },
      {
        "numJobs": 98,
        "name": "Santa Monica, CA",
        "stateAbbreviation": "CA",
        "stateName": "California",
        "id": 1146873,
        "latitude": 34.01944,
        "longitude": -118.49028
      },
      {
        "numJobs": 98,
        "name": "Morrisville, NC",
        "stateAbbreviation": "NC",
        "stateName": "North Carolina",
        "id": 1138956,
        "latitude": 35.82333,
        "longitude": -78.82583
      },
      {
        "numJobs": 98,
        "name": "Duluth, GA",
        "stateAbbreviation": "GA",
        "stateName": "Georgia",
        "id": 1155612,
        "latitude": 34.00278,
        "longitude": -84.14472
      },
      {
        "numJobs": 98,
        "name": "Aiken, SC",
        "stateAbbreviation": "SC",
        "stateName": "South Carolina",
        "id": 1155044,
        "latitude": 33.56028,
        "longitude": -81.71972
      },
      {
        "numJobs": 97,
        "name": "Bentonville, AR",
        "stateAbbreviation": "AR",
        "stateName": "Arkansas",
        "id": 1143031,
        "latitude": 36.37278,
        "longitude": -94.20861
      },
      {
        "numJobs": 97,
        "name": "Quantico, VA",
        "stateAbbreviation": "VA",
        "stateName": "Virginia",
        "id": 1130401,
        "latitude": 38.52222,
        "longitude": -77.29389
      },
      {
        "numJobs": 97,
        "name": "Columbus, GA",
        "stateAbbreviation": "GA",
        "stateName": "Georgia",
        "id": 1155778,
        "latitude": 32.46083,
        "longitude": -84.98778
      },
      {
        "numJobs": 97,
        "name": "Chaska, MN",
        "stateAbbreviation": "MN",
        "stateName": "Minnesota",
        "id": 1142509,
        "latitude": 44.78944,
        "longitude": -93.60194
      },
      {
        "numJobs": 96,
        "name": "Jackson, MS",
        "stateAbbreviation": "MS",
        "stateName": "Mississippi",
        "id": 1141371,
        "latitude": 32.29861,
        "longitude": -90.18472
      },
      {
        "numJobs": 95,
        "name": "Chesapeake, VA",
        "stateAbbreviation": "VA",
        "stateName": "Virginia",
        "id": 1130279,
        "latitude": 36.81889,
        "longitude": -76.27528
      },
      {
        "numJobs": 95,
        "name": "Holland, MI",
        "stateAbbreviation": "MI",
        "stateName": "Michigan",
        "id": 1134828,
        "latitude": 42.7875,
        "longitude": -86.10889
      },
      {
        "numJobs": 94,
        "name": "Princeton, NJ",
        "stateAbbreviation": "NJ",
        "stateName": "New Jersey",
        "id": 1127179,
        "latitude": 40.34861,
        "longitude": -74.65944
      },
      {
        "numJobs": 94,
        "name": "Lake Charles, LA",
        "stateAbbreviation": "LA",
        "stateName": "Louisiana",
        "id": 1149940,
        "latitude": 30.22639,
        "longitude": -93.21722
      },
      {
        "numJobs": 93,
        "name": "Bakersfield, CA",
        "stateAbbreviation": "CA",
        "stateName": "California",
        "id": 1146557,
        "latitude": 35.37333,
        "longitude": -119.01778
      },
      {
        "numJobs": 93,
        "name": "Schaumburg, IL",
        "stateAbbreviation": "IL",
        "stateName": "Illinois",
        "id": 1128969,
        "latitude": 42.03333,
        "longitude": -88.08333
      },
      {
        "numJobs": 93,
        "name": "Greenbelt, MD",
        "stateAbbreviation": "MD",
        "stateName": "Maryland",
        "id": 1153857,
        "latitude": 39.00444,
        "longitude": -76.87583
      },
      {
        "numJobs": 93,
        "name": "Beaverton, OR",
        "stateAbbreviation": "OR",
        "stateName": "Oregon",
        "id": 1151576,
        "latitude": 45.48722,
        "longitude": -122.8025
      },
      {
        "numJobs": 93,
        "name": "San Ramon, CA",
        "stateAbbreviation": "CA",
        "stateName": "California",
        "id": 1147410,
        "latitude": 37.78,
        "longitude": -121.97694
      },
      {
        "numJobs": 93,
        "name": "Livermore, CA",
        "stateAbbreviation": "CA",
        "stateName": "California",
        "id": 1147367,
        "latitude": 37.68194,
        "longitude": -121.76694
      },
      {
        "numJobs": 93,
        "name": "Danbury, CT",
        "stateAbbreviation": "CT",
        "stateName": "Connecticut",
        "id": 1148332,
        "latitude": 41.39472,
        "longitude": -73.45444
      },
      {
        "numJobs": 92,
        "name": "Columbus, IN",
        "stateAbbreviation": "IN",
        "stateName": "Indiana",
        "id": 1144872,
        "latitude": 39.20139,
        "longitude": -85.92139
      },
      {
        "numJobs": 92,
        "name": "Fayetteville, NC",
        "stateAbbreviation": "NC",
        "stateName": "North Carolina",
        "id": 1138720,
        "latitude": 35.0525,
        "longitude": -78.87861
      },
      {
        "numJobs": 92,
        "name": "Pensacola, FL",
        "stateAbbreviation": "FL",
        "stateName": "Florida",
        "id": 1154318,
        "latitude": 30.42111,
        "longitude": -87.21694
      },
      {
        "numJobs": 92,
        "name": "Walnut Creek, CA",
        "stateAbbreviation": "CA",
        "stateName": "California",
        "id": 1147417,
        "latitude": 37.90639,
        "longitude": -122.06389
      },
      {
        "numJobs": 92,
        "name": "Hayward, CA",
        "stateAbbreviation": "CA",
        "stateName": "California",
        "id": 1147358,
        "latitude": 37.66889,
        "longitude": -122.07972
      },
      {
        "numJobs": 92,
        "name": "Green Bay, WI",
        "stateAbbreviation": "WI",
        "stateName": "Wisconsin",
        "id": 1133406,
        "latitude": 44.51917,
        "longitude": -88.01972
      },
      {
        "numJobs": 91,
        "name": "Dahlgren, VA",
        "stateAbbreviation": "VA",
        "stateName": "Virginia",
        "id": 1129678,
        "latitude": 38.33111,
        "longitude": -77.05139
      },
      {
        "numJobs": 91,
        "name": "Cape Canaveral, FL",
        "stateAbbreviation": "FL",
        "stateName": "Florida",
        "id": 1154280,
        "latitude": 28.40556,
        "longitude": -80.605
      },
      {
        "numJobs": 90,
        "name": "Burbank, CA",
        "stateAbbreviation": "CA",
        "stateName": "California",
        "id": 1146756,
        "latitude": 34.18083,
        "longitude": -118.30806
      },
      {
        "numJobs": 90,
        "name": "Eden Prairie, MN",
        "stateAbbreviation": "MN",
        "stateName": "Minnesota",
        "id": 1142521,
        "latitude": 44.85472,
        "longitude": -93.47056
      },
      {
        "numJobs": 89,
        "name": "Kirkland, WA",
        "stateAbbreviation": "WA",
        "stateName": "Washington",
        "id": 1150472,
        "latitude": 47.68167,
        "longitude": -122.2075
      },
      {
        "numJobs": 88,
        "name": "Pasadena, TX",
        "stateAbbreviation": "TX",
        "stateName": "Texas",
        "id": 1140200,
        "latitude": 29.69083,
        "longitude": -95.20889
      },
      {
        "numJobs": 88,
        "name": "Carrollton, TX",
        "stateAbbreviation": "TX",
        "stateName": "Texas",
        "id": 1139964,
        "latitude": 32.95361,
        "longitude": -96.89
      },
      {
        "numJobs": 88,
        "name": "Fort Myers, FL",
        "stateAbbreviation": "FL",
        "stateName": "Florida",
        "id": 1154016,
        "latitude": 26.64028,
        "longitude": -81.8725
      },
      {
        "numJobs": 87,
        "name": "Peoria, IL",
        "stateAbbreviation": "IL",
        "stateName": "Illinois",
        "id": 1129349,
        "latitude": 40.69361,
        "longitude": -89.58889
      },
      {
        "numJobs": 87,
        "name": "Lancaster, PA",
        "stateAbbreviation": "PA",
        "stateName": "Pennsylvania",
        "id": 1152360,
        "latitude": 40.03778,
        "longitude": -76.30583
      },
      {
        "numJobs": 87,
        "name": "Kansas City, KS",
        "stateAbbreviation": "KS",
        "stateName": "Kansas",
        "id": 4990210,
        "latitude": 39.11417,
        "longitude": -94.62722
      },
      {
        "numJobs": 86,
        "name": "North Charleston, SC",
        "stateAbbreviation": "SC",
        "stateName": "South Carolina",
        "id": 1155093,
        "latitude": 32.85444,
        "longitude": -79.975
      },
      {
        "numJobs": 86,
        "name": "Frederick, MD",
        "stateAbbreviation": "MD",
        "stateName": "Maryland",
        "id": 1153851,
        "latitude": 39.41417,
        "longitude": -77.41083
      },
      {
        "numJobs": 86,
        "name": "Westminster, CO",
        "stateAbbreviation": "CO",
        "stateName": "Colorado",
        "id": 1148207,
        "latitude": 39.83667,
        "longitude": -105.03667
      },
      {
        "numJobs": 85,
        "name": "Franklin, TN",
        "stateAbbreviation": "TN",
        "stateName": "Tennessee",
        "id": 1144518,
        "latitude": 35.925,
        "longitude": -86.86889
      },
      {
        "numJobs": 85,
        "name": "South Bend, IN",
        "stateAbbreviation": "IN",
        "stateName": "Indiana",
        "id": 1145268,
        "latitude": 41.68333,
        "longitude": -86.25
      },
      {
        "numJobs": 85,
        "name": "Manassas, VA",
        "stateAbbreviation": "VA",
        "stateName": "Virginia",
        "id": 1130381,
        "latitude": 38.75083,
        "longitude": -77.47556
      },
      {
        "numJobs": 85,
        "name": "Boca Raton, FL",
        "stateAbbreviation": "FL",
        "stateName": "Florida",
        "id": 1154153,
        "latitude": 26.35833,
        "longitude": -80.08333
      },
      {
        "numJobs": 85,
        "name": "West Chester, PA",
        "stateAbbreviation": "PA",
        "stateName": "Pennsylvania",
        "id": 1152733,
        "latitude": 39.96056,
        "longitude": -75.60583
      },
      {
        "numJobs": 85,
        "name": "Davenport, IA",
        "stateAbbreviation": "IA",
        "stateName": "Iowa",
        "id": 1149216,
        "latitude": 41.52361,
        "longitude": -90.5775
      },
      {
        "numJobs": 85,
        "name": "Richland, WA",
        "stateAbbreviation": "WA",
        "stateName": "Washington",
        "id": 1150330,
        "latitude": 46.28583,
        "longitude": -119.28333
      },
      {
        "numJobs": 84,
        "name": "Rochester Hills, MI",
        "stateAbbreviation": "MI",
        "stateName": "Michigan",
        "id": 1159796,
        "latitude": 42.65833,
        "longitude": -83.15
      },
      {
        "numJobs": 84,
        "name": "Annapolis, MD",
        "stateAbbreviation": "MD",
        "stateName": "Maryland",
        "id": 1153523,
        "latitude": 38.97833,
        "longitude": -76.4925
      },
      {
        "numJobs": 83,
        "name": "Hampton, VA",
        "stateAbbreviation": "VA",
        "stateName": "Virginia",
        "id": 1130294,
        "latitude": 37.02972,
        "longitude": -76.34556
      },
      {
        "numJobs": 83,
        "name": "Corpus Christi, TX",
        "stateAbbreviation": "TX",
        "stateName": "Texas",
        "id": 1139919,
        "latitude": 27.80028,
        "longitude": -97.39611
      },
      {
        "numJobs": 83,
        "name": "Mesa, AZ",
        "stateAbbreviation": "AZ",
        "stateName": "Arizona",
        "id": 1133897,
        "latitude": 33.42222,
        "longitude": -111.82194
      },
      {
        "numJobs": 82,
        "name": "Bloomington, MN",
        "stateAbbreviation": "MN",
        "stateName": "Minnesota",
        "id": 1162257,
        "latitude": 44.84083,
        "longitude": -93.29806
      },
      {
        "numJobs": 82,
        "name": "Pomona, CA",
        "stateAbbreviation": "CA",
        "stateName": "California",
        "id": 1146855,
        "latitude": 34.05528,
        "longitude": -117.75139
      },
      {
        "numJobs": 82,
        "name": "Suffolk, VA",
        "stateAbbreviation": "VA",
        "stateName": "Virginia",
        "id": 1130320,
        "latitude": 36.72806,
        "longitude": -76.58389
      },
      {
        "numJobs": 82,
        "name": "Wilmington, DE",
        "stateAbbreviation": "DE",
        "stateName": "Delaware",
        "id": 1156375,
        "latitude": 39.74583,
        "longitude": -75.54694
      },
      {
        "numJobs": 82,
        "name": "Asheville, NC",
        "stateAbbreviation": "NC",
        "stateName": "North Carolina",
        "id": 1138579,
        "latitude": 35.60083,
        "longitude": -82.55417
      },
      {
        "numJobs": 82,
        "name": "Greenwood Village, Arapahoe, CO",
        "stateAbbreviation": "CO",
        "stateName": "Colorado",
        "id": 1164301,
        "latitude": 39.61722,
        "longitude": -104.95028
      },
      {
        "numJobs": 81,
        "name": "Brooklyn Park, MN",
        "stateAbbreviation": "MN",
        "stateName": "Minnesota",
        "id": 1162260,
        "latitude": 45.09417,
        "longitude": -93.35611
      },
      {
        "numJobs": 81,
        "name": "Lakeland, FL",
        "stateAbbreviation": "FL",
        "stateName": "Florida",
        "id": 1154143,
        "latitude": 28.03917,
        "longitude": -81.95
      },
      {
        "numJobs": 81,
        "name": "Eau Claire, WI",
        "stateAbbreviation": "WI",
        "stateName": "Wisconsin",
        "id": 1133380,
        "latitude": 44.81139,
        "longitude": -91.49833
      },
      {
        "numJobs": 80,
        "name": "Waynesboro, VA",
        "stateAbbreviation": "VA",
        "stateName": "Virginia",
        "id": 1130268,
        "latitude": 38.06833,
        "longitude": -78.88972
      },
      {
        "numJobs": 80,
        "name": "Lubbock, TX",
        "stateAbbreviation": "TX",
        "stateName": "Texas",
        "id": 1140320,
        "latitude": 33.57778,
        "longitude": -101.85472
      },
      {
        "numJobs": 80,
        "name": "Portage, MI",
        "stateAbbreviation": "MI",
        "stateName": "Michigan",
        "id": 1134909,
        "latitude": 42.20111,
        "longitude": -85.58
      },
      {
        "numJobs": 80,
        "name": "Centennial, CO",
        "stateAbbreviation": "CO",
        "stateName": "Colorado",
        "id": 1164284,
        "latitude": 39.57917,
        "longitude": -104.87639
      },
      {
        "numJobs": 80,
        "name": "Middletown, CT",
        "stateAbbreviation": "CT",
        "stateName": "Connecticut",
        "id": 1148411,
        "latitude": 41.56222,
        "longitude": -72.65111
      },
      {
        "numJobs": 79,
        "name": "Downers Grove, IL",
        "stateAbbreviation": "IL",
        "stateName": "Illinois",
        "id": 1128825,
        "latitude": 41.80889,
        "longitude": -88.01111
      },
      {
        "numJobs": 79,
        "name": "Santa Rosa, CA",
        "stateAbbreviation": "CA",
        "stateName": "California",
        "id": 1147518,
        "latitude": 38.44056,
        "longitude": -122.71333
      },
      {
        "numJobs": 79,
        "name": "Stamford, CT",
        "stateAbbreviation": "CT",
        "stateName": "Connecticut",
        "id": 1148355,
        "latitude": 41.05333,
        "longitude": -73.53917
      },
      {
        "numJobs": 78,
        "name": "Mason, OH",
        "stateAbbreviation": "OH",
        "stateName": "Ohio",
        "id": 1145728,
        "latitude": 39.36,
        "longitude": -84.31
      },
      {
        "numJobs": 78,
        "name": "Coventry, RI",
        "stateAbbreviation": "RI",
        "stateName": "Rhode Island",
        "id": 1151252,
        "latitude": 41.7,
        "longitude": -71.68333
      },
      {
        "numJobs": 78,
        "name": "Henderson, NV",
        "stateAbbreviation": "NV",
        "stateName": "Nevada",
        "id": 1149600,
        "latitude": 36.03972,
        "longitude": -114.98111
      },
      {
        "numJobs": 78,
        "name": "Tacoma, WA",
        "stateAbbreviation": "WA",
        "stateName": "Washington",
        "id": 1150517,
        "latitude": 47.25306,
        "longitude": -122.44306
      },
      {
        "numJobs": 78,
        "name": "Valencia, CA",
        "stateAbbreviation": "CA",
        "stateName": "California",
        "id": 1146899,
        "latitude": 34.44361,
        "longitude": -118.60861
      },
      {
        "numJobs": 77,
        "name": "Garland, TX",
        "stateAbbreviation": "TX",
        "stateName": "Texas",
        "id": 1139995,
        "latitude": 32.9125,
        "longitude": -96.63861
      },
      {
        "numJobs": 77,
        "name": "Chelmsford, MA",
        "stateAbbreviation": "MA",
        "stateName": "Massachusetts",
        "id": 1154550,
        "latitude": 42.59972,
        "longitude": -71.36778
      },
      {
        "numJobs": 77,
        "name": "Corvallis, OR",
        "stateAbbreviation": "OR",
        "stateName": "Oregon",
        "id": 1151455,
        "latitude": 44.56472,
        "longitude": -123.26083
      },
      {
        "numJobs": 77,
        "name": "Ontario, CA",
        "stateAbbreviation": "CA",
        "stateName": "California",
        "id": 1147122,
        "latitude": 34.06333,
        "longitude": -117.65
      },
      {
        "numJobs": 76,
        "name": "Roanoke, VA",
        "stateAbbreviation": "VA",
        "stateName": "Virginia",
        "id": 1130242,
        "latitude": 37.27083,
        "longitude": -79.94167
      },
      {
        "numJobs": 76,
        "name": "Allen, TX",
        "stateAbbreviation": "TX",
        "stateName": "Texas",
        "id": 1139946,
        "latitude": 33.10306,
        "longitude": -96.67028
      },
      {
        "numJobs": 76,
        "name": "Wilmington, MA",
        "stateAbbreviation": "MA",
        "stateName": "Massachusetts",
        "id": 1154726,
        "latitude": 42.54639,
        "longitude": -71.17417
      },
      {
        "numJobs": 76,
        "name": "Gainesville, FL",
        "stateAbbreviation": "FL",
        "stateName": "Florida",
        "id": 1154062,
        "latitude": 29.65139,
        "longitude": -82.325
      },
      {
        "numJobs": 76,
        "name": "Kenansville, NC",
        "stateAbbreviation": "NC",
        "stateName": "North Carolina",
        "id": 1138477,
        "latitude": 34.96222,
        "longitude": -77.9625
      },
      {
        "numJobs": 76,
        "name": "Kent, WA",
        "stateAbbreviation": "WA",
        "stateName": "Washington",
        "id": 1150471,
        "latitude": 47.38111,
        "longitude": -122.23361
      },
      {
        "numJobs": 75,
        "name": "Gaithersburg, MD",
        "stateAbbreviation": "MD",
        "stateName": "Maryland",
        "id": 1153852,
        "latitude": 39.14333,
        "longitude": -77.20167
      },
      {
        "numJobs": 75,
        "name": "Sarasota, FL",
        "stateAbbreviation": "FL",
        "stateName": "Florida",
        "id": 1154350,
        "latitude": 27.33611,
        "longitude": -82.53083
      },
      {
        "numJobs": 75,
        "name": "Thousand Oaks, CA",
        "stateAbbreviation": "CA",
        "stateName": "California",
        "id": 1146988,
        "latitude": 34.17056,
        "longitude": -118.83667
      },
      {
        "numJobs": 75,
        "name": "Newark, CA",
        "stateAbbreviation": "CA",
        "stateName": "California",
        "id": 1147377,
        "latitude": 37.52972,
        "longitude": -122.03917
      },
      {
        "numJobs": 74,
        "name": "Clifton, NJ",
        "stateAbbreviation": "NJ",
        "stateName": "New Jersey",
        "id": 1126726,
        "latitude": 40.85833,
        "longitude": -74.16417
      },
      {
        "numJobs": 74,
        "name": "Aurora, IL",
        "stateAbbreviation": "IL",
        "stateName": "Illinois",
        "id": 1128780,
        "latitude": 41.76056,
        "longitude": -88.32
      },
      {
        "numJobs": 74,
        "name": "Lake Forest, CA",
        "stateAbbreviation": "CA",
        "stateName": "California",
        "id": 1146811,
        "latitude": 33.64694,
        "longitude": -117.68833
      },
      {
        "numJobs": 74,
        "name": "Bedford, MA",
        "stateAbbreviation": "MA",
        "stateName": "Massachusetts",
        "id": 1154527,
        "latitude": 42.49056,
        "longitude": -71.27667
      },
      {
        "numJobs": 73,
        "name": "Hunt Valley, MD",
        "stateAbbreviation": "MD",
        "stateName": "Maryland",
        "id": 1153589,
        "latitude": 39.49972,
        "longitude": -76.64139
      },
      {
        "numJobs": 73,
        "name": "Spokane, WA",
        "stateAbbreviation": "WA",
        "stateName": "Washington",
        "id": 1150554,
        "latitude": 47.65889,
        "longitude": -117.425
      },
      {
        "numJobs": 73,
        "name": "South San Francisco, CA",
        "stateAbbreviation": "CA",
        "stateName": "California",
        "id": 1147412,
        "latitude": 37.65472,
        "longitude": -122.40667
      },
      {
        "numJobs": 73,
        "name": "Farmington, CT",
        "stateAbbreviation": "CT",
        "stateName": "Connecticut",
        "id": 1148395,
        "latitude": 41.71972,
        "longitude": -72.8325
      },
      {
        "numJobs": 72,
        "name": "Mojave, CA",
        "stateAbbreviation": "CA",
        "stateName": "California",
        "id": 1146581,
        "latitude": 35.0525,
        "longitude": -118.17306
      },
      {
        "numJobs": 72,
        "name": "Appleton, WI",
        "stateAbbreviation": "WI",
        "stateName": "Wisconsin",
        "id": 1133289,
        "latitude": 44.26194,
        "longitude": -88.41528
      },
      {
        "numJobs": 71,
        "name": "Draper, UT",
        "stateAbbreviation": "UT",
        "stateName": "Utah",
        "id": 1128274,
        "latitude": 40.52472,
        "longitude": -111.86306
      },
      {
        "numJobs": 71,
        "name": "Crestview, FL",
        "stateAbbreviation": "FL",
        "stateName": "Florida",
        "id": 1154045,
        "latitude": 30.76194,
        "longitude": -86.57056
      },
      {
        "numJobs": 71,
        "name": "Hauppauge, NY",
        "stateAbbreviation": "NY",
        "stateName": "New York",
        "id": 1132272,
        "latitude": 40.82556,
        "longitude": -73.20306
      },
      {
        "numJobs": 71,
        "name": "Santa Barbara, CA",
        "stateAbbreviation": "CA",
        "stateName": "California",
        "id": 1147473,
        "latitude": 34.42083,
        "longitude": -119.69722
      },
      {
        "numJobs": 70,
        "name": "Redondo Beach, CA",
        "stateAbbreviation": "CA",
        "stateName": "California",
        "id": 1146859,
        "latitude": 33.84917,
        "longitude": -118.3875
      },
      {
        "numJobs": 70,
        "name": "Shreveport, LA",
        "stateAbbreviation": "LA",
        "stateName": "Louisiana",
        "id": 1150108,
        "latitude": 32.525,
        "longitude": -93.75
      },
      {
        "numJobs": 69,
        "name": "Wilmington, NC",
        "stateAbbreviation": "NC",
        "stateName": "North Carolina",
        "id": 1139117,
        "latitude": 34.22556,
        "longitude": -77.945
      },
      {
        "numJobs": 69,
        "name": "Bismarck, ND",
        "stateAbbreviation": "ND",
        "stateName": "North Dakota",
        "id": 1156224,
        "latitude": 46.80833,
        "longitude": -100.78333
      },
      {
        "numJobs": 69,
        "name": "Portland, ME",
        "stateAbbreviation": "ME",
        "stateName": "Maine",
        "id": 1135898,
        "latitude": 43.66139,
        "longitude": -70.25583
      },
      {
        "numJobs": 69,
        "name": "Woburn, MA",
        "stateAbbreviation": "MA",
        "stateName": "Massachusetts",
        "id": 1154729,
        "latitude": 42.47917,
        "longitude": -71.15278
      },
      {
        "numJobs": 69,
        "name": "Framingham, MA",
        "stateAbbreviation": "MA",
        "stateName": "Massachusetts",
        "id": 1154571,
        "latitude": 42.27917,
        "longitude": -71.41667
      },
      {
        "numJobs": 68,
        "name": "Dublin, OH",
        "stateAbbreviation": "OH",
        "stateName": "Ohio",
        "id": 1145850,
        "latitude": 40.102497,
        "longitude": -83.11432
      },
      {
        "numJobs": 68,
        "name": "Decatur, GA",
        "stateAbbreviation": "GA",
        "stateName": "Georgia",
        "id": 1155610,
        "latitude": 33.77472,
        "longitude": -84.29639
      },
      {
        "numJobs": 68,
        "name": "Hagerstown, MD",
        "stateAbbreviation": "MD",
        "stateName": "Maryland",
        "id": 1153716,
        "latitude": 39.64167,
        "longitude": -77.72028
      },
      {
        "numJobs": 68,
        "name": "Westborough, MA",
        "stateAbbreviation": "MA",
        "stateName": "Massachusetts",
        "id": 1154956,
        "latitude": 42.26944,
        "longitude": -71.61667
      },
      {
        "numJobs": 68,
        "name": "Long Island City, NY",
        "stateAbbreviation": "NY",
        "stateName": "New York",
        "id": 1132310,
        "latitude": 40.756947,
        "longitude": -73.928795
      },
      {
        "numJobs": 68,
        "name": "New Haven, CT",
        "stateAbbreviation": "CT",
        "stateName": "Connecticut",
        "id": 1148466,
        "latitude": 41.30806,
        "longitude": -72.92861
      },
      {
        "numJobs": 67,
        "name": "Raymond, OH",
        "stateAbbreviation": "OH",
        "stateName": "Ohio",
        "id": 1145894,
        "latitude": 40.33472,
        "longitude": -83.46583
      },
      {
        "numJobs": 67,
        "name": "Midland, TX",
        "stateAbbreviation": "TX",
        "stateName": "Texas",
        "id": 1140362,
        "latitude": 31.99722,
        "longitude": -102.0775
      },
      {
        "numJobs": 67,
        "name": "Topeka, KS",
        "stateAbbreviation": "KS",
        "stateName": "Kansas",
        "id": 1151173,
        "latitude": 39.04833,
        "longitude": -95.67778
      },
      {
        "numJobs": 67,
        "name": "Remote, OR",
        "stateAbbreviation": "OR",
        "stateName": "Oregon",
        "id": 1165008,
        "latitude": 43.00611,
        "longitude": -123.89139
      },
      {
        "numJobs": 66,
        "name": "Northbrook, IL",
        "stateAbbreviation": "IL",
        "stateName": "Illinois",
        "id": 1128934,
        "latitude": 42.1275,
        "longitude": -87.82889
      },
      {
        "numJobs": 66,
        "name": "Elkhart, IN",
        "stateAbbreviation": "IN",
        "stateName": "Indiana",
        "id": 1144901,
        "latitude": 41.68194,
        "longitude": -85.97667
      },
      {
        "numJobs": 66,
        "name": "Exton, PA",
        "stateAbbreviation": "PA",
        "stateName": "Pennsylvania",
        "id": 1152576,
        "latitude": 40.02889,
        "longitude": -75.62111
      },
      {
        "numJobs": 66,
        "name": "Simi Valley, CA",
        "stateAbbreviation": "CA",
        "stateName": "California",
        "id": 1146986,
        "latitude": 34.26944,
        "longitude": -118.78056
      },
      {
        "numJobs": 66,
        "name": "Fond du Lac, WI",
        "stateAbbreviation": "WI",
        "stateName": "Wisconsin",
        "id": 1133392,
        "latitude": 43.77306,
        "longitude": -88.44694
      },
      {
        "numJobs": 65,
        "name": "Rolling Meadows, IL",
        "stateAbbreviation": "IL",
        "stateName": "Illinois",
        "id": 1128962,
        "latitude": 42.08417,
        "longitude": -88.01306
      },
      {
        "numJobs": 65,
        "name": "Wallops Island, VA",
        "stateAbbreviation": "VA",
        "stateName": "Virginia",
        "id": 1129923,
        "latitude": 37.86257,
        "longitude": -75.462906
      },
      {
        "numJobs": 65,
        "name": "Warsaw, IN",
        "stateAbbreviation": "IN",
        "stateName": "Indiana",
        "id": 1145346,
        "latitude": 41.23806,
        "longitude": -85.85306
      },
      {
        "numJobs": 65,
        "name": "Stafford, VA",
        "stateAbbreviation": "VA",
        "stateName": "Virginia",
        "id": 1130410,
        "latitude": 38.42194,
        "longitude": -77.40861
      },
      {
        "numJobs": 65,
        "name": "Roles Inn of America, AZ",
        "stateAbbreviation": "AZ",
        "stateName": "Arizona",
        "id": 3741533,
        "latitude": 33.54472,
        "longitude": -112.16694
      },
      {
        "numJobs": 65,
        "name": "Oshkosh, WI",
        "stateAbbreviation": "WI",
        "stateName": "Wisconsin",
        "id": 1133637,
        "latitude": 44.02472,
        "longitude": -88.5425
      },
      {
        "numJobs": 64,
        "name": "Mahwah, NJ",
        "stateAbbreviation": "NJ",
        "stateName": "New Jersey",
        "id": 1126857,
        "latitude": 41.08861,
        "longitude": -74.14417
      },
      {
        "numJobs": 64,
        "name": "Findlay, OH",
        "stateAbbreviation": "OH",
        "stateName": "Ohio",
        "id": 1146001,
        "latitude": 41.04417,
        "longitude": -83.65
      },
      {
        "numJobs": 64,
        "name": "Newport Beach, CA",
        "stateAbbreviation": "CA",
        "stateName": "California",
        "id": 1146837,
        "latitude": 33.61889,
        "longitude": -117.92806
      },
      {
        "numJobs": 64,
        "name": "Windsor, CT",
        "stateAbbreviation": "CT",
        "stateName": "Connecticut",
        "id": 1148450,
        "latitude": 41.8525,
        "longitude": -72.64417
      },
      {
        "numJobs": 63,
        "name": "Fort Bragg, NC",
        "stateAbbreviation": "NC",
        "stateName": "North Carolina",
        "id": 1138721,
        "latitude": 35.13975,
        "longitude": -78.99903
      },
      {
        "numJobs": 63,
        "name": "Silver Spring, MD",
        "stateAbbreviation": "MD",
        "stateName": "Maryland",
        "id": 1153904,
        "latitude": 38.99056,
        "longitude": -77.02639
      },
      {
        "numJobs": 63,
        "name": "Lake Mary, FL",
        "stateAbbreviation": "FL",
        "stateName": "Florida",
        "id": 1154234,
        "latitude": 28.75861,
        "longitude": -81.31806
      },
      {
        "numJobs": 63,
        "name": "Newport, RI",
        "stateAbbreviation": "RI",
        "stateName": "Rhode Island",
        "id": 1151279,
        "latitude": 41.49,
        "longitude": -71.31333
      },
      {
        "numJobs": 63,
        "name": "North Haven, CT",
        "stateAbbreviation": "CT",
        "stateName": "Connecticut",
        "id": 1148468,
        "latitude": 41.39083,
        "longitude": -72.86
      },
      {
        "numJobs": 62,
        "name": "Kennesaw, GA",
        "stateAbbreviation": "GA",
        "stateName": "Georgia",
        "id": 1155639,
        "latitude": 34.02333,
        "longitude": -84.61556
      },
      {
        "numJobs": 62,
        "name": "Bethlehem, PA",
        "stateAbbreviation": "PA",
        "stateName": "Pennsylvania",
        "id": 1151922,
        "latitude": 40.62583,
        "longitude": -75.37083
      },
      {
        "numJobs": 62,
        "name": "Hebron, KY",
        "stateAbbreviation": "KY",
        "stateName": "Kentucky",
        "id": 1137573,
        "latitude": 39.06583,
        "longitude": -84.70111
      },
      {
        "numJobs": 61,
        "name": "Morristown, NJ",
        "stateAbbreviation": "NJ",
        "stateName": "New Jersey",
        "id": 1126891,
        "latitude": 40.79667,
        "longitude": -74.48194
      },
      {
        "numJobs": 61,
        "name": "Huntington Beach, CA",
        "stateAbbreviation": "CA",
        "stateName": "California",
        "id": 1146795,
        "latitude": 33.66028,
        "longitude": -117.99833
      },
      {
        "numJobs": 61,
        "name": "Foster City, CA",
        "stateAbbreviation": "CA",
        "stateName": "California",
        "id": 1163997,
        "latitude": 37.55861,
        "longitude": -122.27
      },
      {
        "numJobs": 60,
        "name": "Somerset, NJ",
        "stateAbbreviation": "NJ",
        "stateName": "New Jersey",
        "id": 1126989,
        "latitude": 40.4975,
        "longitude": -74.48889
      },
      {
        "numJobs": 60,
        "name": "Florence, AL",
        "stateAbbreviation": "AL",
        "stateName": "Alabama",
        "id": 1127615,
        "latitude": 34.79972,
        "longitude": -87.67722
      },
      {
        "numJobs": 60,
        "name": "Williamsburg, VA",
        "stateAbbreviation": "VA",
        "stateName": "Virginia",
        "id": 1130328,
        "latitude": 37.27056,
        "longitude": -76.70778
      },
      {
        "numJobs": 60,
        "name": "Billerica, MA",
        "stateAbbreviation": "MA",
        "stateName": "Massachusetts",
        "id": 1154531,
        "latitude": 42.55833,
        "longitude": -71.26944
      },
      {
        "numJobs": 60,
        "name": "White Plains, NY",
        "stateAbbreviation": "NY",
        "stateName": "New York",
        "id": 1132464,
        "latitude": 41.03389,
        "longitude": -73.76333
      },
      {
        "numJobs": 60,
        "name": "Carson City, NV",
        "stateAbbreviation": "NV",
        "stateName": "Nevada",
        "id": 1149563,
        "latitude": 39.16389,
        "longitude": -119.76639
      },
      {
        "numJobs": 60,
        "name": "El Cajon, CA",
        "stateAbbreviation": "CA",
        "stateName": "California",
        "id": 1147285,
        "latitude": 32.79472,
        "longitude": -116.96167
      },
      {
        "numJobs": 59,
        "name": "Wayne, NJ",
        "stateAbbreviation": "NJ",
        "stateName": "New Jersey",
        "id": 1127034,
        "latitude": 40.92528,
        "longitude": -74.27694
      },
      {
        "numJobs": 59,
        "name": "Hill AFB, UT",
        "stateAbbreviation": "UT",
        "stateName": "Utah",
        "id": 1128214,
        "latitude": 41.120888,
        "longitude": -111.982056
      },
      {
        "numJobs": 59,
        "name": "Falls Church, VA",
        "stateAbbreviation": "VA",
        "stateName": "Virginia",
        "id": 1130361,
        "latitude": 38.88222,
        "longitude": -77.17139
      },
      {
        "numJobs": 59,
        "name": "Greenville, NC",
        "stateAbbreviation": "NC",
        "stateName": "North Carolina",
        "id": 1138785,
        "latitude": 35.6125,
        "longitude": -77.36667
      },
      {
        "numJobs": 59,
        "name": "West Columbia, SC",
        "stateAbbreviation": "SC",
        "stateName": "South Carolina",
        "id": 1155154,
        "latitude": 33.99333,
        "longitude": -81.07417
      },
      {
        "numJobs": 59,
        "name": "Chula Vista, CA",
        "stateAbbreviation": "CA",
        "stateName": "California",
        "id": 1147280,
        "latitude": 32.64,
        "longitude": -117.08333
      },
      {
        "numJobs": 59,
        "name": "Windsor Locks, CT",
        "stateAbbreviation": "CT",
        "stateName": "Connecticut",
        "id": 1148451,
        "latitude": 41.92917,
        "longitude": -72.62778
      },
      {
        "numJobs": 58,
        "name": "Sidney, OH",
        "stateAbbreviation": "OH",
        "stateName": "Ohio",
        "id": 1146170,
        "latitude": 40.28417,
        "longitude": -84.15556
      },
      {
        "numJobs": 58,
        "name": "Redlands, CA",
        "stateAbbreviation": "CA",
        "stateName": "California",
        "id": 1147135,
        "latitude": 34.05556,
        "longitude": -117.18167
      },
      {
        "numJobs": 57,
        "name": "Idaho Falls, ID",
        "stateAbbreviation": "ID",
        "stateName": "Idaho",
        "id": 1127978,
        "latitude": 43.46667,
        "longitude": -112.03333
      },
      {
        "numJobs": 57,
        "name": "Elgin, IL",
        "stateAbbreviation": "IL",
        "stateName": "Illinois",
        "id": 1128828,
        "latitude": 42.03722,
        "longitude": -88.28111
      },
      {
        "numJobs": 57,
        "name": "Florence, SC",
        "stateAbbreviation": "SC",
        "stateName": "South Carolina",
        "id": 1155168,
        "latitude": 34.19528,
        "longitude": -79.76278
      },