{
  "success": true,
  "status": "OK",
  "jsessionid": "DE90448EE044A90786459F6687F15E9E",
  "response": {
    "attributionURL": "http://www.glassdoor.com/Job/jobs.htm",
    "countReturned": 56,
    "states": {
      "South Carolina": {
        "numJobs": 21810,
        "name": "South Carolina",
        "id": 3411,
        "score": 0.8553545567578821,
        "latitude": 33.985115,
        "longitude": -80.96936
      },
      "Rhode Island": {
        "numJobs": 4674,
        "name": "Rhode Island",
        "id": 3156,
        "score": 0.7270251273874534,
        "latitude": 41.675617,
        "longitude": -71.503815
      },
      "New Mexico": {
        "numJobs": 12700,
        "name": "New Mexico",
        "id": 1181,
        "score": 0.8247034434507914,
        "latitude": 34.695763,
        "longitude": -106.22367
      },
      "Florida": {
        "numJobs": 86378,
        "name": "Florida",
        "id": 3318,
        "score": 0.9689036439851131,
        "latitude": 28.63532,
        "longitude": -82.39836
      },
      "Alabama": {
        "numJobs": 16484,
        "name": "Alabama",
        "id": 105,
        "score": 0.8180823255184926,
        "latitude": 33.074646,
        "longitude": -86.72501
      },
      "California": {
        "numJobs": 145544,
        "name": "California",
        "id": 2280,
        "score": 0.9965847651934948,
        "latitude": 37.016674,
        "longitude": -120.15913
      },
      "New Hampshire": {
        "numJobs": 9629,
        "name": "New Hampshire",
        "id": 2403,
        "score": 0.8060419629898412,
        "latitude": 43.409595,
        "longitude": -71.541885
      },
      "Puerto Rico": {
        "numJobs": 231,
        "name": "Puerto Rico",
        "id": 1618,
        "score": 0.5067018326763375,
        "latitude": 18.250437,
        "longitude": -66.402916
      },
      "Remote": {
        "numJobs": 208,
        "name": "Remote",
        "id": 11047,
        "score": 0.5088552582930983,
        "latitude": "",
        "longitude": ""
      },
      "Massachusetts": {
        "numJobs": 41694,
        "name": "Massachusetts",
        "id": 3399,
        "score": 0.9059814278833276,
        "latitude": 42.204845,
        "longitude": -71.496826
      },
      "Tennessee": {
        "numJobs": 30206,
        "name": "Tennessee",
        "id": 1968,
        "score": 0.8738025382611384,
        "latitude": 35.869774,
        "longitude": -85.69873
      },
      "Maryland": {
        "numJobs": 29027,
        "name": "Maryland",
        "id": 3201,
        "score": 0.8701120800401857,
        "latitude": 39.13058,
        "longitude": -76.71935
      },
      "Louisiana": {
        "numJobs": 14719,
        "name": "Louisiana",
        "id": 2792,
        "score": 0.8164452113533329,
        "latitude": 31.05971,
        "longitude": -91.839554
      },
      "Ohio": {
        "numJobs": 44176,
        "name": "Ohio",
        "id": 2235,
        "score": 0.8915278375736856,
        "latitude": 40.20804,
        "longitude": -82.68456
      },
      "West Virginia": {
        "numJobs": 9055,
        "name": "West Virginia",
        "id": 1939,
        "score": 0.7801399035309581,
        "latitude": 38.646973,
        "longitude": -80.79809
      },
      "Idaho": {
        "numJobs": 5421,
        "name": "Idaho",
        "id": 132,
        "score": 0.7327816121529992,
        "latitude": 44.72104,
        "longitude": -114.83413
      },
      "Virginia": {
        "numJobs": 47557,
        "name": "Virginia",
        "id": 323,
        "score": 0.9161712201530078,
        "latitude": 37.71112,
        "longitude": -78.51438
      },
      "Mississippi": {
        "numJobs": 9237,
        "name": "Mississippi",
        "id": 1553,
        "score": 0.7709204039202263,
        "latitude": 32.81446,
        "longitude": -89.712814
      },
      "Texas": {
        "numJobs": 129243,
        "name": "Texas",
        "id": 1347,
        "score": 1,
        "latitude": 30.541521,
        "longitude": -97.844345
      },
      "Vermont": {
        "numJobs": 4422,
        "name": "Vermont",
        "id": 1765,
        "score": 0.753710485922131,
        "latitude": 44.01336,
        "longitude": -72.68488
      },
      "Wyoming": {
        "numJobs": 3655,
        "name": "Wyoming",
        "id": 1258,
        "score": 0.7236264665001363,
        "latitude": 42.800774,
        "longitude": -107.330284
      },
      "New York": {
        "numJobs": 58065,
        "name": "New York",
        "id": 428,
        "score": 0.9164557923944046,
        "latitude": 42.56897,
        "longitude": -75.477
      },
      "Kansas": {
        "numJobs": 14847,
        "name": "Kansas",
        "id": 3107,
        "score": 0.8210368709580818,
        "latitude": 38.453106,
        "longitude": -97.173775
      },
      "Guam": {
        "numJobs": 28,
        "name": "Guam",
        "id": 566,
        "score": 0.354227840191498,
        "latitude": 13.442065,
        "longitude": 144.7609
      },
      "Michigan": {
        "numJobs": 30819,
        "name": "Michigan",
        "id": 527,
        "score": 0.8672943156228254,
        "latitude": 43.92309,
        "longitude": -85.22649
      },
      "New Jersey": {
        "numJobs": 36675,
        "name": "New Jersey",
        "id": 39,
        "score": 0.8839595687385549,
        "latitude": 40.219467,
        "longitude": -74.63167
      },
      "Colorado": {
        "numJobs": 24002,
        "name": "Colorado",
        "id": 2519,
        "score": 0.846651892992977,
        "latitude": 39.152225,
        "longitude": -105.41113
      },
      "Pennsylvania": {
        "numJobs": 60135,
        "name": "Pennsylvania",
        "id": 3185,
        "score": 0.9259706714209348,
        "latitude": 40.60347,
        "longitude": -77.41482
      },
      "Maine": {
        "numJobs": 9588,
        "name": "Maine",
        "id": 758,
        "score": 0.8140223524310239,
        "latitude": 44.6072,
        "longitude": -69.434845
      },
      "Arkansas": {
        "numJobs": 14422,
        "name": "Arkansas",
        "id": 1892,
        "score": 0.8174753972124433,
        "latitude": 34.997967,
        "longitude": -92.32213
      },
      "Missouri": {
        "numJobs": 28528,
        "name": "Missouri",
        "id": 386,
        "score": 0.8613778653267661,
        "latitude": 38.196053,
        "longitude": -92.25109
      },
      "Iowa": {
        "numJobs": 17871,
        "name": "Iowa",
        "id": 2733,
        "score": 0.8347476898601022,
        "latitude": 42.001587,
        "longitude": -93.15462
      },
      "Oregon": {
        "numJobs": 19867,
        "name": "Oregon",
        "id": 3163,
        "score": 0.8478290063403255,
        "latitude": 44.54903,
        "longitude": -122.14273
      },
      "North Dakota": {
        "numJobs": 6269,
        "name": "North Dakota",
        "id": 3517,
        "score": 0.789163813268166,
        "latitude": 47.52474,
        "longitude": -99.81501
      },
      "Indiana": {
        "numJobs": 30700,
        "name": "Indiana",
        "id": 2124,
        "score": 0.8680748610404673,
        "latitude": 39.853703,
        "longitude": -86.26825
      },
      "Northern Mariana Islands": {
        "numJobs": 15,
        "name": "Northern Mariana Islands",
        "id": 50,
        "score": 0.32655649263272185,
        "latitude": 14.803838,
        "longitude": 145.55148
      },
      "Wisconsin": {
        "numJobs": 25818,
        "name": "Wisconsin",
        "id": 481,
        "score": 0.8608629519636374,
        "latitude": 44.22958,
        "longitude": -89.65535
      },
      "Virgin Islands": {
        "numJobs": 33,
        "name": "Virgin Islands",
        "id": 2564,
        "score": 0.3870665236965589,
        "latitude": 17.97962,
        "longitude": -64.825584
      },
      "Nevada": {
        "numJobs": 13018,
        "name": "Nevada",
        "id": 2756,
        "score": 0.8129736160770971,
        "latitude": 39.09225,
        "longitude": -116.94037
      },
      "Minnesota": {
        "numJobs": 28091,
        "name": "Minnesota",
        "id": 1775,
        "score": 0.8748319568276287,
        "latitude": 45.81953,
        "longitude": -93.99869
      },
      "Delaware": {
        "numJobs": 3932,
        "name": "Delaware",
        "id": 3523,
        "score": 0.7086282683035926,
        "latitude": 39.267464,
        "longitude": -75.50684
      },
      "Washington": {
        "numJobs": 40013,
        "name": "Washington",
        "id": 3020,
        "score": 0.9084021945373152,
        "latitude": 47.318367,
        "longitude": -121.16399
      },
      "Illinois": {
        "numJobs": 51811,
        "name": "Illinois",
        "id": 302,
        "score": 0.9009464028288453,
        "latitude": 40.22442,
        "longitude": -89.00813
      },
      "Hawaii": {
        "numJobs": 3447,
        "name": "Hawaii",
        "id": 1385,
        "score": 0.7072963387086013,
        "latitude": 20.773073,
        "longitude": -156.91919
      },
      "Connecticut": {
        "numJobs": 15839,
        "name": "Connecticut",
        "id": 2697,
        "score": 0.8206951345703491,
        "latitude": 41.5664,
        "longitude": -72.77289
      },
      "Montana": {
        "numJobs": 5651,
        "name": "Montana",
        "id": 669,
        "score": 0.7583058938533923,
        "latitude": 46.91542,
        "longitude": -110.718666
      },
      "District of Columbia": {
        "numJobs": 5904,
        "name": "District of Columbia",
        "id": 1211,
        "score": 0.7397957990891636,
        "latitude": 38.895,
        "longitude": -77.03667
      },
      "Oklahoma": {
        "numJobs": 16525,
        "name": "Oklahoma",
        "id": 847,
        "score": 0.8320289665836067,
        "latitude": 35.427067,
        "longitude": -96.773994
      },
      "Arizona": {
        "numJobs": 30366,
        "name": "Arizona",
        "id": 483,
        "score": 0.8819079279048092,
        "latitude": 33.67677,
        "longitude": -111.58828
      },
      "North Carolina": {
        "numJobs": 41677,
        "name": "North Carolina",
        "id": 1282,
        "score": 0.9009179628134933,
        "latitude": 35.576843,
        "longitude": -79.53007
      },
      "Kentucky": {
        "numJobs": 22182,
        "name": "Kentucky",
        "id": 1141,
        "score": 0.8490110797777993,
        "latitude": 37.58137,
        "longitude": -84.888466
      },
      "Alaska": {
        "numJobs": 5083,
        "name": "Alaska",
        "id": 496,
        "score": 0.7714306373171418,
        "latitude": 61.27834,
        "longitude": -150.32988
      },
      "Georgia": {
        "numJobs": 40050,
        "name": "Georgia",
        "id": 3426,
        "score": 0.8908452636216923,
        "latitude": 33.18301,
        "longitude": -83.751396
      },
      "Utah": {
        "numJobs": 9289,
        "name": "Utah",
        "id": 255,
        "score": 0.7753774769411456,
        "latitude": 40.30287,
        "longitude": -111.84235
      },
      "Nebraska": {
        "numJobs": 11056,
        "name": "Nebraska",
        "id": 792,
        "score": 0.813432382257741,
        "latitude": 41.321033,
        "longitude": -98.7876
      },
      "South Dakota": {
        "numJobs": 6993,
        "name": "South Dakota",
        "id": 1502,
        "score": 0.7949676390155281,
        "latitude": 44.289787,
        "longitude": -99.61724
      }
    },
    "cities": [
      {
        "numJobs": 14567,
        "name": "Houston, TX",
        "stateAbbreviation": "TX",
        "stateName": "Texas",
        "id": 1140171,
        "latitude": 29.76306,
        "longitude": -95.36306
      },
      {
        "numJobs": 12874,
        "name": "New York, NY",
        "stateAbbreviation": "NY",
        "stateName": "New York",
        "id": 1132348,
        "latitude": 40.71417,
        "longitude": -74.00639
      },
      {
        "numJobs": 10605,
        "name": "Dallas, TX",
        "stateAbbreviation": "TX",
        "stateName": "Texas",
        "id": 1139977,
        "latitude": 32.78333,
        "longitude": -96.8
      },
      {
        "numJobs": 10054,
        "name": "Los Angeles, CA",
        "stateAbbreviation": "CA",
        "stateName": "California",
        "id": 1146821,
        "latitude": 34.05222,
        "longitude": -118.24278
      },
      {
        "numJobs": 9440,
        "name": "Round Rock, TX",
        "stateAbbreviation": "TX",
        "stateName": "Texas",
        "id": 1139794,
        "latitude": 30.50806,
        "longitude": -97.67861
      },
      {
        "numJobs": 8805,
        "name": "San Antonio, TX",
        "stateAbbreviation": "TX",
        "stateName": "Texas",
        "id": 1140494,
        "latitude": 29.42389,
        "longitude": -98.49333
      },
      {
        "numJobs": 8468,
        "name": "Chicago, IL",
        "stateAbbreviation": "IL",
        "stateName": "Illinois",
        "id": 1128808,
        "latitude": 41.85,
        "longitude": -87.65
      },
      {
        "numJobs": 8370,
        "name": "Atlanta, GA",
        "stateAbbreviation": "GA",
        "stateName": "Georgia",
        "id": 1155583,
        "latitude": 33.74889,
        "longitude": -84.38806
      },
      {
        "numJobs": 8104,
        "name": "Seattle, WA",
        "stateAbbreviation": "WA",
        "stateName": "Washington",
        "id": 1150505,
        "latitude": 47.60639,
        "longitude": -122.33083
      },
      {
        "numJobs": 8089,
        "name": "Phoenix, AZ",
        "stateAbbreviation": "AZ",
        "stateName": "Arizona",
        "id": 1133904,
        "latitude": 33.44833,
        "longitude": -112.07333
      },
      {
        "numJobs": 7971,
        "name": "Baltimore, MD",
        "stateAbbreviation": "MD",
        "stateName": "Maryland",
        "id": 1153527,
        "latitude": 39.29028,
        "longitude": -76.6125
      },
      {
        "numJobs": 7496,
        "name": "Boston, MA",
        "stateAbbreviation": "MA",
        "stateName": "Massachusetts",
        "id": 1154532,
        "latitude": 42.35833,
        "longitude": -71.06028
      },
      {
        "numJobs": 7409,
        "name": "Austin, TX",
        "stateAbbreviation": "TX",
        "stateName": "Texas",
        "id": 1139761,
        "latitude": 30.26694,
        "longitude": -97.74278
      },
      {
        "numJobs": 6537,
        "name": "Philadelphia, PA",
        "stateAbbreviation": "PA",
        "stateName": "Pennsylvania",
        "id": 1152672,
        "latitude": 39.95222,
        "longitude": -75.16417
      },
      {
        "numJobs": 6505,
        "name": "Las Vegas, NV",
        "stateAbbreviation": "NV",
        "stateName": "Nevada",
        "id": 1149603,
        "latitude": 36.175,
        "longitude": -115.13639
      },
      {
        "numJobs": 6218,
        "name": "Louisville, KY",
        "stateAbbreviation": "KY",
        "stateName": "Kentucky",
        "id": 1137724,
        "latitude": 38.25417,
        "longitude": -85.75944
      },
      {
        "numJobs": 5904,
        "name": "Washington, DC",
        "stateAbbreviation": "DC",
        "stateName": "District of Columbia",
        "id": 1138213,
        "latitude": 38.895,
        "longitude": -77.03667
      },
      {
        "numJobs": 5875,
        "name": "Richmond, VA",
        "stateAbbreviation": "VA",
        "stateName": "Virginia",
        "id": 1130198,
        "latitude": 37.55361,
        "longitude": -77.46056
      },
      {
        "numJobs": 5719,
        "name": "Indianapolis, IN",
        "stateAbbreviation": "IN",
        "stateName": "Indiana",
        "id": 1145013,
        "latitude": 39.76833,
        "longitude": -86.15806
      },
      {
        "numJobs": 5713,
        "name": "San Francisco, CA",
        "stateAbbreviation": "CA",
        "stateName": "California",
        "id": 1147401,
        "latitude": 37.775,
        "longitude": -122.41833
      },
      {
        "numJobs": 5245,
        "name": "Portland, OR",
        "stateAbbreviation": "OR",
        "stateName": "Oregon",
        "id": 1151614,
        "latitude": 45.52361,
        "longitude": -122.675
      },
      {
        "numJobs": 5087,
        "name": "Orlando, FL",
        "stateAbbreviation": "FL",
        "stateName": "Florida",
        "id": 1154247,
        "latitude": 28.53806,
        "longitude": -81.37944
      },
      {
        "numJobs": 4947,
        "name": "Saint Louis, MO",
        "stateAbbreviation": "MO",
        "stateName": "Missouri",
        "id": 1131270,
        "latitude": 38.636864,
        "longitude": -90.28388
      },
      {
        "numJobs": 4848,
        "name": "Memphis, TN",
        "stateAbbreviation": "TN",
        "stateName": "Tennessee",
        "id": 1144463,
        "latitude": 35.14944,
        "longitude": -90.04889
      },
      {
        "numJobs": 4814,
        "name": "Denver, CO",
        "stateAbbreviation": "CO",
        "stateName": "Colorado",
        "id": 1148170,
        "latitude": 39.73917,
        "longitude": -104.98417
      },
      {
        "numJobs": 4778,
        "name": "San Diego, CA",
        "stateAbbreviation": "CA",
        "stateName": "California",
        "id": 1147311,
        "latitude": 32.71528,
        "longitude": -117.15639
      },
      {
        "numJobs": 4618,
        "name": "Tampa, FL",
        "stateAbbreviation": "FL",
        "stateName": "Florida",
        "id": 1154429,
        "latitude": 27.94722,
        "longitude": -82.45861
      },
      {
        "numJobs": 4421,
        "name": "Fort Worth, TX",
        "stateAbbreviation": "TX",
        "stateName": "Texas",
        "id": 1139993,
        "latitude": 32.72528,
        "longitude": -97.32056
      },
      {
        "numJobs": 4288,
        "name": "Pittsburgh, PA",
        "stateAbbreviation": "PA",
        "stateName": "Pennsylvania",
        "id": 1152990,
        "latitude": 40.44056,
        "longitude": -79.99611
      },
      {
        "numJobs": 4182,
        "name": "Tucson, AZ",
        "stateAbbreviation": "AZ",
        "stateName": "Arizona",
        "id": 1133996,
        "latitude": 32.22167,
        "longitude": -110.92583
      },
      {
        "numJobs": 4178,
        "name": "Oklahoma City, OK",
        "stateAbbreviation": "OK",
        "stateName": "Oklahoma",
        "id": 1136950,
        "latitude": 35.4675,
        "longitude": -97.51611
      },
      {
        "numJobs": 3990,
        "name": "Charlotte, NC",
        "stateAbbreviation": "NC",
        "stateName": "North Carolina",
        "id": 1138644,
        "latitude": 35.22694,
        "longitude": -80.84333
      },
      {
        "numJobs": 3984,
        "name": "Sacramento, CA",
        "stateAbbreviation": "CA",
        "stateName": "California",
        "id": 1147229,
        "latitude": 38.58167,
        "longitude": -121.49333
      },
      {
        "numJobs": 3891,
        "name": "Denville, NJ",
        "stateAbbreviation": "NJ",
        "stateName": "New Jersey",
        "id": 1126738,
        "latitude": 40.89222,
        "longitude": -74.47778
      },
      {
        "numJobs": 3712,
        "name": "Fort Myers, FL",
        "stateAbbreviation": "FL",
        "stateName": "Florida",
        "id": 1154016,
        "latitude": 26.64028,
        "longitude": -81.8725
      },
      {
        "numJobs": 3695,
        "name": "Cincinnati, OH",
        "stateAbbreviation": "OH",
        "stateName": "Ohio",
        "id": 1145705,
        "latitude": 39.16194,
        "longitude": -84.45694
      },
      {
        "numJobs": 3665,
        "name": "Springfield, MO",
        "stateAbbreviation": "MO",
        "stateName": "Missouri",
        "id": 1131348,
        "latitude": 37.21528,
        "longitude": -93.29806
      },
      {
        "numJobs": 3645,
        "name": "Miami, FL",
        "stateAbbreviation": "FL",
        "stateName": "Florida",
        "id": 1154170,
        "latitude": 25.77389,
        "longitude": -80.19389
      },
      {
        "numJobs": 3620,
        "name": "Minneapolis, MN",
        "stateAbbreviation": "MN",
        "stateName": "Minnesota",
        "id": 1142551,
        "latitude": 44.98,
        "longitude": -93.26361
      },
      {
        "numJobs": 3620,
        "name": "Columbia, SC",
        "stateAbbreviation": "SC",
        "stateName": "South Carolina",
        "id": 1155132,
        "latitude": 34.00056,
        "longitude": -81.035
      },
      {
        "numJobs": 3617,
        "name": "Omaha, NE",
        "stateAbbreviation": "NE",
        "stateName": "Nebraska",
        "id": 1136440,
        "latitude": 41.25861,
        "longitude": -95.9375
      },
      {
        "numJobs": 3614,
        "name": "Nashville, TN",
        "stateAbbreviation": "TN",
        "stateName": "Tennessee",
        "id": 1144541,
        "latitude": 36.16583,
        "longitude": -86.78444
      },
      {
        "numJobs": 3503,
        "name": "Columbus, OH",
        "stateAbbreviation": "OH",
        "stateName": "Ohio",
        "id": 1145845,
        "latitude": 39.96111,
        "longitude": -82.99889
      },
      {
        "numJobs": 3417,
        "name": "Little Rock, AR",
        "stateAbbreviation": "AR",
        "stateName": "Arkansas",
        "id": 1143190,
        "latitude": 34.74639,
        "longitude": -92.28944
      },
      {
        "numJobs": 3400,
        "name": "Kansas City, MO",
        "stateAbbreviation": "MO",
        "stateName": "Missouri",
        "id": 1131040,
        "latitude": 39.09972,
        "longitude": -94.57833
      },
      {
        "numJobs": 3377,
        "name": "Jacksonville, FL",
        "stateAbbreviation": "FL",
        "stateName": "Florida",
        "id": 1154093,
        "latitude": 30.33194,
        "longitude": -81.65583
      },
      {
        "numJobs": 3305,
        "name": "Albuquerque, NM",
        "stateAbbreviation": "NM",
        "stateName": "New Mexico",
        "id": 1137959,
        "latitude": 35.08444,
        "longitude": -106.65056
      },
      {
        "numJobs": 3038,
        "name": "El Paso, TX",
        "stateAbbreviation": "TX",
        "stateName": "Texas",
        "id": 1140105,
        "latitude": 31.75861,
        "longitude": -106.48639
      },
      {
        "numJobs": 2989,
        "name": "Salt Lake City, UT",
        "stateAbbreviation": "UT",
        "stateName": "Utah",
        "id": 1128289,
        "latitude": 40.76083,
        "longitude": -111.89028
      },
      {
        "numJobs": 2931,
        "name": "Spokane, WA",
        "stateAbbreviation": "WA",
        "stateName": "Washington",
        "id": 1150554,
        "latitude": 47.65889,
        "longitude": -117.425
      },
      {
        "numJobs": 2900,
        "name": "Birmingham, AL",
        "stateAbbreviation": "AL",
        "stateName": "Alabama",
        "id": 1127429,
        "latitude": 33.52056,
        "longitude": -86.8025
      },
      {
        "numJobs": 2867,
        "name": "Norfolk, VA",
        "stateAbbreviation": "VA",
        "stateName": "Virginia",
        "id": 1130306,
        "latitude": 36.84667,
        "longitude": -76.28556
      },
      {
        "numJobs": 2833,
        "name": "Tacoma, WA",
        "stateAbbreviation": "WA",
        "stateName": "Washington",
        "id": 1150517,
        "latitude": 47.25306,
        "longitude": -122.44306
      },
      {
        "numJobs": 2716,
        "name": "Milwaukee, WI",
        "stateAbbreviation": "WI",
        "stateName": "Wisconsin",
        "id": 1133579,
        "latitude": 43.03889,
        "longitude": -87.90639
      },
      {
        "numJobs": 2669,
        "name": "Raleigh, NC",
        "stateAbbreviation": "NC",
        "stateName": "North Carolina",
        "id": 1138960,
        "latitude": 35.77194,
        "longitude": -78.63889
      },
      {
        "numJobs": 2667,
        "name": "San Jose, CA",
        "stateAbbreviation": "CA",
        "stateName": "California",
        "id": 1147436,
        "latitude": 37.33944,
        "longitude": -121.89389
      },
      {
        "numJobs": 2640,
        "name": "Knoxville, TN",
        "stateAbbreviation": "TN",
        "stateName": "Tennessee",
        "id": 1144394,
        "latitude": 35.96056,
        "longitude": -83.92083
      },
      {
        "numJobs": 2610,
        "name": "Cleveland, OH",
        "stateAbbreviation": "OH",
        "stateName": "Ohio",
        "id": 1145778,
        "latitude": 41.49944,
        "longitude": -81.69556
      },
      {
        "numJobs": 2577,
        "name": "Tulsa, OK",
        "stateAbbreviation": "OK",
        "stateName": "Oklahoma",
        "id": 1137055,
        "latitude": 36.15389,
        "longitude": -95.9925
      },
      {
        "numJobs": 2443,
        "name": "Fort Wayne, IN",
        "stateAbbreviation": "IN",
        "stateName": "Indiana",
        "id": 1144939,
        "latitude": 41.13056,
        "longitude": -85.12889
      },
      {
        "numJobs": 2415,
        "name": "Saint Petersburg, FL",
        "stateAbbreviation": "FL",
        "stateName": "Florida",
        "id": 1154421,
        "latitude": 27.77056,
        "longitude": -82.67944
      },
      {
        "numJobs": 2364,
        "name": "Marietta, GA",
        "stateAbbreviation": "GA",
        "stateName": "Georgia",
        "id": 1155654,
        "latitude": 33.9525,
        "longitude": -84.55
      },
      {
        "numJobs": 2347,
        "name": "Worcester, MA",
        "stateAbbreviation": "MA",
        "stateName": "Massachusetts",
        "id": 1154962,
        "latitude": 42.2625,
        "longitude": -71.80278
      },
      {
        "numJobs": 2328,
        "name": "Anchorage, AK",
        "stateAbbreviation": "AK",
        "stateName": "Alaska",
        "id": 1134201,
        "latitude": 61.21806,
        "longitude": -149.90028
      },
      {
        "numJobs": 2325,
        "name": "Des Moines, IA",
        "stateAbbreviation": "IA",
        "stateName": "Iowa",
        "id": 1149246,
        "latitude": 41.60056,
        "longitude": -93.60889
      },
      {
        "numJobs": 2315,
        "name": "Madison, WI",
        "stateAbbreviation": "WI",
        "stateName": "Wisconsin",
        "id": 1133470,
        "latitude": 43.07306,
        "longitude": -89.40111
      },
      {
        "numJobs": 2196,
        "name": "Colorado Springs, CO",
        "stateAbbreviation": "CO",
        "stateName": "Colorado",
        "id": 1148136,
        "latitude": 38.83389,
        "longitude": -104.82083
      },
      {
        "numJobs": 2160,
        "name": "Oakland, CA",
        "stateAbbreviation": "CA",
        "stateName": "California",
        "id": 1147380,
        "latitude": 37.80444,
        "longitude": -122.26972
      },
      {
        "numJobs": 2132,
        "name": "Brooklyn, NY",
        "stateAbbreviation": "NY",
        "stateName": "New York",
        "id": 1132200,
        "latitude": 40.65,
        "longitude": -73.95
      },
      {
        "numJobs": 2104,
        "name": "Falls Church, VA",
        "stateAbbreviation": "VA",
        "stateName": "Virginia",
        "id": 1130361,
        "latitude": 38.88222,
        "longitude": -77.17139
      },
      {
        "numJobs": 2053,
        "name": "Plano, TX",
        "stateAbbreviation": "TX",
        "stateName": "Texas",
        "id": 1140045,
        "latitude": 33.01972,
        "longitude": -96.69861
      },
      {
        "numJobs": 2036,
        "name": "Fort Lauderdale, FL",
        "stateAbbreviation": "FL",
        "stateName": "Florida",
        "id": 1154160,
        "latitude": 26.12194,
        "longitude": -80.14361
      },
      {
        "numJobs": 2032,
        "name": "New Orleans, LA",
        "stateAbbreviation": "LA",
        "stateName": "Louisiana",
        "id": 1150035,
        "latitude": 29.95444,
        "longitude": -90.075
      },
      {
        "numJobs": 2029,
        "name": "Rochester, NY",
        "stateAbbreviation": "NY",
        "stateName": "New York",
        "id": 1132765,
        "latitude": 43.15472,
        "longitude": -77.61583
      },
      {
        "numJobs": 2018,
        "name": "Clearwater, FL",
        "stateAbbreviation": "FL",
        "stateName": "Florida",
        "id": 1154388,
        "latitude": 27.96556,
        "longitude": -82.80028
      },
      {
        "numJobs": 1991,
        "name": "Fresno, CA",
        "stateAbbreviation": "CA",
        "stateName": "California",
        "id": 1146705,
        "latitude": 36.74778,
        "longitude": -119.77139
      },
      {
        "numJobs": 1987,
        "name": "Greenville, SC",
        "stateAbbreviation": "SC",
        "stateName": "South Carolina",
        "id": 1155193,
        "latitude": 34.8525,
        "longitude": -82.39417
      },
      {
        "numJobs": 1981,
        "name": "Lexington-Fayette, KY",
        "stateAbbreviation": "KY",
        "stateName": "Kentucky",
        "id": 3749474,
        "latitude": 38.04972,
        "longitude": -84.45861
      },
      {
        "numJobs": 1980,
        "name": "Detroit, MI",
        "stateAbbreviation": "MI",
        "stateName": "Michigan",
        "id": 1134644,
        "latitude": 42.33139,
        "longitude": -83.04583
      },
      {
        "numJobs": 1932,
        "name": "Dayton, OH",
        "stateAbbreviation": "OH",
        "stateName": "Ohio",
        "id": 1145937,
        "latitude": 39.75889,
        "longitude": -84.19167
      },
      {
        "numJobs": 1921,
        "name": "Aurora, CO",
        "stateAbbreviation": "CO",
        "stateName": "Colorado",
        "id": 1148156,
        "latitude": 39.72944,
        "longitude": -104.83139
      },
      {
        "numJobs": 1916,
        "name": "Virginia Beach, VA",
        "stateAbbreviation": "VA",
        "stateName": "Virginia",
        "id": 1130324,
        "latitude": 36.85278,
        "longitude": -75.97833
      },
      {
        "numJobs": 1908,
        "name": "Wichita, KS",
        "stateAbbreviation": "KS",
        "stateName": "Kansas",
        "id": 1151230,
        "latitude": 37.69222,
        "longitude": -97.33722
      },
      {
        "numJobs": 1870,
        "name": "Providence, RI",
        "stateAbbreviation": "RI",
        "stateName": "Rhode Island",
        "id": 1151289,
        "latitude": 41.82389,
        "longitude": -71.41333
      },
      {
        "numJobs": 1852,
        "name": "Bakersfield, CA",
        "stateAbbreviation": "CA",
        "stateName": "California",
        "id": 1146557,
        "latitude": 35.37333,
        "longitude": -119.01778
      },
      {
        "numJobs": 1849,
        "name": "Fayetteville, NC",
        "stateAbbreviation": "NC",
        "stateName": "North Carolina",
        "id": 1138720,
        "latitude": 35.0525,
        "longitude": -78.87861
      },
      {
        "numJobs": 1834,
        "name": "Augusta, GA",
        "stateAbbreviation": "GA",
        "stateName": "Georgia",
        "id": 1155718,
        "latitude": 33.47083,
        "longitude": -81.975
      },
      {
        "numJobs": 1784,
        "name": "Tallahassee, FL",
        "stateAbbreviation": "FL",
        "stateName": "Florida",
        "id": 1154378,
        "latitude": 30.43806,
        "longitude": -84.28083
      },
      {
        "numJobs": 1757,
        "name": "Lubbock, TX",
        "stateAbbreviation": "TX",
        "stateName": "Texas",
        "id": 1140320,
        "latitude": 33.57778,
        "longitude": -101.85472
      },
      {
        "numJobs": 1744,
        "name": "Palo Alto, CA",
        "stateAbbreviation": "CA",
        "stateName": "California",
        "id": 1147434,
        "latitude": 37.44194,
        "longitude": -122.14194
      },
      {
        "numJobs": 1705,
        "name": "Ann Arbor, MI",
        "stateAbbreviation": "MI",
        "stateName": "Michigan",
        "id": 1134560,
        "latitude": 42.27083,
        "longitude": -83.72639
      },
      {
        "numJobs": 1704,
        "name": "Santa Rosa, CA",
        "stateAbbreviation": "CA",
        "stateName": "California",
        "id": 1147518,
        "latitude": 38.44056,
        "longitude": -122.71333
      },
      {
        "numJobs": 1689,
        "name": "Scottsdale, AZ",
        "stateAbbreviation": "AZ",
        "stateName": "Arizona",
        "id": 1133911,
        "latitude": 33.50917,
        "longitude": -111.89833
      },
      {
        "numJobs": 1689,
        "name": "Naples, FL",
        "stateAbbreviation": "FL",
        "stateName": "Florida",
        "id": 1154189,
        "latitude": 26.14167,
        "longitude": -81.795
      },
      {
        "numJobs": 1687,
        "name": "Orange, CA",
        "stateAbbreviation": "CA",
        "stateName": "California",
        "id": 1146843,
        "latitude": 33.78778,
        "longitude": -117.85222
      },
      {
        "numJobs": 1680,
        "name": "Amarillo, TX",
        "stateAbbreviation": "TX",
        "stateName": "Texas",
        "id": 1139740,
        "latitude": 35.22194,
        "longitude": -101.83083
      },
      {
        "numJobs": 1658,
        "name": "Mesa, AZ",
        "stateAbbreviation": "AZ",
        "stateName": "Arizona",
        "id": 1133897,
        "latitude": 33.42222,
        "longitude": -111.82194
      },
      {
        "numJobs": 1652,
        "name": "Charleston, SC",
        "stateAbbreviation": "SC",
        "stateName": "South Carolina",
        "id": 1155074,
        "latitude": 32.77639,
        "longitude": -79.93111
      },
      {
        "numJobs": 1643,
        "name": "Chattanooga, TN",
        "stateAbbreviation": "TN",
        "stateName": "Tennessee",
        "id": 1144251,
        "latitude": 35.04556,
        "longitude": -85.30972
      },
      {
        "numJobs": 1626,
        "name": "Albany, NY",
        "stateAbbreviation": "NY",
        "stateName": "New York",
        "id": 1131650,
        "latitude": 42.6525,
        "longitude": -73.75667
      },
      {
        "numJobs": 1618,
        "name": "Baton Rouge, LA",
        "stateAbbreviation": "LA",
        "stateName": "Louisiana",
        "id": 1149789,
        "latitude": 30.45056,
        "longitude": -91.15444
      },
      {
        "numJobs": 1609,
        "name": "Greensboro, NC",
        "stateAbbreviation": "NC",
        "stateName": "North Carolina",
        "id": 1138755,
        "latitude": 36.0725,
        "longitude": -79.79222
      },
      {
        "numJobs": 1609,
        "name": "Grand Rapids, MI",
        "stateAbbreviation": "MI",
        "stateName": "Michigan",
        "id": 1134796,
        "latitude": 42.96333,
        "longitude": -85.66806
      },
      {
        "numJobs": 1601,
        "name": "Long Beach, CA",
        "stateAbbreviation": "CA",
        "stateName": "California",
        "id": 1146819,
        "latitude": 33.76694,
        "longitude": -118.18833
      },
      {
        "numJobs": 1593,
        "name": "Winston-Salem, NC",
        "stateAbbreviation": "NC",
        "stateName": "North Carolina",
        "id": 1139151,
        "latitude": 36.09766,
        "longitude": -80.24728
      },
      {
        "numJobs": 1583,
        "name": "Fargo, ND",
        "stateAbbreviation": "ND",
        "stateName": "North Dakota",
        "id": 1156255,
        "latitude": 46.87722,
        "longitude": -96.78944
      },
      {
        "numJobs": 1575,
        "name": "Hartford, CT",
        "stateAbbreviation": "CT",
        "stateName": "Connecticut",
        "id": 1148399,
        "latitude": 41.76361,
        "longitude": -72.68556
      },
      {
        "numJobs": 1570,
        "name": "Gainesville, FL",
        "stateAbbreviation": "FL",
        "stateName": "Florida",
        "id": 1154062,
        "latitude": 29.65139,
        "longitude": -82.325
      },
      {
        "numJobs": 1567,
        "name": "Saint Paul, MN",
        "stateAbbreviation": "MN",
        "stateName": "Minnesota",
        "id": 1142575,
        "latitude": 44.94444,
        "longitude": -93.09306
      },
      {
        "numJobs": 1560,
        "name": "Bloomington, IN",
        "stateAbbreviation": "IN",
        "stateName": "Indiana",
        "id": 1144789,
        "latitude": 39.16528,
        "longitude": -86.52639
      },
      {
        "numJobs": 1560,
        "name": "Durham, NC",
        "stateAbbreviation": "NC",
        "stateName": "North Carolina",
        "id": 1138697,
        "latitude": 35.99389,
        "longitude": -78.89889
      },
      {
        "numJobs": 1545,
        "name": "Corpus Christi, TX",
        "stateAbbreviation": "TX",
        "stateName": "Texas",
        "id": 1139919,
        "latitude": 27.80028,
        "longitude": -97.39611
      },
      {
        "numJobs": 1515,
        "name": "Olympia, WA",
        "stateAbbreviation": "WA",
        "stateName": "Washington",
        "id": 1150386,
        "latitude": 47.03806,
        "longitude": -122.89944
      },
      {
        "numJobs": 1509,
        "name": "Everett, WA",
        "stateAbbreviation": "WA",
        "stateName": "Washington",
        "id": 1150458,
        "latitude": 47.97917,
        "longitude": -122.20083
      },
      {
        "numJobs": 1500,
        "name": "Lincoln, NE",
        "stateAbbreviation": "NE",
        "stateName": "Nebraska",
        "id": 1136371,
        "latitude": 40.8,
        "longitude": -96.66667
      },
      {
        "numJobs": 1497,
        "name": "Syracuse, NY",
        "stateAbbreviation": "NY",
        "stateName": "New York",
        "id": 1132872,
        "latitude": 43.04806,
        "longitude": -76.14778
      },
      {
        "numJobs": 1485,
        "name": "Buffalo, NY",
        "stateAbbreviation": "NY",
        "stateName": "New York",
        "id": 1131850,
        "latitude": 42.88639,
        "longitude": -78.87861
      },
      {
        "numJobs": 1484,
        "name": "West Palm Beach, FL",
        "stateAbbreviation": "FL",
        "stateName": "Florida",
        "id": 1154182,
        "latitude": 26.715,
        "longitude": -80.05361
      },
      {
        "numJobs": 1483,
        "name": "Montgomery, AL",
        "stateAbbreviation": "AL",
        "stateName": "Alabama",
        "id": 1127704,
        "latitude": 32.36667,
        "longitude": -86.3
      },
      {
        "numJobs": 1461,
        "name": "Overland Park, KS",
        "stateAbbreviation": "KS",
        "stateName": "Kansas",
        "id": 1151049,
        "latitude": 38.98222,
        "longitude": -94.67056
      },
      {
        "numJobs": 1451,
        "name": "Ocala, FL",
        "stateAbbreviation": "FL",
        "stateName": "Florida",
        "id": 1154201,
        "latitude": 29.18694,
        "longitude": -82.14028
      },
      {
        "numJobs": 1450,
        "name": "Bronx, NY",
        "stateAbbreviation": "NY",
        "stateName": "New York",
        "id": 1132197,
        "latitude": 40.85,
        "longitude": -73.86667
      },
      {
        "numJobs": 1447,
        "name": "Modesto, CA",
        "stateAbbreviation": "CA",
        "stateName": "California",
        "id": 1146953,
        "latitude": 37.63917,
        "longitude": -120.99583
      },
      {
        "numJobs": 1440,
        "name": "Pensacola, FL",
        "stateAbbreviation": "FL",
        "stateName": "Florida",
        "id": 1154318,
        "latitude": 30.42111,
        "longitude": -87.21694
      },
      {
        "numJobs": 1436,
        "name": "Alexandria, VA",
        "stateAbbreviation": "VA",
        "stateName": "Virginia",
        "id": 1130334,
        "latitude": 38.79755,
        "longitude": -77.08908
      },
      {
        "numJobs": 1433,
        "name": "McAllen, TX",
        "stateAbbreviation": "TX",
        "stateName": "Texas",
        "id": 1140353,
        "latitude": 26.20306,
        "longitude": -98.22972
      },
      {
        "numJobs": 1397,
        "name": "Reno, NV",
        "stateAbbreviation": "NV",
        "stateName": "Nevada",
        "id": 1149627,
        "latitude": 39.52972,
        "longitude": -119.81278
      },
      {
        "numJobs": 1378,
        "name": "Honolulu, HI",
        "stateAbbreviation": "HI",
        "stateName": "Hawaii",
        "id": 1140656,
        "latitude": 21.30694,
        "longitude": -157.85834
      },
      {
        "numJobs": 1367,
        "name": "Torrance, CA",
        "stateAbbreviation": "CA",
        "stateName": "California",
        "id": 1146894,
        "latitude": 33.83583,
        "longitude": -118.33972
      },
      {
        "numJobs": 1353,
        "name": "Bethlehem, PA",
        "stateAbbreviation": "PA",
        "stateName": "Pennsylvania",
        "id": 1151922,
        "latitude": 40.62583,
        "longitude": -75.37083
      },
      {
        "numJobs": 1340,
        "name": "Duluth, MN",
        "stateAbbreviation": "MN",
        "stateName": "Minnesota",
        "id": 1142353,
        "latitude": 46.78333,
        "longitude": -92.10639
      },
      {
        "numJobs": 1334,
        "name": "Fairfax, VA",
        "stateAbbreviation": "VA",
        "stateName": "Virginia",
        "id": 1130359,
        "latitude": 38.84611,
        "longitude": -77.30667
      },
      {
        "numJobs": 1316,
        "name": "Kansas City, KS",
        "stateAbbreviation": "KS",
        "stateName": "Kansas",
        "id": 4990210,
        "latitude": 39.11417,
        "longitude": -94.62722
      },
      {
        "numJobs": 1290,
        "name": "Akron, OH",
        "stateAbbreviation": "OH",
        "stateName": "Ohio",
        "id": 1145529,
        "latitude": 41.08139,
        "longitude": -81.51917
      },
      {
        "numJobs": 1281,
        "name": "Savannah, GA",
        "stateAbbreviation": "GA",
        "stateName": "Georgia",
        "id": 1155906,
        "latitude": 32.08333,
        "longitude": -81.1
      },
      {
        "numJobs": 1277,
        "name": "Allentown, PA",
        "stateAbbreviation": "PA",
        "stateName": "Pennsylvania",
        "id": 1151916,
        "latitude": 40.60833,
        "longitude": -75.49056
      },
      {
        "numJobs": 1272,
        "name": "Temple, TX",
        "stateAbbreviation": "TX",
        "stateName": "Texas",
        "id": 1140277,
        "latitude": 31.09806,
        "longitude": -97.3425
      },
      {
        "numJobs": 1271,
        "name": "Riverside, CA",
        "stateAbbreviation": "CA",
        "stateName": "California",
        "id": 1147138,
        "latitude": 33.95333,
        "longitude": -117.39528
      },
      {
        "numJobs": 1263,
        "name": "Greenville, NC",
        "stateAbbreviation": "NC",
        "stateName": "North Carolina",
        "id": 1138785,
        "latitude": 35.6125,
        "longitude": -77.36667
      },
      {
        "numJobs": 1258,
        "name": "Bradenton, FL",
        "stateAbbreviation": "FL",
        "stateName": "Florida",
        "id": 1154335,
        "latitude": 27.49861,
        "longitude": -82.575
      },
      {
        "numJobs": 1248,
        "name": "Charlottesville, VA",
        "stateAbbreviation": "VA",
        "stateName": "Virginia",
        "id": 1130001,
        "latitude": 38.02917,
        "longitude": -78.47694
      },
      {
        "numJobs": 1234,
        "name": "Rockford, IL",
        "stateAbbreviation": "IL",
        "stateName": "Illinois",
        "id": 1129425,
        "latitude": 42.27111,
        "longitude": -89.09389
      },
      {
        "numJobs": 1210,
        "name": "Cambridge, MA",
        "stateAbbreviation": "MA",
        "stateName": "Massachusetts",
        "id": 1154545,
        "latitude": 42.375,
        "longitude": -71.10611
      },
      {
        "numJobs": 1206,
        "name": "Peoria, IL",
        "stateAbbreviation": "IL",
        "stateName": "Illinois",
        "id": 1129349,
        "latitude": 40.69361,
        "longitude": -89.58889
      },
      {
        "numJobs": 1205,
        "name": "Rochester, MN",
        "stateAbbreviation": "MN",
        "stateName": "Minnesota",
        "id": 1142638,
        "latitude": 44.02167,
        "longitude": -92.46972
      },
      {
        "numJobs": 1200,
        "name": "Manchester, NH",
        "stateAbbreviation": "NH",
        "stateName": "New Hampshire",
        "id": 1147907,
        "latitude": 42.99556,
        "longitude": -71.45528
      },
      {
        "numJobs": 1194,
        "name": "Sioux Falls, SD",
        "stateAbbreviation": "SD",
        "stateName": "South Dakota",
        "id": 1141041,
        "latitude": 43.55,
        "longitude": -96.7
      },
      {
        "numJobs": 1191,
        "name": "Irving, TX",
        "stateAbbreviation": "TX",
        "stateName": "Texas",
        "id": 1140006,
        "latitude": 32.81389,
        "longitude": -96.94861
      },
      {
        "numJobs": 1187,
        "name": "Chapel Hill, NC",
        "stateAbbreviation": "NC",
        "stateName": "North Carolina",
        "id": 1138696,
        "latitude": 35.91306,
        "longitude": -79.05611
      },
      {
        "numJobs": 1186,
        "name": "York, PA",
        "stateAbbreviation": "PA",
        "stateName": "Pennsylvania",
        "id": 1153468,
        "latitude": 39.9625,
        "longitude": -76.72806
      },
      {
        "numJobs": 1175,
        "name": "Camden, NJ",
        "stateAbbreviation": "NJ",
        "stateName": "New Jersey",
        "id": 1127087,
        "latitude": 39.92583,
        "longitude": -75.12
      },
      {
        "numJobs": 1170,
        "name": "Tyler, TX",
        "stateAbbreviation": "TX",
        "stateName": "Texas",
        "id": 1140559,
        "latitude": 32.35111,
        "longitude": -95.30083
      },
      {
        "numJobs": 1157,
        "name": "Chandler, AZ",
        "stateAbbreviation": "AZ",
        "stateName": "Arizona",
        "id": 1133878,
        "latitude": 33.30611,
        "longitude": -111.84056
      },
      {
        "numJobs": 1157,
        "name": "Vancouver, WA",
        "stateAbbreviation": "WA",
        "stateName": "Washington",
        "id": 1150413,
        "latitude": 45.63889,
        "longitude": -122.66028
      },
      {
        "numJobs": 1147,
        "name": "Asheville, NC",
        "stateAbbreviation": "NC",
        "stateName": "North Carolina",
        "id": 1138579,
        "latitude": 35.60083,
        "longitude": -82.55417
      },
      {
        "numJobs": 1146,
        "name": "Stockton, CA",
        "stateAbbreviation": "CA",
        "stateName": "California",
        "id": 1147539,
        "latitude": 37.95778,
        "longitude": -121.28972
      },
      {
        "numJobs": 1143,
        "name": "Toledo, OH",
        "stateAbbreviation": "OH",
        "stateName": "Ohio",
        "id": 1146248,
        "latitude": 41.66389,
        "longitude": -83.55528
      },
      {
        "numJobs": 1140,
        "name": "Laredo, TX",
        "stateAbbreviation": "TX",
        "stateName": "Texas",
        "id": 1140286,
        "latitude": 27.50611,
        "longitude": -99.50722
      },
      {
        "numJobs": 1138,
        "name": "Naperville, IL",
        "stateAbbreviation": "IL",
        "stateName": "Illinois",
        "id": 1128928,
        "latitude": 41.78583,
        "longitude": -88.14722
      },
      {
        "numJobs": 1128,
        "name": "Arlington, TX",
        "stateAbbreviation": "TX",
        "stateName": "Texas",
        "id": 1139951,
        "latitude": 32.73556,
        "longitude": -97.10778
      },
      {
        "numJobs": 1124,
        "name": "Portland, ME",
        "stateAbbreviation": "ME",
        "stateName": "Maine",
        "id": 1135898,
        "latitude": 43.66139,
        "longitude": -70.25583
      },
      {
        "numJobs": 1115,
        "name": "Macon, GA",
        "stateAbbreviation": "GA",
        "stateName": "Georgia",
        "id": 1155868,
        "latitude": 32.84056,
        "longitude": -83.6325
      },
      {
        "numJobs": 1113,
        "name": "Huntsville, AL",
        "stateAbbreviation": "AL",
        "stateName": "Alabama",
        "id": 1127653,
        "latitude": 34.73028,
        "longitude": -86.58611
      },
      {
        "numJobs": 1102,
        "name": "New Haven, CT",
        "stateAbbreviation": "CT",
        "stateName": "Connecticut",
        "id": 1148466,
        "latitude": 41.30806,
        "longitude": -72.92861
      },
      {
        "numJobs": 1101,
        "name": "Newport News, VA",
        "stateAbbreviation": "VA",
        "stateName": "Virginia",
        "id": 1130305,
        "latitude": 36.97861,
        "longitude": -76.42833
      },
      {
        "numJobs": 1101,
        "name": "Glendale, AZ",
        "stateAbbreviation": "AZ",
        "stateName": "Arizona",
        "id": 1133888,
        "latitude": 33.53861,
        "longitude": -112.18528
      },
      {
        "numJobs": 1100,
        "name": "Rapid City, SD",
        "stateAbbreviation": "SD",
        "stateName": "South Dakota",
        "id": 1141002,
        "latitude": 44.08056,
        "longitude": -103.23056
      },
      {
        "numJobs": 1100,
        "name": "Florence, SC",
        "stateAbbreviation": "SC",
        "stateName": "South Carolina",
        "id": 1155168,
        "latitude": 34.19528,
        "longitude": -79.76278
      },
      {
        "numJobs": 1096,
        "name": "Abilene, TX",
        "stateAbbreviation": "TX",
        "stateName": "Texas",
        "id": 1139716,
        "latitude": 32.44861,
        "longitude": -99.73278
      },
      {
        "numJobs": 1086,
        "name": "Jackson, MS",
        "stateAbbreviation": "MS",
        "stateName": "Mississippi",
        "id": 1141371,
        "latitude": 32.29861,
        "longitude": -90.18472
      },
      {
        "numJobs": 1085,
        "name": "San Bernardino, CA",
        "stateAbbreviation": "CA",
        "stateName": "California",
        "id": 1147140,
        "latitude": 34.10833,
        "longitude": -117.28889
      },
      {
        "numJobs": 1084,
        "name": "Lancaster, PA",
        "stateAbbreviation": "PA",
        "stateName": "Pennsylvania",
        "id": 1152360,
        "latitude": 40.03778,
        "longitude": -76.30583
      },
      {
        "numJobs": 1083,
        "name": "Lansing, MI",
        "stateAbbreviation": "MI",
        "stateName": "Michigan",
        "id": 1134930,
        "latitude": 42.7325,
        "longitude": -84.55556
      },
      {
        "numJobs": 1079,
        "name": "Shreveport, LA",
        "stateAbbreviation": "LA",
        "stateName": "Louisiana",
        "id": 1150108,
        "latitude": 32.525,
        "longitude": -93.75
      },
      {
        "numJobs": 1071,
        "name": "Sarasota, FL",
        "stateAbbreviation": "FL",
        "stateName": "Florida",
        "id": 1154350,
        "latitude": 27.33611,
        "longitude": -82.53083
      },
      {
        "numJobs": 1063,
        "name": "Las Cruces, NM",
        "stateAbbreviation": "NM",
        "stateName": "New Mexico",
        "id": 1138109,
        "latitude": 32.31222,
        "longitude": -106.77778
      },
      {
        "numJobs": 1061,
        "name": "Fort Smith, AR",
        "stateAbbreviation": "AR",
        "stateName": "Arkansas",
        "id": 1143091,
        "latitude": 35.38583,
        "longitude": -94.39833
      },
      {
        "numJobs": 1059,
        "name": "Springfield, IL",
        "stateAbbreviation": "IL",
        "stateName": "Illinois",
        "id": 1129562,
        "latitude": 39.80167,
        "longitude": -89.64361
      },
      {
        "numJobs": 1059,
        "name": "Roanoke, VA",
        "stateAbbreviation": "VA",
        "stateName": "Virginia",
        "id": 1130242,
        "latitude": 37.27083,
        "longitude": -79.94167
      },
      {
        "numJobs": 1047,
        "name": "Glendale, CA",
        "stateAbbreviation": "CA",
        "stateName": "California",
        "id": 1146787,
        "latitude": 34.1425,
        "longitude": -118.25417
      },
      {
        "numJobs": 1043,
        "name": "Medford, OR",
        "stateAbbreviation": "OR",
        "stateName": "Oregon",
        "id": 1151534,
        "latitude": 42.32667,
        "longitude": -122.87444
      },
      {
        "numJobs": 1042,
        "name": "Portsmouth, VA",
        "stateAbbreviation": "VA",
        "stateName": "Virginia",
        "id": 1130313,
        "latitude": 36.83528,
        "longitude": -76.29861
      },
      {
        "numJobs": 1042,
        "name": "Henderson, NV",
        "stateAbbreviation": "NV",
        "stateName": "Nevada",
        "id": 1149600,
        "latitude": 36.03972,
        "longitude": -114.98111
      },
      {
        "numJobs": 1027,
        "name": "Beaumont, TX",
        "stateAbbreviation": "TX",
        "stateName": "Texas",
        "id": 1139817,
        "latitude": 30.08583,
        "longitude": -94.10167
      },
      {
        "numJobs": 1022,
        "name": "Burien, WA",
        "stateAbbreviation": "WA",
        "stateName": "Washington",
        "id": 1164740,
        "latitude": 47.47056,
        "longitude": -122.34556
      },
      {
        "numJobs": 1013,
        "name": "Hickory, NC",
        "stateAbbreviation": "NC",
        "stateName": "North Carolina",
        "id": 1138808,
        "latitude": 35.73319,
        "longitude": -81.341194
      },
      {
        "numJobs": 1012,
        "name": "Daytona Beach, FL",
        "stateAbbreviation": "FL",
        "stateName": "Florida",
        "id": 1154028,
        "latitude": 29.21056,
        "longitude": -81.02306
      },
      {
        "numJobs": 1008,
        "name": "Springfield, MA",
        "stateAbbreviation": "MA",
        "stateName": "Massachusetts",
        "id": 1154860,
        "latitude": 42.10139,
        "longitude": -72.59028
      },
      {
        "numJobs": 1005,
        "name": "Arlington, VA",
        "stateAbbreviation": "VA",
        "stateName": "Virginia",
        "id": 1130337,
        "latitude": 38.89028,
        "longitude": -77.08444
      },
      {
        "numJobs": 997,
        "name": "Panama City, FL",
        "stateAbbreviation": "FL",
        "stateName": "Florida",
        "id": 1154305,
        "latitude": 30.15861,
        "longitude": -85.66028
      },
      {
        "numJobs": 993,
        "name": "Irvine, CA",
        "stateAbbreviation": "CA",
        "stateName": "California",
        "id": 1146798,
        "latitude": 33.66944,
        "longitude": -117.82222
      },
      {
        "numJobs": 979,
        "name": "Englewood, CO",
        "stateAbbreviation": "CO",
        "stateName": "Colorado",
        "id": 1148176,
        "latitude": 39.64778,
        "longitude": -104.98722
      },
      {
        "numJobs": 978,
        "name": "Silver Spring, MD",
        "stateAbbreviation": "MD",
        "stateName": "Maryland",
        "id": 1153904,
        "latitude": 38.99056,
        "longitude": -77.02639
      },
      {
        "numJobs": 977,
        "name": "Fredericksburg, VA",
        "stateAbbreviation": "VA",
        "stateName": "Virginia",
        "id": 1130363,
        "latitude": 38.30306,
        "longitude": -77.46083
      },
      {
        "numJobs": 976,
        "name": "Denton, TX",
        "stateAbbreviation": "TX",
        "stateName": "Texas",
        "id": 1139980,
        "latitude": 33.21472,
        "longitude": -97.13278
      },
      {
        "numJobs": 973,
        "name": "Kissimmee, FL",
        "stateAbbreviation": "FL",
        "stateName": "Florida",
        "id": 1154232,
        "latitude": 28.29167,
        "longitude": -81.40778
      },
      {
        "numJobs": 967,
        "name": "Bellevue, WA",
        "stateAbbreviation": "WA",
        "stateName": "Washington",
        "id": 1150442,
        "latitude": 47.61056,
        "longitude": -122.19944
      },
      {
        "numJobs": 966,
        "name": "Hot Springs, AR",
        "stateAbbreviation": "AR",
        "stateName": "Arkansas",
        "id": 1162464,
        "latitude": 34.50361,
        "longitude": -93.055
      },
      {
        "numJobs": 959,
        "name": "South Bend, IN",
        "stateAbbreviation": "IN",
        "stateName": "Indiana",
        "id": 1145268,
        "latitude": 41.68333,
        "longitude": -86.25
      },
      {
        "numJobs": 951,
        "name": "Smithtown, NY",
        "stateAbbreviation": "NY",
        "stateName": "New York",
        "id": 1132417,
        "latitude": 40.85583,
        "longitude": -73.20111
      },
      {
        "numJobs": 942,
        "name": "Morgantown, WV",
        "stateAbbreviation": "WV",
        "stateName": "West Virginia",
        "id": 1143936,
        "latitude": 39.62944,
        "longitude": -79.95611
      },
      {
        "numJobs": 935,
        "name": "Santa Monica, CA",
        "stateAbbreviation": "CA",
        "stateName": "California",
        "id": 1146873,
        "latitude": 34.01944,
        "longitude": -118.49028
      },
      {
        "numJobs": 935,
        "name": "Harrisburg, PA",
        "stateAbbreviation": "PA",
        "stateName": "Pennsylvania",
        "id": 1152185,
        "latitude": 40.27361,
        "longitude": -76.88472
      },
      {
        "numJobs": 935,
        "name": "Walnut Creek, CA",
        "stateAbbreviation": "CA",
        "stateName": "California",
        "id": 1147417,
        "latitude": 37.90639,
        "longitude": -122.06389
      },
      {
        "numJobs": 931,
        "name": "Salem, OR",
        "stateAbbreviation": "OR",
        "stateName": "Oregon",
        "id": 1151682,
        "latitude": 44.94306,
        "longitude": -123.03389
      },
      {
        "numJobs": 929,
        "name": "Mechanicsville, VA",
        "stateAbbreviation": "VA",
        "stateName": "Virginia",
        "id": 1130182,
        "latitude": 37.60861,
        "longitude": -77.37361
      },
      {
        "numJobs": 929,
        "name": "Spartanburg, SC",
        "stateAbbreviation": "SC",
        "stateName": "South Carolina",
        "id": 1155311,
        "latitude": 34.94944,
        "longitude": -81.93222
      },
      {
        "numJobs": 925,
        "name": "Billings, MT",
        "stateAbbreviation": "MT",
        "stateName": "Montana",
        "id": 1135402,
        "latitude": 45.78333,
        "longitude": -108.5
      },
      {
        "numJobs": 924,
        "name": "Newark, NJ",
        "stateAbbreviation": "NJ",
        "stateName": "New Jersey",
        "id": 1126906,
        "latitude": 40.73556,
        "longitude": -74.17278
      },
      {
        "numJobs": 922,
        "name": "Lakeland, FL",
        "stateAbbreviation": "FL",
        "stateName": "Florida",
        "id": 1154143,
        "latitude": 28.03917,
        "longitude": -81.95
      },
      {
        "numJobs": 922,
        "name": "Santa Clara, CA",
        "stateAbbreviation": "CA",
        "stateName": "California",
        "id": 1147439,
        "latitude": 37.35417,
        "longitude": -121.95417
      },
      {
        "numJobs": 915,
        "name": "Evansville, IN",
        "stateAbbreviation": "IN",
        "stateName": "Indiana",
        "id": 1144913,
        "latitude": 37.97472,
        "longitude": -87.55583
      },
      {
        "numJobs": 912,
        "name": "Palm Springs, CA",
        "stateAbbreviation": "CA",
        "stateName": "California",
        "id": 1147125,
        "latitude": 33.83028,
        "longitude": -116.54444
      },
      {
        "numJobs": 910,
        "name": "Lynchburg, VA",
        "stateAbbreviation": "VA",
        "stateName": "Virginia",
        "id": 1130113,
        "latitude": 37.41361,
        "longitude": -79.1425
      },
      {
        "numJobs": 908,
        "name": "Anaheim, CA",
        "stateAbbreviation": "CA",
        "stateName": "California",
        "id": 1146743,
        "latitude": 33.83528,
        "longitude": -117.91361
      },
      {
        "numJobs": 907,
        "name": "Erie, PA",
        "stateAbbreviation": "PA",
        "stateName": "Pennsylvania",
        "id": 1152139,
        "latitude": 42.12917,
        "longitude": -80.08528
      },
      {
        "numJobs": 901,
        "name": "Pasadena, CA",
        "stateAbbreviation": "CA",
        "stateName": "California",
        "id": 1146850,
        "latitude": 34.14778,
        "longitude": -118.14361
      },
      {
        "numJobs": 896,
        "name": "Decatur, GA",
        "stateAbbreviation": "GA",
        "stateName": "Georgia",
        "id": 1155610,
        "latitude": 33.77472,
        "longitude": -84.29639
      },
      {
        "numJobs": 895,
        "name": "Burbank, CA",
        "stateAbbreviation": "CA",
        "stateName": "California",
        "id": 1146756,
        "latitude": 34.18083,
        "longitude": -118.30806
      },
      {
        "numJobs": 895,
        "name": "The Woodlands, TX",
        "stateAbbreviation": "TX",
        "stateName": "Texas",
        "id": 1161666,
        "latitude": 30.15778,
        "longitude": -95.48917
      },
      {
        "numJobs": 883,
        "name": "Mission Viejo, CA",
        "stateAbbreviation": "CA",
        "stateName": "California",
        "id": 1146829,
        "latitude": 33.6,
        "longitude": -117.67111
      },
      {
        "numJobs": 883,
        "name": "Scranton, PA",
        "stateAbbreviation": "PA",
        "stateName": "Pennsylvania",
        "id": 1153278,
        "latitude": 41.40889,
        "longitude": -75.66278
      },
      {
        "numJobs": 882,
        "name": "Boise, ID",
        "stateAbbreviation": "ID",
        "stateName": "Idaho",
        "id": 1127927,
        "latitude": 43.61361,
        "longitude": -116.2025
      },
      {
        "numJobs": 881,
        "name": "Redding, CA",
        "stateAbbreviation": "CA",
        "stateName": "California",
        "id": 1147039,
        "latitude": 40.58667,
        "longitude": -122.39056
      },
      {
        "numJobs": 876,
        "name": "Fullerton, CA",
        "stateAbbreviation": "CA",
        "stateName": "California",
        "id": 1146784,
        "latitude": 33.87028,
        "longitude": -117.92444
      },
      {
        "numJobs": 873,
        "name": "Columbia, MO",
        "stateAbbreviation": "MO",
        "stateName": "Missouri",
        "id": 1130886,
        "latitude": 38.95167,
        "longitude": -92.33389
      },
      {
        "numJobs": 872,
        "name": "Brownsville, TX",
        "stateAbbreviation": "TX",
        "stateName": "Texas",
        "id": 1139874,
        "latitude": 25.90139,
        "longitude": -97.49722
      },
      {
        "numJobs": 872,
        "name": "Fremont, CA",
        "stateAbbreviation": "CA",
        "stateName": "California",
        "id": 1147355,
        "latitude": 37.54833,
        "longitude": -121.9875
      },
      {
        "numJobs": 860,
        "name": "Brockton, MA",
        "stateAbbreviation": "MA",
        "stateName": "Massachusetts",
        "id": 1154539,
        "latitude": 42.08333,
        "longitude": -71.01889
      },
      {
        "numJobs": 857,
        "name": "Concord, CA",
        "stateAbbreviation": "CA",
        "stateName": "California",
        "id": 1147340,
        "latitude": 37.97806,
        "longitude": -122.03
      },
      {
        "numJobs": 854,
        "name": "Columbus, GA",
        "stateAbbreviation": "GA",
        "stateName": "Georgia",
        "id": 1155778,
        "latitude": 32.46083,
        "longitude": -84.98778
      },
      {
        "numJobs": 847,
        "name": "Bangor, ME",
        "stateAbbreviation": "ME",
        "stateName": "Maine",
        "id": 1135774,
        "latitude": 44.80111,
        "longitude": -68.77833
      },
      {
        "numJobs": 842,
        "name": "Lake Charles, LA",
        "stateAbbreviation": "LA",
        "stateName": "Louisiana",
        "id": 1149940,
        "latitude": 30.22639,
        "longitude": -93.21722
      },
      {
        "numJobs": 841,
        "name": "Wilmington, DE",
        "stateAbbreviation": "DE",
        "stateName": "Delaware",
        "id": 1156375,
        "latitude": 39.74583,
        "longitude": -75.54694
      },
      {
        "numJobs": 834,
        "name": "Boca Raton, FL",
        "stateAbbreviation": "FL",
        "stateName": "Florida",
        "id": 1154153,
        "latitude": 26.35833,
        "longitude": -80.08333
      },
      {
        "numJobs": 833,
        "name": "Alexandria, LA",
        "stateAbbreviation": "LA",
        "stateName": "Louisiana",
        "id": 1149749,
        "latitude": 31.31111,
        "longitude": -92.445
      },
      {
        "numJobs": 826,
        "name": "Missoula, MT",
        "stateAbbreviation": "MT",
        "stateName": "Montana",
        "id": 1135489,
        "latitude": 46.87222,
        "longitude": -113.99306
      },
      {
        "numJobs": 825,
        "name": "Beckley, WV",
        "stateAbbreviation": "WV",
        "stateName": "West Virginia",
        "id": 1143677,
        "latitude": 37.77806,
        "longitude": -81.18833
      },
      {
        "numJobs": 824,
        "name": "Waco, TX",
        "stateAbbreviation": "TX",
        "stateName": "Texas",
        "id": 1140600,
        "latitude": 31.54917,
        "longitude": -97.14639
      },
      {
        "numJobs": 822,
        "name": "Edison, NJ",
        "stateAbbreviation": "NJ",
        "stateName": "New Jersey",
        "id": 1126748,
        "latitude": 40.52424,
        "longitude": -74.41246
      },
      {
        "numJobs": 822,
        "name": "Cedar Rapids, IA",
        "stateAbbreviation": "IA",
        "stateName": "Iowa",
        "id": 1149160,
        "latitude": 42.00833,
        "longitude": -91.64389
      },
      {
        "numJobs": 810,
        "name": "Racine, WI",
        "stateAbbreviation": "WI",
        "stateName": "Wisconsin",
        "id": 1133669,
        "latitude": 42.72611,
        "longitude": -87.78278
      },
      {
        "numJobs": 808,
        "name": "Sugar Land, TX",
        "stateAbbreviation": "TX",
        "stateName": "Texas",
        "id": 1140225,
        "latitude": 29.61944,
        "longitude": -95.63472
      },
      {
        "numJobs": 807,
        "name": "Bend, OR",
        "stateAbbreviation": "OR",
        "stateName": "Oregon",
        "id": 1151424,
        "latitude": 44.05833,
        "longitude": -121.31417
      },
      {
        "numJobs": 805,
        "name": "Gilbert, AZ",
        "stateAbbreviation": "AZ",
        "stateName": "Arizona",
        "id": 1133887,
        "latitude": 33.35278,
        "longitude": -111.78833
      },
      {
        "numJobs": 803,
        "name": "Mobile, AL",
        "stateAbbreviation": "AL",
        "stateName": "Alabama",
        "id": 1127676,
        "latitude": 30.69417,
        "longitude": -88.04306
      },
      {
        "numJobs": 802,
        "name": "Rockville, MD",
        "stateAbbreviation": "MD",
        "stateName": "Maryland",
        "id": 1153899,
        "latitude": 39.08389,
        "longitude": -77.15306
      },
      {
        "numJobs": 801,
        "name": "Midlothian, VA",
        "stateAbbreviation": "VA",
        "stateName": "Virginia",
        "id": 1130183,
        "latitude": 37.50583,
        "longitude": -77.64944
      },
      {
        "numJobs": 800,
        "name": "Berkeley, CA",
        "stateAbbreviation": "CA",
        "stateName": "California",
        "id": 1147330,
        "latitude": 37.87167,
        "longitude": -122.27167
      },
      {
        "numJobs": 795,
        "name": "Charleston, WV",
        "stateAbbreviation": "WV",
        "stateName": "West Virginia",
        "id": 1143753,
        "latitude": 38.34972,
        "longitude": -81.63278
      },
      {
        "numJobs": 794,
        "name": "Pasadena, TX",
        "stateAbbreviation": "TX",
        "stateName": "Texas",
        "id": 1140200,
        "latitude": 29.69083,
        "longitude": -95.20889
      },
      {
        "numJobs": 790,
        "name": "Tempe, AZ",
        "stateAbbreviation": "AZ",
        "stateName": "Arizona",
        "id": 1133917,
        "latitude": 33.41472,
        "longitude": -111.90861
      },
      {
        "numJobs": 789,
        "name": "Green Bay, WI",
        "stateAbbreviation": "WI",
        "stateName": "Wisconsin",
        "id": 1133406,
        "latitude": 44.51917,
        "longitude": -88.01972
      },
      {
        "numJobs": 789,
        "name": "Topeka, KS",
        "stateAbbreviation": "KS",
        "stateName": "Kansas",
        "id": 1151173,
        "latitude": 39.04833,
        "longitude": -95.67778
      },
      {
        "numJobs": 785,
        "name": "Santa Ana, CA",
        "stateAbbreviation": "CA",
        "stateName": "California",
        "id": 1146870,
        "latitude": 33.74556,
        "longitude": -117.86694
      },
      {
        "numJobs": 783,
        "name": "Santa Cruz, CA",
        "stateAbbreviation": "CA",
        "stateName": "California",
        "id": 1147488,
        "latitude": 36.97417,
        "longitude": -122.02972
      },
      {
        "numJobs": 780,
        "name": "Melbourne, FL",
        "stateAbbreviation": "FL",
        "stateName": "Florida",
        "id": 1154286,
        "latitude": 28.08333,
        "longitude": -80.60833
      },
      {
        "numJobs": 773,
        "name": "Santa Barbara, CA",
        "stateAbbreviation": "CA",
        "stateName": "California",
        "id": 1147473,
        "latitude": 34.42083,
        "longitude": -119.69722
      },
      {
        "numJobs": 770,
        "name": "Hampton, VA",
        "stateAbbreviation": "VA",
        "stateName": "Virginia",
        "id": 1130294,
        "latitude": 37.02972,
        "longitude": -76.34556
      },
      {
        "numJobs": 767,
        "name": "Athens, GA",
        "stateAbbreviation": "GA",
        "stateName": "Georgia",
        "id": 1155564,
        "latitude": 33.96083,
        "longitude": -83.37806
      },
      {
        "numJobs": 766,
        "name": "Chesapeake, VA",
        "stateAbbreviation": "VA",
        "stateName": "Virginia",
        "id": 1130279,
        "latitude": 36.81889,
        "longitude": -76.27528
      },
      {
        "numJobs": 758,
        "name": "Wilmington, NC",
        "stateAbbreviation": "NC",
        "stateName": "North Carolina",
        "id": 1139117,
        "latitude": 34.22556,
        "longitude": -77.945
      },
      {
        "numJobs": 751,
        "name": "Jersey City, NJ",
        "stateAbbreviation": "NJ",
        "stateName": "New Jersey",
        "id": 1126819,
        "latitude": 40.72806,
        "longitude": -74.07806
      },
      {
        "numJobs": 747,
        "name": "Livonia, MI",
        "stateAbbreviation": "MI",
        "stateName": "Michigan",
        "id": 1134687,
        "latitude": 42.36833,
        "longitude": -83.35278
      },
      {
        "numJobs": 747,
        "name": "Eugene, OR",
        "stateAbbreviation": "OR",
        "stateName": "Oregon",
        "id": 1151469,
        "latitude": 44.05222,
        "longitude": -123.08556
      },
      {
        "numJobs": 744,
        "name": "Conroe, TX",
        "stateAbbreviation": "TX",
        "stateName": "Texas",
        "id": 1140144,
        "latitude": 30.31167,
        "longitude": -95.45583
      },
      {
        "numJobs": 740,
        "name": "Columbia, MD",
        "stateAbbreviation": "MD",
        "stateName": "Maryland",
        "id": 1153546,
        "latitude": 39.24028,
        "longitude": -76.83972
      },
      {
        "numJobs": 737,
        "name": "Iowa City, IA",
        "stateAbbreviation": "IA",
        "stateName": "Iowa",
        "id": 1149332,
        "latitude": 41.66111,
        "longitude": -91.53
      },
      {
        "numJobs": 737,
        "name": "Yakima, WA",
        "stateAbbreviation": "WA",
        "stateName": "Washington",
        "id": 1150604,
        "latitude": 46.60222,
        "longitude": -120.50472
      },
      {
        "numJobs": 734,
        "name": "Terre Haute, IN",
        "stateAbbreviation": "IN",
        "stateName": "Indiana",
        "id": 1145310,
        "latitude": 39.46667,
        "longitude": -87.41389
      },
      {
        "numJobs": 728,
        "name": "Appleton, WI",
        "stateAbbreviation": "WI",
        "stateName": "Wisconsin",
        "id": 1133289,
        "latitude": 44.26194,
        "longitude": -88.41528
      },
      {
        "numJobs": 728,
        "name": "Wilkes-Barre, PA",
        "stateAbbreviation": "PA",
        "stateName": "Pennsylvania",
        "id": 3806633,
        "latitude": 41.24583,
        "longitude": -75.88167
      },
      {
        "numJobs": 725,
        "name": "Trenton, NJ",
        "stateAbbreviation": "NJ",
        "stateName": "New Jersey",
        "id": 1127182,
        "latitude": 40.21694,
        "longitude": -74.74333
      },
      {
        "numJobs": 722,
        "name": "Harrisonburg, VA",
        "stateAbbreviation": "VA",
        "stateName": "Virginia",
        "id": 1130069,
        "latitude": 38.44944,
        "longitude": -78.86917
      },
      {
        "numJobs": 722,
        "name": "Jonesboro, AR",
        "stateAbbreviation": "AR",
        "stateName": "Arkansas",
        "id": 1143154,
        "latitude": 35.84222,
        "longitude": -90.70417
      },
      {
        "numJobs": 720,
        "name": "Kearney, NE",
        "stateAbbreviation": "NE",
        "stateName": "Nebraska",
        "id": 1136341,
        "latitude": 40.69944,
        "longitude": -99.08111
      },
      {
        "numJobs": 714,
        "name": "Salem, VA",
        "stateAbbreviation": "VA",
        "stateName": "Virginia",
        "id": 1130244,
        "latitude": 38.51722,
        "longitude": -78.07917
      },
      {
        "numJobs": 713,
        "name": "Longview, TX",
        "stateAbbreviation": "TX",
        "stateName": "Texas",
        "id": 1140307,
        "latitude": 32.50056,
        "longitude": -94.74028
      },
      {
        "numJobs": 713,
        "name": "Myrtle Beach, SC",
        "stateAbbreviation": "SC",
        "stateName": "South Carolina",
        "id": 1155247,
        "latitude": 33.68889,
        "longitude": -78.88694
      },
      {
        "numJobs": 712,
        "name": "Harlingen, TX",
        "stateAbbreviation": "TX",
        "stateName": "Texas",
        "id": 1139876,
        "latitude": 26.19028,
        "longitude": -97.69583
      },
      {
        "numJobs": 709,
        "name": "Bethesda, MD",
        "stateAbbreviation": "MD",
        "stateName": "Maryland",
        "id": 1153817,
        "latitude": 38.98056,
        "longitude": -77.10056
      },
      {
        "numJobs": 708,
        "name": "San Angelo, TX",
        "stateAbbreviation": "TX",
        "stateName": "Texas",
        "id": 1140445,
        "latitude": 31.46361,
        "longitude": -100.43667
      },
      {
        "numJobs": 707,
        "name": "Saint Cloud, MN",
        "stateAbbreviation": "MN",
        "stateName": "Minnesota",
        "id": 1142664,
        "latitude": 45.56083,
        "longitude": -94.16222
      },
      {
        "numJobs": 706,
        "name": "Richardson, TX",
        "stateAbbreviation": "TX",
        "stateName": "Texas",
        "id": 1140053,
        "latitude": 32.94806,
        "longitude": -96.72944
      },
      {
        "numJobs": 705,
        "name": "Brooksville, FL",
        "stateAbbreviation": "FL",
        "stateName": "Florida",
        "id": 1154387,
        "latitude": 28.555,
        "longitude": -82.38806
      },
      {
        "numJobs": 704,
        "name": "McKinney, TX",
        "stateAbbreviation": "TX",
        "stateName": "Texas",
        "id": 1140029,
        "latitude": 33.1975,
        "longitude": -96.615
      },
      {
        "numJobs": 700,
        "name": "Lafayette, LA",
        "stateAbbreviation": "LA",
        "stateName": "Louisiana",
        "id": 1149927,
        "latitude": 30.22389,
        "longitude": -92.01972
      },
      {
        "numJobs": 696,
        "name": "Kingsport, TN",
        "stateAbbreviation": "TN",
        "stateName": "Tennessee",
        "id": 1144380,
        "latitude": 36.54833,
        "longitude": -82.56194
      },
      {
        "numJobs": 692,
        "name": "Staten Island, NY",
        "stateAbbreviation": "NY",
        "stateName": "New York",
        "id": 1132430,
        "latitude": 40.58901,
        "longitude": -74.145874
      },
      {
        "numJobs": 692,
        "name": "Largo, FL",
        "stateAbbreviation": "FL",
        "stateName": "Florida",
        "id": 1154404,
        "latitude": 27.90917,
        "longitude": -82.7875
      },
      {
        "numJobs": 691,
        "name": "Port Charlotte, FL",
        "stateAbbreviation": "FL",
        "stateName": "Florida",
        "id": 1154331,
        "latitude": 26.97583,
        "longitude": -82.09083
      },
      {
        "numJobs": 688,
        "name": "Sioux City, IA",
        "stateAbbreviation": "IA",
        "stateName": "Iowa",
        "id": 1149480,
        "latitude": 42.5,
        "longitude": -96.4
      },
      {
        "numJobs": 685,
        "name": "Davenport, IA",
        "stateAbbreviation": "IA",
        "stateName": "Iowa",
        "id": 1149216,
        "latitude": 41.52361,
        "longitude": -90.5775
      },
      {
        "numJobs": 682,
        "name": "Minot, ND",
        "stateAbbreviation": "ND",
        "stateName": "North Dakota",
        "id": 1156308,
        "latitude": 48.2325,
        "longitude": -101.29583
      },
      {
        "numJobs": 681,
        "name": "Corona, CA",
        "stateAbbreviation": "CA",
        "stateName": "California",
        "id": 1147072,
        "latitude": 33.87528,
        "longitude": -117.56556
      },
      {
        "numJobs": 681,
        "name": "Salinas, CA",
        "stateAbbreviation": "CA",
        "stateName": "California",
        "id": 1147265,
        "latitude": 36.67778,
        "longitude": -121.65444
      },
      {
        "numJobs": 678,
        "name": "Edinburg, TX",
        "stateAbbreviation": "TX",
        "stateName": "Texas",
        "id": 1140344,
        "latitude": 26.30139,
        "longitude": -98.16306
      },
      {
        "numJobs": 678,
        "name": "Santa Maria, CA",
        "stateAbbreviation": "CA",
        "stateName": "California",
        "id": 1147474,
        "latitude": 34.95306,
        "longitude": -120.43472
      },
      {
        "numJobs": 673,
        "name": "Toms River, NJ",
        "stateAbbreviation": "NJ",
        "stateName": "New Jersey",
        "id": 1127016,
        "latitude": 39.95361,
        "longitude": -74.19833
      },
      {
        "numJobs": 672,
        "name": "Joplin, MO",
        "stateAbbreviation": "MO",
        "stateName": "Missouri",
        "id": 1130983,
        "latitude": 37.08417,
        "longitude": -94.51306
      },
      {
        "numJobs": 670,
        "name": "Independence, MO",
        "stateAbbreviation": "MO",
        "stateName": "Missouri",
        "id": 1131039,
        "latitude": 39.09111,
        "longitude": -94.41528
      },
      {
        "numJobs": 667,
        "name": "Plymouth, MA",
        "stateAbbreviation": "MA",
        "stateName": "Massachusetts",
        "id": 1154664,
        "latitude": 41.95833,
        "longitude": -70.66778
      },
      {
        "numJobs": 666,
        "name": "Roseville, CA",
        "stateAbbreviation": "CA",
        "stateName": "California",
        "id": 1147226,
        "latitude": 38.75222,
        "longitude": -121.28694
      },
      {
        "numJobs": 663,
        "name": "Aiken, SC",
        "stateAbbreviation": "SC",
        "stateName": "South Carolina",
        "id": 1155044,
        "latitude": 33.56028,
        "longitude": -81.71972
      },
      {
        "numJobs": 659,
        "name": "Arlington Heights, IL",
        "stateAbbreviation": "IL",
        "stateName": "Illinois",
        "id": 1157971,
        "latitude": 42.092873,
        "longitude": -87.97989
      },
      {
        "numJobs": 657,
        "name": "Lawrenceville, GA",
        "stateAbbreviation": "GA",
        "stateName": "Georgia",
        "id": 1155641,
        "latitude": 33.95611,
        "longitude": -83.98806
      },
      {
        "numJobs": 656,
        "name": "Fort Collins, CO",
        "stateAbbreviation": "CO",
        "stateName": "Colorado",
        "id": 1148233,
        "latitude": 40.58528,
        "longitude": -105.08389
      },
      {
        "numJobs": 655,
        "name": "Puyallup, WA",
        "stateAbbreviation": "WA",
        "stateName": "Washington",
        "id": 1150497,
        "latitude": 47.18556,
        "longitude": -122.29167
      },
      {
        "numJobs": 654,
        "name": "Frisco, TX",
        "stateAbbreviation": "TX",
        "stateName": "Texas",
        "id": 1139994,
        "latitude": 33.15056,
        "longitude": -96.82333
      },
      {
        "numJobs": 653,
        "name": "Odessa, TX",
        "stateAbbreviation": "TX",
        "stateName": "Texas",
        "id": 1140385,
        "latitude": 31.84556,
        "longitude": -102.36722
      },
      {
        "numJobs": 651,
        "name": "Littleton, CO",
        "stateAbbreviation": "CO",
        "stateName": "Colorado",
        "id": 1148194,
        "latitude": 39.61333,
        "longitude": -105.01611
      },
      {
        "numJobs": 646,
        "name": "Hollywood, FL",
        "stateAbbreviation": "FL",
        "stateName": "Florida",
        "id": 1154163,
        "latitude": 26.01083,
        "longitude": -80.14972
      },
      {
        "numJobs": 645,
        "name": "Napa, CA",
        "stateAbbreviation": "CA",
        "stateName": "California",
        "id": 1146966,
        "latitude": 38.29722,
        "longitude": -122.28444
      },
      {
        "numJobs": 642,
        "name": "Lebanon, NH",
        "stateAbbreviation": "NH",
        "stateName": "New Hampshire",
        "id": 1147869,
        "latitude": 43.64222,
        "longitude": -72.25222
      },
      {
        "numJobs": 641,
        "name": "Frederick, MD",
        "stateAbbreviation": "MD",
        "stateName": "Maryland",
        "id": 1153851,
        "latitude": 39.41417,
        "longitude": -77.41083
      },
      {
        "numJobs": 637,
        "name": "Brandon, FL",
        "stateAbbreviation": "FL",
        "stateName": "Florida",
        "id": 1154386,
        "latitude": 27.9375,
        "longitude": -82.28611
      },
      {
        "numJobs": 637,
        "name": "Oxnard, CA",
        "stateAbbreviation": "CA",
        "stateName": "California",
        "id": 1146980,
        "latitude": 34.1975,
        "longitude": -119.17611
      },
      {
        "numJobs": 637,
        "name": "Rancho Cucamonga, CA",
        "stateAbbreviation": "CA",
        "stateName": "California",
        "id": 1147132,
        "latitude": 34.10639,
        "longitude": -117.59222
      },
      {
        "numJobs": 636,
        "name": "Santa Fe, NM",
        "stateAbbreviation": "NM",
        "stateName": "New Mexico",
        "id": 1138171,
        "latitude": 35.68694,
        "longitude": -105.93722
      },
      {
        "numJobs": 635,
        "name": "Grand Island, NE",
        "stateAbbreviation": "NE",
        "stateName": "Nebraska",
        "id": 1136313,
        "latitude": 40.925,
        "longitude": -98.34167
      },
      {
        "numJobs": 633,
        "name": "Dothan, AL",
        "stateAbbreviation": "AL",
        "stateName": "Alabama",
        "id": 1127583,
        "latitude": 31.22306,
        "longitude": -85.39056
      },
      {
        "numJobs": 632,
        "name": "Webster, TX",
        "stateAbbreviation": "TX",
        "stateName": "Texas",
        "id": 1140233,
        "latitude": 29.538366,
        "longitude": -95.118256
      },
      {
        "numJobs": 631,
        "name": "Redwood City, CA",
        "stateAbbreviation": "CA",
        "stateName": "California",
        "id": 1147394,
        "latitude": 37.48528,
        "longitude": -122.23528
      },
      {
        "numJobs": 631,
        "name": "Pueblo, CO",
        "stateAbbreviation": "CO",
        "stateName": "Colorado",
        "id": 1148308,
        "latitude": 38.25444,
        "longitude": -104.60861
      },
      {
        "numJobs": 630,
        "name": "College Station, TX",
        "stateAbbreviation": "TX",
        "stateName": "Texas",
        "id": 1139900,
        "latitude": 30.62778,
        "longitude": -96.33417
      },
      {
        "numJobs": 629,
        "name": "Yuma, AZ",
        "stateAbbreviation": "AZ",
        "stateName": "Arizona",
        "id": 1134005,
        "latitude": 32.72528,
        "longitude": -114.62361
      },
      {
        "numJobs": 629,
        "name": "Bremerton, WA",
        "stateAbbreviation": "WA",
        "stateName": "Washington",
        "id": 1150269,
        "latitude": 47.5675,
        "longitude": -122.63139
      },
      {
        "numJobs": 627,
        "name": "Elgin, IL",
        "stateAbbreviation": "IL",
        "stateName": "Illinois",
        "id": 1128828,
        "latitude": 42.03722,
        "longitude": -88.28111
      },
      {
        "numJobs": 626,
        "name": "Boulder, CO",
        "stateAbbreviation": "CO",
        "stateName": "Colorado",
        "id": 1148112,
        "latitude": 40.015,
        "longitude": -105.27
      },
      {
        "numJobs": 625,
        "name": "Fall River, MA",
        "stateAbbreviation": "MA",
        "stateName": "Massachusetts",
        "id": 1154779,
        "latitude": 41.70139,
        "longitude": -71.15556
      },
      {
        "numJobs": 624,
        "name": "Lexington, KY",
        "stateAbbreviation": "KY",
        "stateName": "Kentucky",
        "id": 1137677,
        "latitude": 37.98861,
        "longitude": -84.47778
      },
      {
        "numJobs": 623,
        "name": "Decatur, IL",
        "stateAbbreviation": "IL",
        "stateName": "Illinois",
        "id": 1129091,
        "latitude": 39.84028,
        "longitude": -88.95472
      },
      {
        "numJobs": 623,
        "name": "Altamonte Springs, FL",
        "stateAbbreviation": "FL",
        "stateName": "Florida",
        "id": 1154211,
        "latitude": 28.66083,
        "longitude": -81.36583
      },
      {
        "numJobs": 622,
        "name": "Hackensack, NJ",
        "stateAbbreviation": "NJ",
        "stateName": "New Jersey",
        "id": 1126787,
        "latitude": 40.88583,
        "longitude": -74.04389
      },
      {
        "numJobs": 622,
        "name": "Dearborn, MI",
        "stateAbbreviation": "MI",
        "stateName": "Michigan",
        "id": 1134642,
        "latitude": 42.32222,
        "longitude": -83.17639
      },
      {
        "numJobs": 622,
        "name": "Towson, MD",
        "stateAbbreviation": "MD",
        "stateName": "Maryland",
        "id": 1153644,
        "latitude": 39.40139,
        "longitude": -76.60222
      },
      {
        "numJobs": 620,
        "name": "Waukegan, IL",
        "stateAbbreviation": "IL",
        "stateName": "Illinois",
        "id": 1128997,
        "latitude": 42.36361,
        "longitude": -87.84472
      },
      {
        "numJobs": 619,
        "name": "Suffern, NY",
        "stateAbbreviation": "NY",
        "stateName": "New York",
        "id": 1132433,
        "latitude": 41.11472,
        "longitude": -74.15
      },
      {
        "numJobs": 618,
        "name": "Ventura, CA",
        "stateAbbreviation": "CA",
        "stateName": "California",
        "id": 1146989,
        "latitude": 34.27833,
        "longitude": -119.29222
      },
      {
        "numJobs": 616,
        "name": "Muskegon, MI",
        "stateAbbreviation": "MI",
        "stateName": "Michigan",
        "id": 1135006,
        "latitude": 43.23417,
        "longitude": -86.24833
      },
      {
        "numJobs": 612,
        "name": "Thousand Oaks, CA",
        "stateAbbreviation": "CA",
        "stateName": "California",
        "id": 1146988,
        "latitude": 34.17056,
        "longitude": -118.83667
      },
      {
        "numJobs": 611,
        "name": "Visalia, CA",
        "stateAbbreviation": "CA",
        "stateName": "California",
        "id": 1147641,
        "latitude": 36.33028,
        "longitude": -119.29111
      },
      {
        "numJobs": 610,
        "name": "Reading, PA",
        "stateAbbreviation": "PA",
        "stateName": "Pennsylvania",
        "id": 1153175,
        "latitude": 40.33556,
        "longitude": -75.92722
      },
      {
        "numJobs": 610,
        "name": "Escondido, CA",
        "stateAbbreviation": "CA",
        "stateName": "California",
        "id": 1147287,
        "latitude": 33.11917,
        "longitude": -117.08556
      },
      {
        "numJobs": 609,
        "name": "Oxford, MS",
        "stateAbbreviation": "MS",
        "stateName": "Mississippi",
        "id": 1141460,
        "latitude": 34.36639,
        "longitude": -89.51917
      },
      {
        "numJobs": 608,
        "name": "Garland, TX",
        "stateAbbreviation": "TX",
        "stateName": "Texas",
        "id": 1139995,
        "latitude": 32.9125,
        "longitude": -96.63861
      },
      {
        "numJobs": 607,
        "name": "Albany, GA",
        "stateAbbreviation": "GA",
        "stateName": "Georgia",
        "id": 1155542,
        "latitude": 31.57833,
        "longitude": -84.15583
      },
      {
        "numJobs": 607,
        "name": "Hialeah, FL",
        "stateAbbreviation": "FL",
        "stateName": "Florida",
        "id": 1154162,
        "latitude": 25.85722,
        "longitude": -80.27833
      },
      {
        "numJobs": 606,
        "name": "Springfield, OR",
        "stateAbbreviation": "OR",
        "stateName": "Oregon",
        "id": 1151481,
        "latitude": 44.04639,
        "longitude": -123.02083
      },
      {
        "numJobs": 606,
        "name": "Nashua, NH",
        "stateAbbreviation": "NH",
        "stateName": "New Hampshire",
        "id": 1147911,
        "latitude": 42.76528,
        "longitude": -71.46806
      },
      {
        "numJobs": 605,
        "name": "Temecula, CA",
        "stateAbbreviation": "CA",
        "stateName": "California",
        "id": 1147145,
        "latitude": 33.49361,
        "longitude": -117.1475
      },
      {
        "numJobs": 598,
        "name": "Cherry Hill, NJ",
        "stateAbbreviation": "NJ",
        "stateName": "New Jersey",
        "id": 1127090,
        "latitude": 39.90461,
        "longitude": -74.997
      },
      {
        "numJobs": 598,
        "name": "Fountain Valley, CA",
        "stateAbbreviation": "CA",
        "stateName": "California",
        "id": 1163668,
        "latitude": 33.710487,
        "longitude": -117.95386
      },
      {
        "numJobs": 597,
        "name": "Olathe, KS",
        "stateAbbreviation": "KS",
        "stateName": "Kansas",
        "id": 1151046,
        "latitude": 38.88139,
        "longitude": -94.81889
      },
      {
        "numJobs": 596,
        "name": "Eureka, CA",
        "stateAbbreviation": "CA",
        "stateName": "California",
        "id": 1146665,
        "latitude": 40.80222,
        "longitude": -124.1625
      },
      {
        "numJobs": 592,
        "name": "Bowling Green, KY",
        "stateAbbreviation": "KY",
        "stateName": "Kentucky",
        "id": 1137525,
        "latitude": 36.99028,
        "longitude": -86.44361
      },
      {
        "numJobs": 588,
        "name": "Concord, NH",
        "stateAbbreviation": "NH",
        "stateName": "New Hampshire",
        "id": 1147789,
        "latitude": 43.20806,
        "longitude": -71.53806
      },
      {
        "numJobs": 586,
        "name": "Fayetteville, AR",
        "stateAbbreviation": "AR",
        "stateName": "Arkansas",
        "id": 1143041,
        "latitude": 36.0625,
        "longitude": -94.15722
      },
      {
        "numJobs": 585,
        "name": "Ogden, UT",
        "stateAbbreviation": "UT",
        "stateName": "Utah",
        "id": 1128221,
        "latitude": 41.22306,
        "longitude": -111.97306
      },
      {
        "numJobs": 584,
        "name": "San Mateo, CA",
        "stateAbbreviation": "CA",
        "stateName": "California",
        "id": 1147406,
        "latitude": 37.56306,
        "longitude": -122.32444
      },
      {
        "numJobs": 583,
        "name": "Pontiac, MI",
        "stateAbbreviation": "MI",
        "stateName": "Michigan",
        "id": 1134714,
        "latitude": 42.63889,
        "longitude": -83.29111
      },
      {
        "numJobs": 580,
        "name": "Wausau, WI",
        "stateAbbreviation": "WI",
        "stateName": "Wisconsin",
        "id": 1133724,
        "latitude": 44.95917,
        "longitude": -89.63
      },
      {
        "numJobs": 578,
        "name": "Ashland, KY",
        "stateAbbreviation": "KY",
        "stateName": "Kentucky",
        "id": 1137666,
        "latitude": 38.47833,
        "longitude": -82.63806
      },
      {
        "numJobs": 577,
        "name": "Burlington, VT",
        "stateAbbreviation": "VT",
        "stateName": "Vermont",
        "id": 1141772,
        "latitude": 44.47583,
        "longitude": -73.2125
      },
      {
        "numJobs": 577,
        "name": "Issaquah, WA",
        "stateAbbreviation": "WA",
        "stateName": "Washington",
        "id": 1150468,
        "latitude": 47.53028,
        "longitude": -122.03139
      },
      {
        "numJobs": 576,
        "name": "Clarksville, TN",
        "stateAbbreviation": "TN",
        "stateName": "Tennessee",
        "id": 1144270,
        "latitude": 36.52972,
        "longitude": -87.35944
      },
      {
        "numJobs": 576,
        "name": "Downey, CA",
        "stateAbbreviation": "CA",
        "stateName": "California",
        "id": 1146775,
        "latitude": 33.94,
        "longitude": -118.13167
      },
      {
        "numJobs": 574,
        "name": "Jackson, TN",
        "stateAbbreviation": "TN",
        "stateName": "Tennessee",
        "id": 1144353,
        "latitude": 35.61444,
        "longitude": -88.81389
      },
      {
        "numJobs": 571,
        "name": "Jackson, MI",
        "stateAbbreviation": "MI",
        "stateName": "Michigan",
        "id": 1134877,
        "latitude": 42.24583,
        "longitude": -84.40139
      },
      {
        "numJobs": 570,
        "name": "Lewisville, TX",
        "stateAbbreviation": "TX",
        "stateName": "Texas",
        "id": 1140022,
        "latitude": 33.047523,
        "longitude": -96.99417
      },
      {
        "numJobs": 569,
        "name": "Humble, TX",
        "stateAbbreviation": "TX",
        "stateName": "Texas",
        "id": 1140175,
        "latitude": 29.99999,
        "longitude": -95.26125
      },
      {
        "numJobs": 569,
        "name": "Fairfield, CA",
        "stateAbbreviation": "CA",
        "stateName": "California",
        "id": 1147605,
        "latitude": 38.24944,
        "longitude": -122.03889
      },
      {
        "numJobs": 567,
        "name": "Mansfield, TX",
        "stateAbbreviation": "TX",
        "stateName": "Texas",
        "id": 1140027,
        "latitude": 32.56306,
        "longitude": -97.14139
      },
      {
        "numJobs": 567,
        "name": "Richland, WA",
        "stateAbbreviation": "WA",
        "stateName": "Washington",
        "id": 1150330,
        "latitude": 46.28583,
        "longitude": -119.28333
      },
      {
        "numJobs": 566,
        "name": "Kenosha, WI",
        "stateAbbreviation": "WI",
        "stateName": "Wisconsin",
        "id": 1133351,
        "latitude": 42.58472,
        "longitude": -87.82111
      },
      {
        "numJobs": 565,
        "name": "Youngstown, OH",
        "stateAbbreviation": "OH",
        "stateName": "Ohio",
        "id": 1146406,
        "latitude": 41.09972,
        "longitude": -80.64972
      },
      {
        "numJobs": 565,
        "name": "Bridgeport, CT",
        "stateAbbreviation": "CT",
        "stateName": "Connecticut",
        "id": 1148329,
        "latitude": 41.16694,
        "longitude": -73.20528
      },
      {
        "numJobs": 564,
        "name": "Oak Lawn, IL",
        "stateAbbreviation": "IL",
        "stateName": "Illinois",
        "id": 1128937,
        "latitude": 41.71083,
        "longitude": -87.75806
      },
      {
        "numJobs": 561,
        "name": "Watertown, NY",
        "stateAbbreviation": "NY",
        "stateName": "New York",
        "id": 1132984,
        "latitude": 43.97472,
        "longitude": -75.91111
      },
      {
        "numJobs": 559,
        "name": "Rome, GA",
        "stateAbbreviation": "GA",
        "stateName": "Georgia",
        "id": 1155887,
        "latitude": 34.25694,
        "longitude": -85.16472
      },
      {
        "numJobs": 559,
        "name": "Dover, DE",
        "stateAbbreviation": "DE",
        "stateName": "Delaware",
        "id": 1156347,
        "latitude": 39.15806,
        "longitude": -75.52472
      },
      {
        "numJobs": 558,
        "name": "Suffolk, VA",
        "stateAbbreviation": "VA",
        "stateName": "Virginia",
        "id": 1130320,
        "latitude": 36.72806,
        "longitude": -76.58389
      },
      {
        "numJobs": 556,
        "name": "Lufkin, TX",
        "stateAbbreviation": "TX",
        "stateName": "Texas",
        "id": 1140329,
        "latitude": 31.33806,
        "longitude": -94.72889
      },
      {
        "numJobs": 556,
        "name": "Lakewood, WA",
        "stateAbbreviation": "WA",
        "stateName": "Washington",
        "id": 1150476,
        "latitude": 47.17194,
        "longitude": -122.51722
      },
      {
        "numJobs": 555,
        "name": "Valparaiso, IN",
        "stateAbbreviation": "IN",
        "stateName": "Indiana",
        "id": 1144853,
        "latitude": 41.47306,
        "longitude": -87.06111
      },
      {
        "numJobs": 554,
        "name": "Southaven, MS",
        "stateAbbreviation": "MS",
        "stateName": "Mississippi",
        "id": 1141435,
        "latitude": 34.98889,
        "longitude": -90.0125
      },
      {
        "numJobs": 551,
        "name": "Coral Gables, FL",
        "stateAbbreviation": "FL",
        "stateName": "Florida",
        "id": 1166105,
        "latitude": 25.72111,
        "longitude": -80.26861
      },
      {
        "numJobs": 549,
        "name": "Enid, OK",
        "stateAbbreviation": "OK",
        "stateName": "Oklahoma",
        "id": 1136822,
        "latitude": 36.39556,
        "longitude": -97.87806
      },
      {
        "numJobs": 547,
        "name": "Williamsburg, VA",
        "stateAbbreviation": "VA",
        "stateName": "Virginia",
        "id": 1130328,
        "latitude": 37.27056,
        "longitude": -76.70778
      },
      {
        "numJobs": 547,
        "name": "Texas City, TX",
        "stateAbbreviation": "TX",
        "stateName": "Texas",
        "id": 1140227,
        "latitude": 29.38361,
        "longitude": -94.9025
      },