{
  "success": true,
  "status": "OK",
  "jsessionid": "D13B50249505884BE1B9B1077C55B020",
  "response": {
    "attributionURL": "http://www.glassdoor.com/Job/jobs.htm",
    "countReturned": 53,
    "states": {
      "South Carolina": {
        "numJobs": 623,
        "name": "South Carolina",
        "id": 3411,
        "score": 0.6829115001162444,
        "latitude": 33.985115,
        "longitude": -80.96936
      },
      "Rhode Island": {
        "numJobs": 177,
        "name": "Rhode Island",
        "id": 3156,
        "score": 0.5709782150533603,
        "latitude": 41.675617,
        "longitude": -71.503815
      },
      "New Mexico": {
        "numJobs": 501,
        "name": "New Mexico",
        "id": 1181,
        "score": 0.6873796835985713,
        "latitude": 34.695763,
        "longitude": -106.22367
      },
      "Florida": {
        "numJobs": 2102,
        "name": "Florida",
        "id": 3318,
        "score": 0.8030363417774563,
        "latitude": 28.63532,
        "longitude": -82.39836
      },
      "Alabama": {
        "numJobs": 595,
        "name": "Alabama",
        "id": 105,
        "score": 0.6767717854661796,
        "latitude": 33.074646,
        "longitude": -86.72501
      },
      "California": {
        "numJobs": 10126,
        "name": "California",
        "id": 2280,
        "score": 1,
        "latitude": 37.016674,
        "longitude": -120.15913
      },
      "New Hampshire": {
        "numJobs": 263,
        "name": "New Hampshire",
        "id": 2403,
        "score": 0.6052336449585518,
        "latitude": 43.409595,
        "longitude": -71.541885
      },
      "Puerto Rico": {
        "numJobs": 87,
        "name": "Puerto Rico",
        "id": 1618,
        "score": 0.6459110654352039,
        "latitude": 18.250437,
        "longitude": -66.402916
      },
      "Remote": {
        "numJobs": 33,
        "name": "Remote",
        "id": 11047,
        "score": 0.5211661044184702,
        "latitude": "",
        "longitude": ""
      },
      "Massachusetts": {
        "numJobs": 5211,
        "name": "Massachusetts",
        "id": 3399,
        "score": 0.9760170442076018,
        "latitude": 42.204845,
        "longitude": -71.496826
      },
      "Tennessee": {
        "numJobs": 1083,
        "name": "Tennessee",
        "id": 1968,
        "score": 0.7407152826009614,
        "latitude": 35.869774,
        "longitude": -85.69873
      },
      "Maryland": {
        "numJobs": 2198,
        "name": "Maryland",
        "id": 3201,
        "score": 0.847450798290541,
        "latitude": 39.13058,
        "longitude": -76.71935
      },
      "Louisiana": {
        "numJobs": 402,
        "name": "Louisiana",
        "id": 2792,
        "score": 0.6333156622395558,
        "latitude": 31.05971,
        "longitude": -91.839554
      },
      "Ohio": {
        "numJobs": 1704,
        "name": "Ohio",
        "id": 2235,
        "score": 0.7764044470594484,
        "latitude": 40.20804,
        "longitude": -82.68456
      },
      "West Virginia": {
        "numJobs": 271,
        "name": "West Virginia",
        "id": 1939,
        "score": 0.5979728623733465,
        "latitude": 38.646973,
        "longitude": -80.79809
      },
      "Idaho": {
        "numJobs": 237,
        "name": "Idaho",
        "id": 132,
        "score": 0.5955167241125604,
        "latitude": 44.72104,
        "longitude": -114.83413
      },
      "Virginia": {
        "numJobs": 2049,
        "name": "Virginia",
        "id": 323,
        "score": 0.8153415915309999,
        "latitude": 37.71112,
        "longitude": -78.51438
      },
      "Mississippi": {
        "numJobs": 234,
        "name": "Mississippi",
        "id": 1553,
        "score": 0.5725188989284973,
        "latitude": 32.81446,
        "longitude": -89.712814
      },
      "Texas": {
        "numJobs": 3761,
        "name": "Texas",
        "id": 1347,
        "score": 0.8640164221813551,
        "latitude": 30.541521,
        "longitude": -97.844345
      },
      "Vermont": {
        "numJobs": 76,
        "name": "Vermont",
        "id": 1765,
        "score": 0.47063207576564225,
        "latitude": 44.01336,
        "longitude": -72.68488
      },
      "Wyoming": {
        "numJobs": 83,
        "name": "Wyoming",
        "id": 1258,
        "score": 0.47804656665961565,
        "latitude": 42.800774,
        "longitude": -107.330284
      },
      "New York": {
        "numJobs": 3512,
        "name": "New York",
        "id": 428,
        "score": 0.8767606863822861,
        "latitude": 42.56897,
        "longitude": -75.477
      },
      "Kansas": {
        "numJobs": 445,
        "name": "Kansas",
        "id": 3107,
        "score": 0.6452346837651286,
        "latitude": 38.453106,
        "longitude": -97.173775
      },
      "Michigan": {
        "numJobs": 1308,
        "name": "Michigan",
        "id": 527,
        "score": 0.7633630529149248,
        "latitude": 43.92309,
        "longitude": -85.22649
      },
      "New Jersey": {
        "numJobs": 2744,
        "name": "New Jersey",
        "id": 39,
        "score": 0.8663854656953287,
        "latitude": 40.219467,
        "longitude": -74.63167
      },
      "Colorado": {
        "numJobs": 1098,
        "name": "Colorado",
        "id": 2519,
        "score": 0.7432725057366405,
        "latitude": 39.152225,
        "longitude": -105.41113
      },
      "Pennsylvania": {
        "numJobs": 3300,
        "name": "Pennsylvania",
        "id": 3185,
        "score": 0.8658192853724112,
        "latitude": 40.60347,
        "longitude": -77.41482
      },
      "Maine": {
        "numJobs": 210,
        "name": "Maine",
        "id": 758,
        "score": 0.585437373987683,
        "latitude": 44.6072,
        "longitude": -69.434845
      },
      "Arkansas": {
        "numJobs": 307,
        "name": "Arkansas",
        "id": 1892,
        "score": 0.5989574559096169,
        "latitude": 34.997967,
        "longitude": -92.32213
      },
      "Missouri": {
        "numJobs": 948,
        "name": "Missouri",
        "id": 386,
        "score": 0.7170015620638429,
        "latitude": 38.196053,
        "longitude": -92.25109
      },
      "Iowa": {
        "numJobs": 494,
        "name": "Iowa",
        "id": 2733,
        "score": 0.6498089937372141,
        "latitude": 42.001587,
        "longitude": -93.15462
      },
      "Oregon": {
        "numJobs": 678,
        "name": "Oregon",
        "id": 3163,
        "score": 0.7019278670544219,
        "latitude": 44.54903,
        "longitude": -122.14273
      },
      "North Dakota": {
        "numJobs": 173,
        "name": "North Dakota",
        "id": 3517,
        "score": 0.5673654360302045,
        "latitude": 47.52474,
        "longitude": -99.81501
      },
      "Indiana": {
        "numJobs": 1116,
        "name": "Indiana",
        "id": 2124,
        "score": 0.73635468420213,
        "latitude": 39.853703,
        "longitude": -86.26825
      },
      "Wisconsin": {
        "numJobs": 1045,
        "name": "Wisconsin",
        "id": 481,
        "score": 0.7440904192760309,
        "latitude": 44.22958,
        "longitude": -89.65535
      },
      "Nevada": {
        "numJobs": 597,
        "name": "Nevada",
        "id": 2756,
        "score": 0.7038610495274396,
        "latitude": 39.09225,
        "longitude": -116.94037
      },
      "Minnesota": {
        "numJobs": 1130,
        "name": "Minnesota",
        "id": 1775,
        "score": 0.7551320114878513,
        "latitude": 45.81953,
        "longitude": -93.99869
      },
      "Washington": {
        "numJobs": 1771,
        "name": "Washington",
        "id": 3020,
        "score": 0.8115783879860744,
        "latitude": 47.318367,
        "longitude": -121.16399
      },
      "Delaware": {
        "numJobs": 251,
        "name": "Delaware",
        "id": 3523,
        "score": 0.6205718464325445,
        "latitude": 39.267464,
        "longitude": -75.50684
      },
      "Illinois": {
        "numJobs": 2492,
        "name": "Illinois",
        "id": 302,
        "score": 0.8215993283572338,
        "latitude": 40.22442,
        "longitude": -89.00813
      },
      "Hawaii": {
        "numJobs": 117,
        "name": "Hawaii",
        "id": 1385,
        "score": 0.5275580984755274,
        "latitude": 20.773073,
        "longitude": -156.91919
      },
      "Connecticut": {
        "numJobs": 517,
        "name": "Connecticut",
        "id": 2697,
        "score": 0.6648510413362401,
        "latitude": 41.5664,
        "longitude": -72.77289
      },
      "Montana": {
        "numJobs": 149,
        "name": "Montana",
        "id": 669,
        "score": 0.545583768872407,
        "latitude": 46.91542,
        "longitude": -110.718666
      },
      "District of Columbia": {
        "numJobs": 689,
        "name": "District of Columbia",
        "id": 1211,
        "score": 0.7465292813552741,
        "latitude": 38.895,
        "longitude": -77.03667
      },
      "Oklahoma": {
        "numJobs": 435,
        "name": "Oklahoma",
        "id": 847,
        "score": 0.6414265841810777,
        "latitude": 35.427067,
        "longitude": -96.773994
      },
      "Arizona": {
        "numJobs": 953,
        "name": "Arizona",
        "id": 483,
        "score": 0.7314361691590511,
        "latitude": 33.67677,
        "longitude": -111.58828
      },
      "North Carolina": {
        "numJobs": 2178,
        "name": "North Carolina",
        "id": 1282,
        "score": 0.8320317148334518,
        "latitude": 35.576843,
        "longitude": -79.53007
      },
      "Kentucky": {
        "numJobs": 542,
        "name": "Kentucky",
        "id": 1141,
        "score": 0.6584102764337119,
        "latitude": 37.58137,
        "longitude": -84.888466
      },
      "Alaska": {
        "numJobs": 113,
        "name": "Alaska",
        "id": 496,
        "score": 0.531613969295773,
        "latitude": 61.27834,
        "longitude": -150.32988
      },
      "Georgia": {
        "numJobs": 1401,
        "name": "Georgia",
        "id": 3426,
        "score": 0.7628616956340534,
        "latitude": 33.18301,
        "longitude": -83.751396
      },
      "Utah": {
        "numJobs": 523,
        "name": "Utah",
        "id": 255,
        "score": 0.6809027188508303,
        "latitude": 40.30287,
        "longitude": -111.84235
      },
      "Nebraska": {
        "numJobs": 354,
        "name": "Nebraska",
        "id": 792,
        "score": 0.6356469962872237,
        "latitude": 41.321033,
        "longitude": -98.7876
      },
      "South Dakota": {
        "numJobs": 188,
        "name": "South Dakota",
        "id": 1502,
        "score": 0.578890515085343,
        "latitude": 44.289787,
        "longitude": -99.61724
      }
    },
    "cities": [
      {
        "numJobs": 1753,
        "name": "Boston, MA",
        "stateAbbreviation": "MA",
        "stateName": "Massachusetts",
        "id": 1154532,
        "latitude": 42.35833,
        "longitude": -71.06028
      },
      {
        "numJobs": 1604,
        "name": "New York, NY",
        "stateAbbreviation": "NY",
        "stateName": "New York",
        "id": 1132348,
        "latitude": 40.71417,
        "longitude": -74.00639
      },
      {
        "numJobs": 1252,
        "name": "Cambridge, MA",
        "stateAbbreviation": "MA",
        "stateName": "Massachusetts",
        "id": 1154545,
        "latitude": 42.375,
        "longitude": -71.10611
      },
      {
        "numJobs": 989,
        "name": "Seattle, WA",
        "stateAbbreviation": "WA",
        "stateName": "Washington",
        "id": 1150505,
        "latitude": 47.60639,
        "longitude": -122.33083
      },
      {
        "numJobs": 944,
        "name": "San Diego, CA",
        "stateAbbreviation": "CA",
        "stateName": "California",
        "id": 1147311,
        "latitude": 32.71528,
        "longitude": -117.15639
      },
      {
        "numJobs": 850,
        "name": "Los Angeles, CA",
        "stateAbbreviation": "CA",
        "stateName": "California",
        "id": 1146821,
        "latitude": 34.05222,
        "longitude": -118.24278
      },
      {
        "numJobs": 760,
        "name": "San Francisco, CA",
        "stateAbbreviation": "CA",
        "stateName": "California",
        "id": 1147401,
        "latitude": 37.775,
        "longitude": -122.41833
      },
      {
        "numJobs": 741,
        "name": "Houston, TX",
        "stateAbbreviation": "TX",
        "stateName": "Texas",
        "id": 1140171,
        "latitude": 29.76306,
        "longitude": -95.36306
      },
      {
        "numJobs": 689,
        "name": "Washington, DC",
        "stateAbbreviation": "DC",
        "stateName": "District of Columbia",
        "id": 1138213,
        "latitude": 38.895,
        "longitude": -77.03667
      },
      {
        "numJobs": 642,
        "name": "Chicago, IL",
        "stateAbbreviation": "IL",
        "stateName": "Illinois",
        "id": 1128808,
        "latitude": 41.85,
        "longitude": -87.65
      },
      {
        "numJobs": 593,
        "name": "Dallas, TX",
        "stateAbbreviation": "TX",
        "stateName": "Texas",
        "id": 1139977,
        "latitude": 32.78333,
        "longitude": -96.8
      },
      {
        "numJobs": 502,
        "name": "Atlanta, GA",
        "stateAbbreviation": "GA",
        "stateName": "Georgia",
        "id": 1155583,
        "latitude": 33.74889,
        "longitude": -84.38806
      },
      {
        "numJobs": 475,
        "name": "Indianapolis, IN",
        "stateAbbreviation": "IN",
        "stateName": "Indiana",
        "id": 1145013,
        "latitude": 39.76833,
        "longitude": -86.15806
      },
      {
        "numJobs": 466,
        "name": "Philadelphia, PA",
        "stateAbbreviation": "PA",
        "stateName": "Pennsylvania",
        "id": 1152672,
        "latitude": 39.95222,
        "longitude": -75.16417
      },
      {
        "numJobs": 432,
        "name": "South San Francisco, CA",
        "stateAbbreviation": "CA",
        "stateName": "California",
        "id": 1147412,
        "latitude": 37.65472,
        "longitude": -122.40667
      },
      {
        "numJobs": 398,
        "name": "Pittsburgh, PA",
        "stateAbbreviation": "PA",
        "stateName": "Pennsylvania",
        "id": 1152990,
        "latitude": 40.44056,
        "longitude": -79.99611
      },
      {
        "numJobs": 388,
        "name": "Saint Louis, MO",
        "stateAbbreviation": "MO",
        "stateName": "Missouri",
        "id": 1131270,
        "latitude": 38.636864,
        "longitude": -90.28388
      },
      {
        "numJobs": 376,
        "name": "Memphis, TN",
        "stateAbbreviation": "TN",
        "stateName": "Tennessee",
        "id": 1144463,
        "latitude": 35.14944,
        "longitude": -90.04889
      },
      {
        "numJobs": 356,
        "name": "Cincinnati, OH",
        "stateAbbreviation": "OH",
        "stateName": "Ohio",
        "id": 1145705,
        "latitude": 39.16194,
        "longitude": -84.45694
      },
      {
        "numJobs": 350,
        "name": "Austin, TX",
        "stateAbbreviation": "TX",
        "stateName": "Texas",
        "id": 1139761,
        "latitude": 30.26694,
        "longitude": -97.74278
      },
      {
        "numJobs": 328,
        "name": "Salt Lake City, UT",
        "stateAbbreviation": "UT",
        "stateName": "Utah",
        "id": 1128289,
        "latitude": 40.76083,
        "longitude": -111.89028
      },
      {
        "numJobs": 328,
        "name": "Chapel Hill, NC",
        "stateAbbreviation": "NC",
        "stateName": "North Carolina",
        "id": 1138696,
        "latitude": 35.91306,
        "longitude": -79.05611
      },
      {
        "numJobs": 321,
        "name": "Raleigh, NC",
        "stateAbbreviation": "NC",
        "stateName": "North Carolina",
        "id": 1138960,
        "latitude": 35.77194,
        "longitude": -78.63889
      },
      {
        "numJobs": 311,
        "name": "Sunnyvale, CA",
        "stateAbbreviation": "CA",
        "stateName": "California",
        "id": 1147442,
        "latitude": 37.36889,
        "longitude": -122.03528
      },
      {
        "numJobs": 302,
        "name": "Princeton, NJ",
        "stateAbbreviation": "NJ",
        "stateName": "New Jersey",
        "id": 1127179,
        "latitude": 40.34861,
        "longitude": -74.65944
      },
      {
        "numJobs": 302,
        "name": "Worcester, MA",
        "stateAbbreviation": "MA",
        "stateName": "Massachusetts",
        "id": 1154962,
        "latitude": 42.2625,
        "longitude": -71.80278
      },
      {
        "numJobs": 292,
        "name": "Berkeley, CA",
        "stateAbbreviation": "CA",
        "stateName": "California",
        "id": 1147330,
        "latitude": 37.87167,
        "longitude": -122.27167
      },
      {
        "numJobs": 286,
        "name": "University Park, PA",
        "stateAbbreviation": "PA",
        "stateName": "Pennsylvania",
        "id": 1165673,
        "latitude": 40.80194,
        "longitude": -77.85667
      },
      {
        "numJobs": 284,
        "name": "Frederick, MD",
        "stateAbbreviation": "MD",
        "stateName": "Maryland",
        "id": 1153851,
        "latitude": 39.41417,
        "longitude": -77.41083
      },
      {
        "numJobs": 278,
        "name": "Irvine, CA",
        "stateAbbreviation": "CA",
        "stateName": "California",
        "id": 1146798,
        "latitude": 33.66944,
        "longitude": -117.82222
      },
      {
        "numJobs": 273,
        "name": "Durham, NC",
        "stateAbbreviation": "NC",
        "stateName": "North Carolina",
        "id": 1138697,
        "latitude": 35.99389,
        "longitude": -78.89889
      },
      {
        "numJobs": 272,
        "name": "Phoenix, AZ",
        "stateAbbreviation": "AZ",
        "stateName": "Arizona",
        "id": 1133904,
        "latitude": 33.44833,
        "longitude": -112.07333
      },
      {
        "numJobs": 270,
        "name": "San Antonio, TX",
        "stateAbbreviation": "TX",
        "stateName": "Texas",
        "id": 1140494,
        "latitude": 29.42389,
        "longitude": -98.49333
      },
      {
        "numJobs": 261,
        "name": "Baltimore, MD",
        "stateAbbreviation": "MD",
        "stateName": "Maryland",
        "id": 1153527,
        "latitude": 39.29028,
        "longitude": -76.6125
      },
      {
        "numJobs": 257,
        "name": "Redwood City, CA",
        "stateAbbreviation": "CA",
        "stateName": "California",
        "id": 1147394,
        "latitude": 37.48528,
        "longitude": -122.23528
      },
      {
        "numJobs": 250,
        "name": "Madison, WI",
        "stateAbbreviation": "WI",
        "stateName": "Wisconsin",
        "id": 1133470,
        "latitude": 43.07306,
        "longitude": -89.40111
      },
      {
        "numJobs": 235,
        "name": "Detroit, MI",
        "stateAbbreviation": "MI",
        "stateName": "Michigan",
        "id": 1134644,
        "latitude": 42.33139,
        "longitude": -83.04583
      },
      {
        "numJobs": 234,
        "name": "San Jose, CA",
        "stateAbbreviation": "CA",
        "stateName": "California",
        "id": 1147436,
        "latitude": 37.33944,
        "longitude": -121.89389
      },
      {
        "numJobs": 230,
        "name": "Foster City, CA",
        "stateAbbreviation": "CA",
        "stateName": "California",
        "id": 1163997,
        "latitude": 37.55861,
        "longitude": -122.27
      },
      {
        "numJobs": 228,
        "name": "Santa Clara, CA",
        "stateAbbreviation": "CA",
        "stateName": "California",
        "id": 1147439,
        "latitude": 37.35417,
        "longitude": -121.95417
      },
      {
        "numJobs": 227,
        "name": "Rockville, MD",
        "stateAbbreviation": "MD",
        "stateName": "Maryland",
        "id": 1153899,
        "latitude": 39.08389,
        "longitude": -77.15306
      },
      {
        "numJobs": 225,
        "name": "Palo Alto, CA",
        "stateAbbreviation": "CA",
        "stateName": "California",
        "id": 1147434,
        "latitude": 37.44194,
        "longitude": -122.14194
      },
      {
        "numJobs": 224,
        "name": "Crystal Lake, IL",
        "stateAbbreviation": "IL",
        "stateName": "Illinois",
        "id": 1128819,
        "latitude": 42.24111,
        "longitude": -88.31611
      },
      {
        "numJobs": 223,
        "name": "Gaithersburg, MD",
        "stateAbbreviation": "MD",
        "stateName": "Maryland",
        "id": 1153852,
        "latitude": 39.14333,
        "longitude": -77.20167
      },
      {
        "numJobs": 210,
        "name": "Columbus, OH",
        "stateAbbreviation": "OH",
        "stateName": "Ohio",
        "id": 1145845,
        "latitude": 39.96111,
        "longitude": -82.99889
      },
      {
        "numJobs": 207,
        "name": "Tampa, FL",
        "stateAbbreviation": "FL",
        "stateName": "Florida",
        "id": 1154429,
        "latitude": 27.94722,
        "longitude": -82.45861
      },
      {
        "numJobs": 206,
        "name": "Los Alamos, NM",
        "stateAbbreviation": "NM",
        "stateName": "New Mexico",
        "id": 1138137,
        "latitude": 35.889465,
        "longitude": -106.30698
      },
      {
        "numJobs": 206,
        "name": "Denver, CO",
        "stateAbbreviation": "CO",
        "stateName": "Colorado",
        "id": 1148170,
        "latitude": 39.73917,
        "longitude": -104.98417
      },
      {
        "numJobs": 205,
        "name": "Waltham, MA",
        "stateAbbreviation": "MA",
        "stateName": "Massachusetts",
        "id": 1154703,
        "latitude": 42.37639,
        "longitude": -71.23611
      },
      {
        "numJobs": 204,
        "name": "Portland, OR",
        "stateAbbreviation": "OR",
        "stateName": "Oregon",
        "id": 1151614,
        "latitude": 45.52361,
        "longitude": -122.675
      },
      {
        "numJobs": 201,
        "name": "Minneapolis, MN",
        "stateAbbreviation": "MN",
        "stateName": "Minnesota",
        "id": 1142551,
        "latitude": 44.98,
        "longitude": -93.26361
      },
      {
        "numJobs": 198,
        "name": "Lancaster, PA",
        "stateAbbreviation": "PA",
        "stateName": "Pennsylvania",
        "id": 1152360,
        "latitude": 40.03778,
        "longitude": -76.30583
      },
      {
        "numJobs": 193,
        "name": "Fort Worth, TX",
        "stateAbbreviation": "TX",
        "stateName": "Texas",
        "id": 1139993,
        "latitude": 32.72528,
        "longitude": -97.32056
      },
      {
        "numJobs": 191,
        "name": "Charlotte, NC",
        "stateAbbreviation": "NC",
        "stateName": "North Carolina",
        "id": 1138644,
        "latitude": 35.22694,
        "longitude": -80.84333
      },
      {
        "numJobs": 190,
        "name": "East Hanover, NJ",
        "stateAbbreviation": "NJ",
        "stateName": "New Jersey",
        "id": 1126743,
        "latitude": 40.82,
        "longitude": -74.36528
      },
      {
        "numJobs": 189,
        "name": "Thousand Oaks, CA",
        "stateAbbreviation": "CA",
        "stateName": "California",
        "id": 1146988,
        "latitude": 34.17056,
        "longitude": -118.83667
      },
      {
        "numJobs": 187,
        "name": "Sacramento, CA",
        "stateAbbreviation": "CA",
        "stateName": "California",
        "id": 1147229,
        "latitude": 38.58167,
        "longitude": -121.49333
      },
      {
        "numJobs": 182,
        "name": "Aurora, CO",
        "stateAbbreviation": "CO",
        "stateName": "Colorado",
        "id": 1148156,
        "latitude": 39.72944,
        "longitude": -104.83139
      },
      {
        "numJobs": 173,
        "name": "Bothell, WA",
        "stateAbbreviation": "WA",
        "stateName": "Washington",
        "id": 1150445,
        "latitude": 47.7625,
        "longitude": -122.20417
      },
      {
        "numJobs": 173,
        "name": "Tucson, AZ",
        "stateAbbreviation": "AZ",
        "stateName": "Arizona",
        "id": 1133996,
        "latitude": 32.22167,
        "longitude": -110.92583
      },
      {
        "numJobs": 169,
        "name": "Richmond, VA",
        "stateAbbreviation": "VA",
        "stateName": "Virginia",
        "id": 1130198,
        "latitude": 37.55361,
        "longitude": -77.46056
      },
      {
        "numJobs": 167,
        "name": "Arlington, VA",
        "stateAbbreviation": "VA",
        "stateName": "Virginia",
        "id": 1130337,
        "latitude": 38.89028,
        "longitude": -77.08444
      },
      {
        "numJobs": 158,
        "name": "Fremont, CA",
        "stateAbbreviation": "CA",
        "stateName": "California",
        "id": 1147355,
        "latitude": 37.54833,
        "longitude": -121.9875
      },
      {
        "numJobs": 157,
        "name": "Birmingham, AL",
        "stateAbbreviation": "AL",
        "stateName": "Alabama",
        "id": 1127429,
        "latitude": 33.52056,
        "longitude": -86.8025
      },
      {
        "numJobs": 156,
        "name": "Milwaukee, WI",
        "stateAbbreviation": "WI",
        "stateName": "Wisconsin",
        "id": 1133579,
        "latitude": 43.03889,
        "longitude": -87.90639
      },
      {
        "numJobs": 152,
        "name": "Cleveland, OH",
        "stateAbbreviation": "OH",
        "stateName": "Ohio",
        "id": 1145778,
        "latitude": 41.49944,
        "longitude": -81.69556
      },
      {
        "numJobs": 152,
        "name": "Na Ah Tee, AZ",
        "stateAbbreviation": "AZ",
        "stateName": "Arizona",
        "id": 3741308,
        "latitude": 35.49028,
        "longitude": -110.14389
      },
      {
        "numJobs": 148,
        "name": "Nashville, TN",
        "stateAbbreviation": "TN",
        "stateName": "Tennessee",
        "id": 1144541,
        "latitude": 36.16583,
        "longitude": -86.78444
      },
      {
        "numJobs": 146,
        "name": "Bethesda, MD",
        "stateAbbreviation": "MD",
        "stateName": "Maryland",
        "id": 1153817,
        "latitude": 38.98056,
        "longitude": -77.10056
      },
      {
        "numJobs": 142,
        "name": "Ann Arbor, MI",
        "stateAbbreviation": "MI",
        "stateName": "Michigan",
        "id": 1134560,
        "latitude": 42.27083,
        "longitude": -83.72639
      },
      {
        "numJobs": 140,
        "name": "Jacksonville, FL",
        "stateAbbreviation": "FL",
        "stateName": "Florida",
        "id": 1154093,
        "latitude": 30.33194,
        "longitude": -81.65583
      },
      {
        "numJobs": 134,
        "name": "Lincoln, NE",
        "stateAbbreviation": "NE",
        "stateName": "Nebraska",
        "id": 1136371,
        "latitude": 40.8,
        "longitude": -96.66667
      },
      {
        "numJobs": 132,
        "name": "Lexington, MA",
        "stateAbbreviation": "MA",
        "stateName": "Massachusetts",
        "id": 1154599,
        "latitude": 42.44722,
        "longitude": -71.225
      },
      {
        "numJobs": 128,
        "name": "Miami, FL",
        "stateAbbreviation": "FL",
        "stateName": "Florida",
        "id": 1154170,
        "latitude": 25.77389,
        "longitude": -80.19389
      },
      {
        "numJobs": 128,
        "name": "Louisville, KY",
        "stateAbbreviation": "KY",
        "stateName": "Kentucky",
        "id": 1137724,
        "latitude": 38.25417,
        "longitude": -85.75944
      },
      {
        "numJobs": 127,
        "name": "Carlsbad, CA",
        "stateAbbreviation": "CA",
        "stateName": "California",
        "id": 1147279,
        "latitude": 33.15806,
        "longitude": -117.34972
      },
      {
        "numJobs": 126,
        "name": "Albuquerque, NM",
        "stateAbbreviation": "NM",
        "stateName": "New Mexico",
        "id": 1137959,
        "latitude": 35.08444,
        "longitude": -106.65056
      },
      {
        "numJobs": 125,
        "name": "Fort Collins, CO",
        "stateAbbreviation": "CO",
        "stateName": "Colorado",
        "id": 1148233,
        "latitude": 40.58528,
        "longitude": -105.08389
      },
      {
        "numJobs": 123,
        "name": "Las Vegas, NV",
        "stateAbbreviation": "NV",
        "stateName": "Nevada",
        "id": 1149603,
        "latitude": 36.175,
        "longitude": -115.13639
      },
      {
        "numJobs": 121,
        "name": "Knoxville, TN",
        "stateAbbreviation": "TN",
        "stateName": "Tennessee",
        "id": 1144394,
        "latitude": 35.96056,
        "longitude": -83.92083
      },
      {
        "numJobs": 119,
        "name": "Stanford, CA",
        "stateAbbreviation": "CA",
        "stateName": "California",
        "id": 1147441,
        "latitude": 37.42417,
        "longitude": -122.165
      },
      {
        "numJobs": 119,
        "name": "Columbia, SC",
        "stateAbbreviation": "SC",
        "stateName": "South Carolina",
        "id": 1155132,
        "latitude": 34.00056,
        "longitude": -81.035
      },
      {
        "numJobs": 116,
        "name": "Omaha, NE",
        "stateAbbreviation": "NE",
        "stateName": "Nebraska",
        "id": 1136440,
        "latitude": 41.25861,
        "longitude": -95.9375
      },
      {
        "numJobs": 115,
        "name": "Pleasanton, CA",
        "stateAbbreviation": "CA",
        "stateName": "California",
        "id": 1147390,
        "latitude": 37.6625,
        "longitude": -121.87361
      },
      {
        "numJobs": 113,
        "name": "Hillsboro, OR",
        "stateAbbreviation": "OR",
        "stateName": "Oregon",
        "id": 1151603,
        "latitude": 45.52306,
        "longitude": -122.98861
      },
      {
        "numJobs": 112,
        "name": "Framingham, MA",
        "stateAbbreviation": "MA",
        "stateName": "Massachusetts",
        "id": 1154571,
        "latitude": 42.27917,
        "longitude": -71.41667
      },
      {
        "numJobs": 112,
        "name": "Orlando, FL",
        "stateAbbreviation": "FL",
        "stateName": "Florida",
        "id": 1154247,
        "latitude": 28.53806,
        "longitude": -81.37944
      },
      {
        "numJobs": 112,
        "name": "Dayton, OH",
        "stateAbbreviation": "OH",
        "stateName": "Ohio",
        "id": 1145937,
        "latitude": 39.75889,
        "longitude": -84.19167
      },
      {
        "numJobs": 112,
        "name": "West Point, PA",
        "stateAbbreviation": "PA",
        "stateName": "Pennsylvania",
        "id": 1152735,
        "latitude": 40.20667,
        "longitude": -75.29972
      },
      {
        "numJobs": 112,
        "name": "Coral Gables, FL",
        "stateAbbreviation": "FL",
        "stateName": "Florida",
        "id": 1166105,
        "latitude": 25.72111,
        "longitude": -80.26861
      },
      {
        "numJobs": 111,
        "name": "Kansas City, MO",
        "stateAbbreviation": "MO",
        "stateName": "Missouri",
        "id": 1131040,
        "latitude": 39.09972,
        "longitude": -94.57833
      },
      {
        "numJobs": 111,
        "name": "Augusta, GA",
        "stateAbbreviation": "GA",
        "stateName": "Georgia",
        "id": 1155718,
        "latitude": 33.47083,
        "longitude": -81.975
      },
      {
        "numJobs": 110,
        "name": "Santa Monica, CA",
        "stateAbbreviation": "CA",
        "stateName": "California",
        "id": 1146873,
        "latitude": 34.01944,
        "longitude": -118.49028
      },
      {
        "numJobs": 109,
        "name": "Norfolk, VA",
        "stateAbbreviation": "VA",
        "stateName": "Virginia",
        "id": 1130306,
        "latitude": 36.84667,
        "longitude": -76.28556
      },
      {
        "numJobs": 109,
        "name": "Livermore, CA",
        "stateAbbreviation": "CA",
        "stateName": "California",
        "id": 1147367,
        "latitude": 37.68194,
        "longitude": -121.76694
      },
      {
        "numJobs": 106,
        "name": "Rochester, NY",
        "stateAbbreviation": "NY",
        "stateName": "New York",
        "id": 1132765,
        "latitude": 43.15472,
        "longitude": -77.61583
      },
      {
        "numJobs": 105,
        "name": "Buffalo, NY",
        "stateAbbreviation": "NY",
        "stateName": "New York",
        "id": 1131850,
        "latitude": 42.88639,
        "longitude": -78.87861
      },
      {
        "numJobs": 102,
        "name": "Oakland, CA",
        "stateAbbreviation": "CA",
        "stateName": "California",
        "id": 1147380,
        "latitude": 37.80444,
        "longitude": -122.26972
      },
      {
        "numJobs": 102,
        "name": "Wilmington, DE",
        "stateAbbreviation": "DE",
        "stateName": "Delaware",
        "id": 1156375,
        "latitude": 39.74583,
        "longitude": -75.54694
      },
      {
        "numJobs": 101,
        "name": "Morgantown, WV",
        "stateAbbreviation": "WV",
        "stateName": "West Virginia",
        "id": 1143936,
        "latitude": 39.62944,
        "longitude": -79.95611
      },
      {
        "numJobs": 101,
        "name": "Oklahoma City, OK",
        "stateAbbreviation": "OK",
        "stateName": "Oklahoma",
        "id": 1136950,
        "latitude": 35.4675,
        "longitude": -97.51611
      },
      {
        "numJobs": 101,
        "name": "Charleston, SC",
        "stateAbbreviation": "SC",
        "stateName": "South Carolina",
        "id": 1155074,
        "latitude": 32.77639,
        "longitude": -79.93111
      },
      {
        "numJobs": 100,
        "name": "Tulsa, OK",
        "stateAbbreviation": "OK",
        "stateName": "Oklahoma",
        "id": 1137055,
        "latitude": 36.15389,
        "longitude": -95.9925
      },
      {
        "numJobs": 100,
        "name": "Menlo Park, CA",
        "stateAbbreviation": "CA",
        "stateName": "California",
        "id": 1147371,
        "latitude": 37.45389,
        "longitude": -122.18111
      },
      {
        "numJobs": 99,
        "name": "Providence, RI",
        "stateAbbreviation": "RI",
        "stateName": "Rhode Island",
        "id": 1151289,
        "latitude": 41.82389,
        "longitude": -71.41333
      },
      {
        "numJobs": 99,
        "name": "College Station, TX",
        "stateAbbreviation": "TX",
        "stateName": "Texas",
        "id": 1139900,
        "latitude": 30.62778,
        "longitude": -96.33417
      },
      {
        "numJobs": 98,
        "name": "Huntsville, AL",
        "stateAbbreviation": "AL",
        "stateName": "Alabama",
        "id": 1127653,
        "latitude": 34.73028,
        "longitude": -86.58611
      },
      {
        "numJobs": 98,
        "name": "Amarillo, TX",
        "stateAbbreviation": "TX",
        "stateName": "Texas",
        "id": 1139740,
        "latitude": 35.22194,
        "longitude": -101.83083
      },
      {
        "numJobs": 97,
        "name": "Boulder, CO",
        "stateAbbreviation": "CO",
        "stateName": "Colorado",
        "id": 1148112,
        "latitude": 40.015,
        "longitude": -105.27
      },
      {
        "numJobs": 96,
        "name": "Bridgewater, NJ",
        "stateAbbreviation": "NJ",
        "stateName": "New Jersey",
        "id": 1126710,
        "latitude": 40.593163,
        "longitude": -74.619514
      },
      {
        "numJobs": 95,
        "name": "Aberdeen Proving Ground, MD",
        "stateAbbreviation": "MD",
        "stateName": "Maryland",
        "id": 1153521,
        "latitude": 39.430157,
        "longitude": -76.2193
      },
      {
        "numJobs": 94,
        "name": "North Chicago, IL",
        "stateAbbreviation": "IL",
        "stateName": "Illinois",
        "id": 1128933,
        "latitude": 42.32556,
        "longitude": -87.84111
      },
      {
        "numJobs": 94,
        "name": "Pasadena, CA",
        "stateAbbreviation": "CA",
        "stateName": "California",
        "id": 1146850,
        "latitude": 34.14778,
        "longitude": -118.14361
      },
      {
        "numJobs": 94,
        "name": "Fairfax, VA",
        "stateAbbreviation": "VA",
        "stateName": "Virginia",
        "id": 1130359,
        "latitude": 38.84611,
        "longitude": -77.30667
      },
      {
        "numJobs": 94,
        "name": "Lubbock, TX",
        "stateAbbreviation": "TX",
        "stateName": "Texas",
        "id": 1140320,
        "latitude": 33.57778,
        "longitude": -101.85472
      },
      {
        "numJobs": 93,
        "name": "Fort Lauderdale, FL",
        "stateAbbreviation": "FL",
        "stateName": "Florida",
        "id": 1154160,
        "latitude": 26.12194,
        "longitude": -80.14361
      },
      {
        "numJobs": 93,
        "name": "Tarrytown, NY",
        "stateAbbreviation": "NY",
        "stateName": "New York",
        "id": 1132438,
        "latitude": 41.079224,
        "longitude": -73.85868
      },
      {
        "numJobs": 93,
        "name": "Baton Rouge, LA",
        "stateAbbreviation": "LA",
        "stateName": "Louisiana",
        "id": 1149789,
        "latitude": 30.45056,
        "longitude": -91.15444
      },
      {
        "numJobs": 91,
        "name": "Westborough, MA",
        "stateAbbreviation": "MA",
        "stateName": "Massachusetts",
        "id": 1154956,
        "latitude": 42.26944,
        "longitude": -71.61667
      },
      {
        "numJobs": 91,
        "name": "Falls Church, VA",
        "stateAbbreviation": "VA",
        "stateName": "Virginia",
        "id": 1130361,
        "latitude": 38.88222,
        "longitude": -77.17139
      },
      {
        "numJobs": 91,
        "name": "Reno, NV",
        "stateAbbreviation": "NV",
        "stateName": "Nevada",
        "id": 1149627,
        "latitude": 39.52972,
        "longitude": -119.81278
      },
      {
        "numJobs": 91,
        "name": "La Jolla, CA",
        "stateAbbreviation": "CA",
        "stateName": "California",
        "id": 1147294,
        "latitude": 32.84722,
        "longitude": -117.27333
      },
      {
        "numJobs": 90,
        "name": "Charlottesville, VA",
        "stateAbbreviation": "VA",
        "stateName": "Virginia",
        "id": 1130001,
        "latitude": 38.02917,
        "longitude": -78.47694
      },
      {
        "numJobs": 89,
        "name": "Newark, NJ",
        "stateAbbreviation": "NJ",
        "stateName": "New Jersey",
        "id": 1126906,
        "latitude": 40.73556,
        "longitude": -74.17278
      },
      {
        "numJobs": 89,
        "name": "Syracuse, NY",
        "stateAbbreviation": "NY",
        "stateName": "New York",
        "id": 1132872,
        "latitude": 43.04806,
        "longitude": -76.14778
      },
      {
        "numJobs": 88,
        "name": "Silver Spring, MD",
        "stateAbbreviation": "MD",
        "stateName": "Maryland",
        "id": 1153904,
        "latitude": 38.99056,
        "longitude": -77.02639
      },
      {
        "numJobs": 88,
        "name": "Albany, NY",
        "stateAbbreviation": "NY",
        "stateName": "New York",
        "id": 1131650,
        "latitude": 42.6525,
        "longitude": -73.75667
      },
      {
        "numJobs": 88,
        "name": "Greenville, NC",
        "stateAbbreviation": "NC",
        "stateName": "North Carolina",
        "id": 1138785,
        "latitude": 35.6125,
        "longitude": -77.36667
      },
      {
        "numJobs": 87,
        "name": "Springfield, MO",
        "stateAbbreviation": "MO",
        "stateName": "Missouri",
        "id": 1131348,
        "latitude": 37.21528,
        "longitude": -93.29806
      },
      {
        "numJobs": 87,
        "name": "Mountain View, CA",
        "stateAbbreviation": "CA",
        "stateName": "California",
        "id": 1147431,
        "latitude": 37.38611,
        "longitude": -122.08278
      },
      {
        "numJobs": 85,
        "name": "Winston-Salem, NC",
        "stateAbbreviation": "NC",
        "stateName": "North Carolina",
        "id": 1139151,
        "latitude": 36.09766,
        "longitude": -80.24728
      },
      {
        "numJobs": 82,
        "name": "College Park, MD",
        "stateAbbreviation": "MD",
        "stateName": "Maryland",
        "id": 1153841,
        "latitude": 38.98056,
        "longitude": -76.93722
      },
      {
        "numJobs": 82,
        "name": "Lemont, IL",
        "stateAbbreviation": "IL",
        "stateName": "Illinois",
        "id": 1128896,
        "latitude": 41.67361,
        "longitude": -88.00167
      },
      {
        "numJobs": 82,
        "name": "Buffalo Grove, IL",
        "stateAbbreviation": "IL",
        "stateName": "Illinois",
        "id": 1128800,
        "latitude": 42.15139,
        "longitude": -87.95972
      },
      {
        "numJobs": 81,
        "name": "New Brunswick, NJ",
        "stateAbbreviation": "NJ",
        "stateName": "New Jersey",
        "id": 1126901,
        "latitude": 40.48611,
        "longitude": -74.45222
      },
      {
        "numJobs": 80,
        "name": "Fort Myers, FL",
        "stateAbbreviation": "FL",
        "stateName": "Florida",
        "id": 1154016,
        "latitude": 26.64028,
        "longitude": -81.8725
      },
      {
        "numJobs": 80,
        "name": "Charlestown, MA",
        "stateAbbreviation": "MA",
        "stateName": "Massachusetts",
        "id": 1154549,
        "latitude": 42.37778,
        "longitude": -71.0625
      },
      {
        "numJobs": 80,
        "name": "Tallahassee, FL",
        "stateAbbreviation": "FL",
        "stateName": "Florida",
        "id": 1154378,
        "latitude": 30.43806,
        "longitude": -84.28083
      },
      {
        "numJobs": 80,
        "name": "King of Prussia, PA",
        "stateAbbreviation": "PA",
        "stateName": "Pennsylvania",
        "id": 1152620,
        "latitude": 40.08917,
        "longitude": -75.39639
      },
      {
        "numJobs": 80,
        "name": "Alexandria, VA",
        "stateAbbreviation": "VA",
        "stateName": "Virginia",
        "id": 1130334,
        "latitude": 38.79755,
        "longitude": -77.08908
      },
      {
        "numJobs": 79,
        "name": "Billerica, MA",
        "stateAbbreviation": "MA",
        "stateName": "Massachusetts",
        "id": 1154531,
        "latitude": 42.55833,
        "longitude": -71.26944
      },
      {
        "numJobs": 78,
        "name": "Spring House, PA",
        "stateAbbreviation": "PA",
        "stateName": "Pennsylvania",
        "id": 1152708,
        "latitude": 40.18528,
        "longitude": -75.22806
      },
      {
        "numJobs": 78,
        "name": "Emeryville, CA",
        "stateAbbreviation": "CA",
        "stateName": "California",
        "id": 1147352,
        "latitude": 37.83139,
        "longitude": -122.28417
      },
      {
        "numJobs": 77,
        "name": "Grand Rapids, MI",
        "stateAbbreviation": "MI",
        "stateName": "Michigan",
        "id": 1134796,
        "latitude": 42.96333,
        "longitude": -85.66806
      },
      {
        "numJobs": 77,
        "name": "Chaska, MN",
        "stateAbbreviation": "MN",
        "stateName": "Minnesota",
        "id": 1142509,
        "latitude": 44.78944,
        "longitude": -93.60194
      },
      {
        "numJobs": 76,
        "name": "Lexington-Fayette, KY",
        "stateAbbreviation": "KY",
        "stateName": "Kentucky",
        "id": 3749474,
        "latitude": 38.04972,
        "longitude": -84.45861
      },
      {
        "numJobs": 76,
        "name": "Sioux Falls, SD",
        "stateAbbreviation": "SD",
        "stateName": "South Dakota",
        "id": 1141041,
        "latitude": 43.55,
        "longitude": -96.7
      },
      {
        "numJobs": 75,
        "name": "Marlborough, MA",
        "stateAbbreviation": "MA",
        "stateName": "Massachusetts",
        "id": 1154610,
        "latitude": 42.34583,
        "longitude": -71.55278
      },
      {
        "numJobs": 74,
        "name": "Rahway, NJ",
        "stateAbbreviation": "NJ",
        "stateName": "New Jersey",
        "id": 1126952,
        "latitude": 40.60806,
        "longitude": -74.27806
      },
      {
        "numJobs": 74,
        "name": "Redmond, WA",
        "stateAbbreviation": "WA",
        "stateName": "Washington",
        "id": 1150499,
        "latitude": 47.67417,
        "longitude": -122.12028
      },
      {
        "numJobs": 74,
        "name": "McLean, VA",
        "stateAbbreviation": "VA",
        "stateName": "Virginia",
        "id": 1158535,
        "latitude": 38.93417,
        "longitude": -77.17778
      },
      {
        "numJobs": 73,
        "name": "Fresno, CA",
        "stateAbbreviation": "CA",
        "stateName": "California",
        "id": 1146705,
        "latitude": 36.74778,
        "longitude": -119.77139
      },
      {
        "numJobs": 73,
        "name": "Duarte, CA",
        "stateAbbreviation": "CA",
        "stateName": "California",
        "id": 1146776,
        "latitude": 34.13944,
        "longitude": -117.97639
      },
      {
        "numJobs": 73,
        "name": "Morrisville, NC",
        "stateAbbreviation": "NC",
        "stateName": "North Carolina",
        "id": 1138956,
        "latitude": 35.82333,
        "longitude": -78.82583
      },
      {
        "numJobs": 72,
        "name": "Edison, NJ",
        "stateAbbreviation": "NJ",
        "stateName": "New Jersey",
        "id": 1126748,
        "latitude": 40.52424,
        "longitude": -74.41246
      },
      {
        "numJobs": 72,
        "name": "Greensboro, NC",
        "stateAbbreviation": "NC",
        "stateName": "North Carolina",
        "id": 1138755,
        "latitude": 36.0725,
        "longitude": -79.79222
      },
      {
        "numJobs": 71,
        "name": "Norge, VA",
        "stateAbbreviation": "VA",
        "stateName": "Virginia",
        "id": 1130307,
        "latitude": 37.36861,
        "longitude": -76.77083
      },
      {
        "numJobs": 70,
        "name": "Round Lake, IL",
        "stateAbbreviation": "IL",
        "stateName": "Illinois",
        "id": 1128965,
        "latitude": 42.35333,
        "longitude": -88.09333
      },
      {
        "numJobs": 70,
        "name": "Burbank, CA",
        "stateAbbreviation": "CA",
        "stateName": "California",
        "id": 1146756,
        "latitude": 34.18083,
        "longitude": -118.30806
      },
      {
        "numJobs": 69,
        "name": "New Orleans, LA",
        "stateAbbreviation": "LA",
        "stateName": "Louisiana",
        "id": 1150035,
        "latitude": 29.95444,
        "longitude": -90.075
      },
      {
        "numJobs": 68,
        "name": "Yorktown Heights, NY",
        "stateAbbreviation": "NY",
        "stateName": "New York",
        "id": 1159202,
        "latitude": 41.27083,
        "longitude": -73.77806
      },
      {
        "numJobs": 68,
        "name": "Saint Paul, MN",
        "stateAbbreviation": "MN",
        "stateName": "Minnesota",
        "id": 1142575,
        "latitude": 44.94444,
        "longitude": -93.09306
      },
      {
        "numJobs": 68,
        "name": "Oceanside, CA",
        "stateAbbreviation": "CA",
        "stateName": "California",
        "id": 1147301,
        "latitude": 33.19583,
        "longitude": -117.37861
      },
      {
        "numJobs": 67,
        "name": "Overland Park, KS",
        "stateAbbreviation": "KS",
        "stateName": "Kansas",
        "id": 1151049,
        "latitude": 38.98222,
        "longitude": -94.67056
      },
      {
        "numJobs": 67,
        "name": "Ashburn, VA",
        "stateAbbreviation": "VA",
        "stateName": "Virginia",
        "id": 1130338,
        "latitude": 39.04361,
        "longitude": -77.48778
      },
      {
        "numJobs": 67,
        "name": "Ithaca, NY",
        "stateAbbreviation": "NY",
        "stateName": "New York",
        "id": 1132041,
        "latitude": 42.44056,
        "longitude": -76.49694
      },
      {
        "numJobs": 67,
        "name": "Torrance, CA",
        "stateAbbreviation": "CA",
        "stateName": "California",
        "id": 1146894,
        "latitude": 33.83583,
        "longitude": -118.33972
      },
      {
        "numJobs": 67,
        "name": "Savannah, GA",
        "stateAbbreviation": "GA",
        "stateName": "Georgia",
        "id": 1155906,
        "latitude": 32.08333,
        "longitude": -81.1
      },
      {
        "numJobs": 66,
        "name": "Research Triangle Park, NC",
        "stateAbbreviation": "NC",
        "stateName": "North Carolina",
        "id": 1161290,
        "latitude": 35.90657,
        "longitude": -78.8633
      },
      {
        "numJobs": 66,
        "name": "Irving, TX",
        "stateAbbreviation": "TX",
        "stateName": "Texas",
        "id": 1140006,
        "latitude": 32.81389,
        "longitude": -96.94861
      },
      {
        "numJobs": 66,
        "name": "Marietta, GA",
        "stateAbbreviation": "GA",
        "stateName": "Georgia",
        "id": 1155654,
        "latitude": 33.9525,
        "longitude": -84.55
      },
      {
        "numJobs": 63,
        "name": "Kenilworth, NJ",
        "stateAbbreviation": "NJ",
        "stateName": "New Jersey",
        "id": 1126824,
        "latitude": 40.67639,
        "longitude": -74.29111
      },
      {
        "numJobs": 63,
        "name": "Bryan, TX",
        "stateAbbreviation": "TX",
        "stateName": "Texas",
        "id": 1139896,
        "latitude": 30.67417,
        "longitude": -96.36972
      },
      {
        "numJobs": 63,
        "name": "Novato, CA",
        "stateAbbreviation": "CA",
        "stateName": "California",
        "id": 1147379,
        "latitude": 38.1075,
        "longitude": -122.56861
      },
      {
        "numJobs": 61,
        "name": "Bellevue, WA",
        "stateAbbreviation": "WA",
        "stateName": "Washington",
        "id": 1150442,
        "latitude": 47.61056,
        "longitude": -122.19944
      },
      {
        "numJobs": 61,
        "name": "Kansas City, KS",
        "stateAbbreviation": "KS",
        "stateName": "Kansas",
        "id": 4990210,
        "latitude": 39.11417,
        "longitude": -94.62722
      },
      {
        "numJobs": 60,
        "name": "Bethlehem, PA",
        "stateAbbreviation": "PA",
        "stateName": "Pennsylvania",
        "id": 1151922,
        "latitude": 40.62583,
        "longitude": -75.37083
      },
      {
        "numJobs": 60,
        "name": "Malvern, PA",
        "stateAbbreviation": "PA",
        "stateName": "Pennsylvania",
        "id": 1152639,
        "latitude": 40.03611,
        "longitude": -75.51417
      },
      {
        "numJobs": 59,
        "name": "San Mateo, CA",
        "stateAbbreviation": "CA",
        "stateName": "California",
        "id": 1147406,
        "latitude": 37.56306,
        "longitude": -122.32444
      },
      {
        "numJobs": 59,
        "name": "Greenville, SC",
        "stateAbbreviation": "SC",
        "stateName": "South Carolina",
        "id": 1155193,
        "latitude": 34.8525,
        "longitude": -82.39417
      },
      {
        "numJobs": 58,
        "name": "Saint Petersburg, FL",
        "stateAbbreviation": "FL",
        "stateName": "Florida",
        "id": 1154421,
        "latitude": 27.77056,
        "longitude": -82.67944
      },
      {
        "numJobs": 58,
        "name": "Allentown, PA",
        "stateAbbreviation": "PA",
        "stateName": "Pennsylvania",
        "id": 1151916,
        "latitude": 40.60833,
        "longitude": -75.49056
      },
      {
        "numJobs": 57,
        "name": "Columbia, MD",
        "stateAbbreviation": "MD",
        "stateName": "Maryland",
        "id": 1153546,
        "latitude": 39.24028,
        "longitude": -76.83972
      },
      {
        "numJobs": 57,
        "name": "Summit, NJ",
        "stateAbbreviation": "NJ",
        "stateName": "New Jersey",
        "id": 1127008,
        "latitude": 40.74139,
        "longitude": -74.36
      },
      {
        "numJobs": 57,
        "name": "Springfield, VA",
        "stateAbbreviation": "VA",
        "stateName": "Virginia",
        "id": 1130409,
        "latitude": 38.791557,
        "longitude": -77.18702
      },
      {
        "numJobs": 57,
        "name": "Broomfield, CO",
        "stateAbbreviation": "CO",
        "stateName": "Colorado",
        "id": 1148161,
        "latitude": 39.92056,
        "longitude": -105.08611
      },
      {
        "numJobs": 56,
        "name": "Devens, MA",
        "stateAbbreviation": "MA",
        "stateName": "Massachusetts",
        "id": 1154557,
        "latitude": 42.560352,
        "longitude": -71.57597
      },
      {
        "numJobs": 56,
        "name": "Andover, MA",
        "stateAbbreviation": "MA",
        "stateName": "Massachusetts",
        "id": 1154518,
        "latitude": 42.65833,
        "longitude": -71.1375
      },
      {
        "numJobs": 56,
        "name": "Commerce, TX",
        "stateAbbreviation": "TX",
        "stateName": "Texas",
        "id": 1139971,
        "latitude": 33.24694,
        "longitude": -95.89972
      },
      {
        "numJobs": 56,
        "name": "Fort Detrick, MD",
        "stateAbbreviation": "MD",
        "stateName": "Maryland",
        "id": 1165874,
        "latitude": 0,
        "longitude": 0
      },
      {
        "numJobs": 55,
        "name": "Raritan, NJ",
        "stateAbbreviation": "NJ",
        "stateName": "New Jersey",
        "id": 1126955,
        "latitude": 40.56944,
        "longitude": -74.63333
      },
      {
        "numJobs": 55,
        "name": "Des Plaines, IL",
        "stateAbbreviation": "IL",
        "stateName": "Illinois",
        "id": 1128823,
        "latitude": 42.03333,
        "longitude": -87.88333
      },
      {
        "numJobs": 54,
        "name": "Wilmington, NC",
        "stateAbbreviation": "NC",
        "stateName": "North Carolina",
        "id": 1139117,
        "latitude": 34.22556,
        "longitude": -77.945
      },
      {
        "numJobs": 53,
        "name": "Annapolis Junction, MD",
        "stateAbbreviation": "MD",
        "stateName": "Maryland",
        "id": 1153524,
        "latitude": 39.121613,
        "longitude": -76.79043
      },
      {
        "numJobs": 53,
        "name": "Santa Barbara, CA",
        "stateAbbreviation": "CA",
        "stateName": "California",
        "id": 1147473,
        "latitude": 34.42083,
        "longitude": -119.69722
      },
      {
        "numJobs": 52,
        "name": "Northbrook, IL",
        "stateAbbreviation": "IL",
        "stateName": "Illinois",
        "id": 1128934,
        "latitude": 42.1275,
        "longitude": -87.82889
      },
      {
        "numJobs": 52,
        "name": "West Chester, PA",
        "stateAbbreviation": "PA",
        "stateName": "Pennsylvania",
        "id": 1152733,
        "latitude": 39.96056,
        "longitude": -75.60583
      },
      {
        "numJobs": 52,
        "name": "Honolulu, HI",
        "stateAbbreviation": "HI",
        "stateName": "Hawaii",
        "id": 1140656,
        "latitude": 21.30694,
        "longitude": -157.85834
      },
      {
        "numJobs": 52,
        "name": "Newark, DE",
        "stateAbbreviation": "DE",
        "stateName": "Delaware",
        "id": 1156369,
        "latitude": 39.68361,
        "longitude": -75.75
      },
      {
        "numJobs": 51,
        "name": "Chattanooga, TN",
        "stateAbbreviation": "TN",
        "stateName": "Tennessee",
        "id": 1144251,
        "latitude": 35.04556,
        "longitude": -85.30972
      },
      {
        "numJobs": 51,
        "name": "Montgomery, AL",
        "stateAbbreviation": "AL",
        "stateName": "Alabama",
        "id": 1127704,
        "latitude": 32.36667,
        "longitude": -86.3
      },
      {
        "numJobs": 51,
        "name": "Orange, CA",
        "stateAbbreviation": "CA",
        "stateName": "California",
        "id": 1146843,
        "latitude": 33.78778,
        "longitude": -117.85222
      },
      {
        "numJobs": 51,
        "name": "Blacksburg, VA",
        "stateAbbreviation": "VA",
        "stateName": "Virginia",
        "id": 1129954,
        "latitude": 37.231148,
        "longitude": -80.413055
      },
      {
        "numJobs": 51,
        "name": "Hayward, CA",
        "stateAbbreviation": "CA",
        "stateName": "California",
        "id": 1147358,
        "latitude": 37.66889,
        "longitude": -122.07972
      },
      {
        "numJobs": 49,
        "name": "Rochester, MN",
        "stateAbbreviation": "MN",
        "stateName": "Minnesota",
        "id": 1142638,
        "latitude": 44.02167,
        "longitude": -92.46972
      },
      {
        "numJobs": 48,
        "name": "Boise, ID",
        "stateAbbreviation": "ID",
        "stateName": "Idaho",
        "id": 1127927,
        "latitude": 43.61361,
        "longitude": -116.2025
      },
      {
        "numJobs": 48,
        "name": "Bakersfield, CA",
        "stateAbbreviation": "CA",
        "stateName": "California",
        "id": 1146557,
        "latitude": 35.37333,
        "longitude": -119.01778
      },
      {
        "numJobs": 48,
        "name": "Manassas, VA",
        "stateAbbreviation": "VA",
        "stateName": "Virginia",
        "id": 1130381,
        "latitude": 38.75083,
        "longitude": -77.47556
      },
      {
        "numJobs": 48,
        "name": "El Paso, TX",
        "stateAbbreviation": "TX",
        "stateName": "Texas",
        "id": 1140105,
        "latitude": 31.75861,
        "longitude": -106.48639
      },
      {
        "numJobs": 48,
        "name": "Des Moines, IA",
        "stateAbbreviation": "IA",
        "stateName": "Iowa",
        "id": 1149246,
        "latitude": 41.60056,
        "longitude": -93.60889
      },
      {
        "numJobs": 47,
        "name": "Jersey City, NJ",
        "stateAbbreviation": "NJ",
        "stateName": "New Jersey",
        "id": 1126819,
        "latitude": 40.72806,
        "longitude": -74.07806
      },
      {
        "numJobs": 47,
        "name": "Headquarters, KY",
        "stateAbbreviation": "KY",
        "stateName": "Kentucky",
        "id": 3752857,
        "latitude": 38.35833,
        "longitude": -84.11444
      },
      {
        "numJobs": 47,
        "name": "Iowa City, IA",
        "stateAbbreviation": "IA",
        "stateName": "Iowa",
        "id": 1149332,
        "latitude": 41.66111,
        "longitude": -91.53
      },
      {
        "numJobs": 47,
        "name": "Riverside, CA",
        "stateAbbreviation": "CA",
        "stateName": "California",
        "id": 1147138,
        "latitude": 33.95333,
        "longitude": -117.39528
      },
      {
        "numJobs": 46,
        "name": "Bedford, MA",
        "stateAbbreviation": "MA",
        "stateName": "Massachusetts",
        "id": 1154527,
        "latitude": 42.49056,
        "longitude": -71.27667
      },
      {
        "numJobs": 46,
        "name": "Wichita, KS",
        "stateAbbreviation": "KS",
        "stateName": "Kansas",
        "id": 1151230,
        "latitude": 37.69222,
        "longitude": -97.33722
      },
      {
        "numJobs": 46,
        "name": "Reston, VA",
        "stateAbbreviation": "VA",
        "stateName": "Virginia",
        "id": 1130404,
        "latitude": 38.96861,
        "longitude": -77.34139
      },
      {
        "numJobs": 46,
        "name": "Fargo, ND",
        "stateAbbreviation": "ND",
        "stateName": "North Dakota",
        "id": 1156255,
        "latitude": 46.87722,
        "longitude": -96.78944
      },
      {
        "numJobs": 45,
        "name": "Horsham, PA",
        "stateAbbreviation": "PA",
        "stateName": "Pennsylvania",
        "id": 1152611,
        "latitude": 40.17833,
        "longitude": -75.12889
      },
      {
        "numJobs": 45,
        "name": "Virginia Beach, VA",
        "stateAbbreviation": "VA",
        "stateName": "Virginia",
        "id": 1130324,
        "latitude": 36.85278,
        "longitude": -75.97833
      },
      {
        "numJobs": 45,
        "name": "San Carlos, CA",
        "stateAbbreviation": "CA",
        "stateName": "California",
        "id": 1147400,
        "latitude": 37.50722,
        "longitude": -122.25944
      },
      {
        "numJobs": 45,
        "name": "Spartanburg, SC",
        "stateAbbreviation": "SC",
        "stateName": "South Carolina",
        "id": 1155311,
        "latitude": 34.94944,
        "longitude": -81.93222
      },
      {
        "numJobs": 45,
        "name": "Athens, GA",
        "stateAbbreviation": "GA",
        "stateName": "Georgia",
        "id": 1155564,
        "latitude": 33.96083,
        "longitude": -83.37806
      },
      {
        "numJobs": 45,
        "name": "Tempe, AZ",
        "stateAbbreviation": "AZ",
        "stateName": "Arizona",
        "id": 1133917,
        "latitude": 33.41472,
        "longitude": -111.90861
      },
      {
        "numJobs": 44,
        "name": "Pensacola, FL",
        "stateAbbreviation": "FL",
        "stateName": "Florida",
        "id": 1154318,
        "latitude": 30.42111,
        "longitude": -87.21694
      },
      {
        "numJobs": 44,
        "name": "Long Beach, CA",
        "stateAbbreviation": "CA",
        "stateName": "California",
        "id": 1146819,
        "latitude": 33.76694,
        "longitude": -118.18833
      },
      {
        "numJobs": 44,
        "name": "Sparks, NV",
        "stateAbbreviation": "NV",
        "stateName": "Nevada",
        "id": 1149628,
        "latitude": 39.535,
        "longitude": -119.75167
      },
      {
        "numJobs": 44,
        "name": "Plano, TX",
        "stateAbbreviation": "TX",
        "stateName": "Texas",
        "id": 1140045,
        "latitude": 33.01972,
        "longitude": -96.69861
      },
      {
        "numJobs": 44,
        "name": "Ames, IA",
        "stateAbbreviation": "IA",
        "stateName": "Iowa",
        "id": 1149127,
        "latitude": 42.03472,
        "longitude": -93.61972
      },
      {
        "numJobs": 44,
        "name": "San Rafael, CA",
        "stateAbbreviation": "CA",
        "stateName": "California",
        "id": 1147409,
        "latitude": 37.97361,
        "longitude": -122.53
      },
      {
        "numJobs": 43,
        "name": "Eglin AFB, FL",
        "stateAbbreviation": "FL",
        "stateName": "Florida",
        "id": 1154047,
        "latitude": 30.464354,
        "longitude": -86.53499
      },
      {
        "numJobs": 43,
        "name": "Greenbelt, MD",
        "stateAbbreviation": "MD",
        "stateName": "Maryland",
        "id": 1153857,
        "latitude": 39.00444,
        "longitude": -76.87583
      },
      {
        "numJobs": 43,
        "name": "Herndon, VA",
        "stateAbbreviation": "VA",
        "stateName": "Virginia",
        "id": 1130374,
        "latitude": 38.96944,
        "longitude": -77.38639
      },
      {
        "numJobs": 43,
        "name": "Harrisburg, PA",
        "stateAbbreviation": "PA",
        "stateName": "Pennsylvania",
        "id": 1152185,
        "latitude": 40.27361,
        "longitude": -76.88472
      },
      {
        "numJobs": 43,
        "name": "Henderson, NV",
        "stateAbbreviation": "NV",
        "stateName": "Nevada",
        "id": 1149600,
        "latitude": 36.03972,
        "longitude": -114.98111
      },
      {
        "numJobs": 43,
        "name": "Galveston, TX",
        "stateAbbreviation": "TX",
        "stateName": "Texas",
        "id": 1140161,
        "latitude": 29.30111,
        "longitude": -94.7975
      },
      {
        "numJobs": 43,
        "name": "Spokane, WA",
        "stateAbbreviation": "WA",
        "stateName": "Washington",
        "id": 1150554,
        "latitude": 47.65889,
        "longitude": -117.425
      },
      {
        "numJobs": 43,
        "name": "Richmond, CA",
        "stateAbbreviation": "CA",
        "stateName": "California",
        "id": 1147395,
        "latitude": 37.93583,
        "longitude": -122.34667
      },
      {
        "numJobs": 43,
        "name": "Colorado Springs, CO",
        "stateAbbreviation": "CO",
        "stateName": "Colorado",
        "id": 1148136,
        "latitude": 38.83389,
        "longitude": -104.82083
      },
      {
        "numJobs": 42,
        "name": "Greenfield, WI",
        "stateAbbreviation": "WI",
        "stateName": "Wisconsin",
        "id": 1159459,
        "latitude": 42.96139,
        "longitude": -88.0125
      },
      {
        "numJobs": 42,
        "name": "Eugene, OR",
        "stateAbbreviation": "OR",
        "stateName": "Oregon",
        "id": 1151469,
        "latitude": 44.05222,
        "longitude": -123.08556
      },
      {
        "numJobs": 42,
        "name": "Greenfield, IN",
        "stateAbbreviation": "IN",
        "stateName": "Indiana",
        "id": 1145009,
        "latitude": 39.785,
        "longitude": -85.76944
      },
      {
        "numJobs": 42,
        "name": "Santa Cruz, CA",
        "stateAbbreviation": "CA",
        "stateName": "California",
        "id": 1147488,
        "latitude": 36.97417,
        "longitude": -122.02972
      },
      {
        "numJobs": 42,
        "name": "Ridgefield, CT",
        "stateAbbreviation": "CT",
        "stateName": "Connecticut",
        "id": 1148349,
        "latitude": 41.28139,
        "longitude": -73.49861
      },
      {
        "numJobs": 41,
        "name": "Hampton, VA",
        "stateAbbreviation": "VA",
        "stateName": "Virginia",
        "id": 1130294,
        "latitude": 37.02972,
        "longitude": -76.34556
      },
      {
        "numJobs": 40,
        "name": "Parsippany, NJ",
        "stateAbbreviation": "NJ",
        "stateName": "New Jersey",
        "id": 1126931,
        "latitude": 40.85778,
        "longitude": -74.42639
      },
      {
        "numJobs": 40,
        "name": "Gainesville, FL",
        "stateAbbreviation": "FL",
        "stateName": "Florida",
        "id": 1154062,
        "latitude": 29.65139,
        "longitude": -82.325
      },
      {
        "numJobs": 40,
        "name": "Lenexa, KS",
        "stateAbbreviation": "KS",
        "stateName": "Kansas",
        "id": 1151040,
        "latitude": 38.95361,
        "longitude": -94.73333
      },
      {
        "numJobs": 40,
        "name": "Akron, OH",
        "stateAbbreviation": "OH",
        "stateName": "Ohio",
        "id": 1145529,
        "latitude": 41.08139,
        "longitude": -81.51917
      },
      {
        "numJobs": 40,
        "name": "Chantilly, VA",
        "stateAbbreviation": "VA",
        "stateName": "Virginia",
        "id": 1130353,
        "latitude": 38.89417,
        "longitude": -77.43139
      },
      {
        "numJobs": 40,
        "name": "Round Rock, TX",
        "stateAbbreviation": "TX",
        "stateName": "Texas",
        "id": 1139794,
        "latitude": 30.50806,
        "longitude": -97.67861
      },
      {
        "numJobs": 40,
        "name": "Cary, NC",
        "stateAbbreviation": "NC",
        "stateName": "North Carolina",
        "id": 1138945,
        "latitude": 35.79139,
        "longitude": -78.78139
      },
      {
        "numJobs": 40,
        "name": "Fayetteville, NC",
        "stateAbbreviation": "NC",
        "stateName": "North Carolina",
        "id": 1138720,
        "latitude": 35.0525,
        "longitude": -78.87861
      },
      {
        "numJobs": 40,
        "name": "Dover, DE",
        "stateAbbreviation": "DE",
        "stateName": "Delaware",
        "id": 1156347,
        "latitude": 39.15806,
        "longitude": -75.52472
      },
      {
        "numJobs": 39,
        "name": "York, PA",
        "stateAbbreviation": "PA",
        "stateName": "Pennsylvania",
        "id": 1153468,
        "latitude": 39.9625,
        "longitude": -76.72806
      },
      {
        "numJobs": 39,
        "name": "Fort Belvoir, VA",
        "stateAbbreviation": "VA",
        "stateName": "Virginia",
        "id": 1130362,
        "latitude": 38.712147,
        "longitude": -77.158615
      },
      {
        "numJobs": 39,
        "name": "Everett, WA",
        "stateAbbreviation": "WA",
        "stateName": "Washington",
        "id": 1150458,
        "latitude": 47.97917,
        "longitude": -122.20083
      },
      {
        "numJobs": 39,
        "name": "New Haven, CT",
        "stateAbbreviation": "CT",
        "stateName": "Connecticut",
        "id": 1148466,
        "latitude": 41.30806,
        "longitude": -72.92861
      },
      {
        "numJobs": 38,
        "name": "Somerset, NJ",
        "stateAbbreviation": "NJ",
        "stateName": "New Jersey",
        "id": 1126989,
        "latitude": 40.4975,
        "longitude": -74.48889
      },
      {
        "numJobs": 38,
        "name": "Bloomington, IN",
        "stateAbbreviation": "IN",
        "stateName": "Indiana",
        "id": 1144789,
        "latitude": 39.16528,
        "longitude": -86.52639
      },
      {
        "numJobs": 38,
        "name": "Mobile, AL",
        "stateAbbreviation": "AL",
        "stateName": "Alabama",
        "id": 1127676,
        "latitude": 30.69417,
        "longitude": -88.04306
      },
      {
        "numJobs": 38,
        "name": "Burlington, MA",
        "stateAbbreviation": "MA",
        "stateName": "Massachusetts",
        "id": 1154543,
        "latitude": 42.50472,
        "longitude": -71.19611
      },
      {
        "numJobs": 38,
        "name": "Kalamazoo, MI",
        "stateAbbreviation": "MI",
        "stateName": "Michigan",
        "id": 1134900,
        "latitude": 42.29167,
        "longitude": -85.58722
      },
      {
        "numJobs": 38,
        "name": "East Lansing, MI",
        "stateAbbreviation": "MI",
        "stateName": "Michigan",
        "id": 1134922,
        "latitude": 42.73694,
        "longitude": -84.48389
      },
      {
        "numJobs": 38,
        "name": "Anaheim, CA",
        "stateAbbreviation": "CA",
        "stateName": "California",
        "id": 1146743,
        "latitude": 33.83528,
        "longitude": -117.91361
      },
      {
        "numJobs": 38,
        "name": "Portsmouth, VA",
        "stateAbbreviation": "VA",
        "stateName": "Virginia",
        "id": 1130313,
        "latitude": 36.83528,
        "longitude": -76.29861
      },
      {
        "numJobs": 38,
        "name": "Bronx, NY",
        "stateAbbreviation": "NY",
        "stateName": "New York",
        "id": 1132197,
        "latitude": 40.85,
        "longitude": -73.86667
      },
      {
        "numJobs": 38,
        "name": "Grand Island, NY",
        "stateAbbreviation": "NY",
        "stateName": "New York",
        "id": 1131870,
        "latitude": 43.01377,
        "longitude": -78.958496
      },
      {
        "numJobs": 38,
        "name": "Adelphi, MD",
        "stateAbbreviation": "MD",
        "stateName": "Maryland",
        "id": 1165846,
        "latitude": 39.00306,
        "longitude": -76.97222
      },
      {
        "numJobs": 37,
        "name": "Watertown, MA",
        "stateAbbreviation": "MA",
        "stateName": "Massachusetts",
        "id": 1154705,
        "latitude": 42.37083,
        "longitude": -71.18333
      },
      {
        "numJobs": 37,
        "name": "Livonia, MI",
        "stateAbbreviation": "MI",
        "stateName": "Michigan",
        "id": 1134687,
        "latitude": 42.36833,
        "longitude": -83.35278
      },
      {
        "numJobs": 37,
        "name": "Milpitas, CA",
        "stateAbbreviation": "CA",
        "stateName": "California",
        "id": 1147428,
        "latitude": 37.42833,
        "longitude": -121.90556
      },
      {
        "numJobs": 37,
        "name": "Salem, NH",
        "stateAbbreviation": "NH",
        "stateName": "New Hampshire",
        "id": 1147759,
        "latitude": 42.78833,
        "longitude": -71.20139
      },
      {
        "numJobs": 37,
        "name": "Minnetonka, MN",
        "stateAbbreviation": "MN",
        "stateName": "Minnesota",
        "id": 1142552,
        "latitude": 44.91333,
        "longitude": -93.50306
      },
      {
        "numJobs": 37,
        "name": "Beloit, WI",
        "stateAbbreviation": "WI",
        "stateName": "Wisconsin",
        "id": 1133429,
        "latitude": 42.50833,
        "longitude": -89.03167
      },
      {
        "numJobs": 37,
        "name": "Hartford, CT",
        "stateAbbreviation": "CT",
        "stateName": "Connecticut",
        "id": 1148399,
        "latitude": 41.76361,
        "longitude": -72.68556
      },
      {
        "numJobs": 36,
        "name": "Trenton, NJ",
        "stateAbbreviation": "NJ",
        "stateName": "New Jersey",
        "id": 1127182,
        "latitude": 40.21694,
        "longitude": -74.74333
      },
      {
        "numJobs": 36,
        "name": "Ogden, UT",
        "stateAbbreviation": "UT",
        "stateName": "Utah",
        "id": 1128221,
        "latitude": 41.22306,
        "longitude": -111.97306
      },
      {
        "numJobs": 36,
        "name": "Exton, PA",
        "stateAbbreviation": "PA",
        "stateName": "Pennsylvania",
        "id": 1152576,
        "latitude": 40.02889,
        "longitude": -75.62111
      },
      {
        "numJobs": 36,
        "name": "Swiftwater, PA",
        "stateAbbreviation": "PA",
        "stateName": "Pennsylvania",
        "id": 1152130,
        "latitude": 41.09528,
        "longitude": -75.32528
      },
      {
        "numJobs": 36,
        "name": "Anchorage, AK",
        "stateAbbreviation": "AK",
        "stateName": "Alaska",
        "id": 1134201,
        "latitude": 61.21806,
        "longitude": -149.90028
      },
      {
        "numJobs": 36,
        "name": "Alpharetta, GA",
        "stateAbbreviation": "GA",
        "stateName": "Georgia",
        "id": 1155582,
        "latitude": 34.07528,
        "longitude": -84.29417
      },
      {
        "numJobs": 35,
        "name": "Piscataway, NJ",
        "stateAbbreviation": "NJ",
        "stateName": "New Jersey",
        "id": 1126940,
        "latitude": 40.49917,
        "longitude": -74.39944
      },
      {
        "numJobs": 35,
        "name": "Milford, MA",
        "stateAbbreviation": "MA",
        "stateName": "Massachusetts",
        "id": 1154918,
        "latitude": 42.13972,
        "longitude": -71.51667
      },
      {
        "numJobs": 35,
        "name": "Aurora, IL",
        "stateAbbreviation": "IL",
        "stateName": "Illinois",
        "id": 1128780,
        "latitude": 41.76056,
        "longitude": -88.32
      },
      {
        "numJobs": 35,
        "name": "Warsaw, IN",
        "stateAbbreviation": "IN",
        "stateName": "Indiana",
        "id": 1145346,
        "latitude": 41.23806,
        "longitude": -85.85306
      },
      {
        "numJobs": 35,
        "name": "Carson City, NV",
        "stateAbbreviation": "NV",
        "stateName": "Nevada",
        "id": 1149563,
        "latitude": 39.16389,
        "longitude": -119.76639
      },
      {
        "numJobs": 35,
        "name": "Brooklyn, NY",
        "stateAbbreviation": "NY",
        "stateName": "New York",
        "id": 1132200,
        "latitude": 40.65,
        "longitude": -73.95
      },
      {
        "numJobs": 35,
        "name": "Richland, WA",
        "stateAbbreviation": "WA",
        "stateName": "Washington",
        "id": 1150330,
        "latitude": 46.28583,
        "longitude": -119.28333
      },
      {
        "numJobs": 35,
        "name": "Vicksburg, MS",
        "stateAbbreviation": "MS",
        "stateName": "Mississippi",
        "id": 1141503,
        "latitude": 32.3525,
        "longitude": -90.87778
      },
      {
        "numJobs": 34,
        "name": "South Plainfield, NJ",
        "stateAbbreviation": "NJ",
        "stateName": "New Jersey",
        "id": 1126995,
        "latitude": 40.57917,
        "longitude": -74.41194
      },
      {
        "numJobs": 34,
        "name": "Far-A-Field, PA",
        "stateAbbreviation": "PA",
        "stateName": "Pennsylvania",
        "id": 3806123,
        "latitude": 40.1477,
        "longitude": -75.2777
      },
      {
        "numJobs": 34,
        "name": "Warren, MI",
        "stateAbbreviation": "MI",
        "stateName": "Michigan",
        "id": 1134741,
        "latitude": 42.4775,
        "longitude": -83.02778
      },
      {
        "numJobs": 34,
        "name": "Kissimmee, FL",
        "stateAbbreviation": "FL",
        "stateName": "Florida",
        "id": 1154232,
        "latitude": 28.29167,
        "longitude": -81.40778
      },
      {
        "numJobs": 34,
        "name": "Monrovia, CA",
        "stateAbbreviation": "CA",
        "stateName": "California",
        "id": 1146830,
        "latitude": 34.14806,
        "longitude": -117.99806
      },
      {
        "numJobs": 34,
        "name": "Norman, OK",
        "stateAbbreviation": "OK",
        "stateName": "Oklahoma",
        "id": 1136949,
        "latitude": 35.2225,
        "longitude": -97.43917
      },
      {
        "numJobs": 34,
        "name": "Newport News, VA",
        "stateAbbreviation": "VA",
        "stateName": "Virginia",
        "id": 1130305,
        "latitude": 36.97861,
        "longitude": -76.42833
      },
      {
        "numJobs": 34,
        "name": "Johnston, IA",
        "stateAbbreviation": "IA",
        "stateName": "Iowa",
        "id": 1149256,
        "latitude": 41.67306,
        "longitude": -93.6975
      },
      {
        "numJobs": 34,
        "name": "Fort Meade, MD",
        "stateAbbreviation": "MD",
        "stateName": "Maryland",
        "id": 1165756,
        "latitude": 39.10815,
        "longitude": -76.74323
      },
      {
        "numJobs": 34,
        "name": "Walnut Creek, CA",
        "stateAbbreviation": "CA",
        "stateName": "California",
        "id": 1147417,
        "latitude": 37.90639,
        "longitude": -122.06389
      },
      {
        "numJobs": 34,
        "name": "Davis, CA",
        "stateAbbreviation": "CA",
        "stateName": "California",
        "id": 1147176,
        "latitude": 38.545,
        "longitude": -121.73944
      },
      {
        "numJobs": 33,
        "name": "Clark, NJ",
        "stateAbbreviation": "NJ",
        "stateName": "New Jersey",
        "id": 1126723,
        "latitude": 40.64083,
        "longitude": -74.31111
      },
      {
        "numJobs": 33,
        "name": "Collegeville, PA",
        "stateAbbreviation": "PA",
        "stateName": "Pennsylvania",
        "id": 1152551,
        "latitude": 40.18556,
        "longitude": -75.45194
      },
      {
        "numJobs": 33,
        "name": "West Lafayette, IN",
        "stateAbbreviation": "IN",
        "stateName": "Indiana",
        "id": 1145111,
        "latitude": 40.42583,
        "longitude": -86.90806
      },
      {
        "numJobs": 33,
        "name": "Boulder City, NV",
        "stateAbbreviation": "NV",
        "stateName": "Nevada",
        "id": 1149597,
        "latitude": 35.97861,
        "longitude": -114.83167
      },
      {
        "numJobs": 33,
        "name": "Clayton, NC",
        "stateAbbreviation": "NC",
        "stateName": "North Carolina",
        "id": 1138946,
        "latitude": 35.65056,
        "longitude": -78.45667
      },
      {
        "numJobs": 33,
        "name": "Niskayuna, NY",
        "stateAbbreviation": "NY",
        "stateName": "New York",
        "id": 1158881,
        "latitude": 42.77972,
        "longitude": -73.84611
      },
      {
        "numJobs": 33,
        "name": "Farmington, CT",
        "stateAbbreviation": "CT",
        "stateName": "Connecticut",
        "id": 1148395,
        "latitude": 41.71972,
        "longitude": -72.8325
      },
      {
        "numJobs": 32,
        "name": "Morristown, NJ",
        "stateAbbreviation": "NJ",
        "stateName": "New Jersey",
        "id": 1126891,
        "latitude": 40.79667,
        "longitude": -74.48194
      },
      {
        "numJobs": 32,
        "name": "Northridge, CA",
        "stateAbbreviation": "CA",
        "stateName": "California",
        "id": 1146841,
        "latitude": 34.22833,
        "longitude": -118.53583
      },
      {
        "numJobs": 32,
        "name": "White Plains, NY",
        "stateAbbreviation": "NY",
        "stateName": "New York",
        "id": 1132464,
        "latitude": 41.03389,
        "longitude": -73.76333
      },
      {
        "numJobs": 32,
        "name": "Corpus Christi, TX",
        "stateAbbreviation": "TX",
        "stateName": "Texas",
        "id": 1139919,
        "latitude": 27.80028,
        "longitude": -97.39611
      },
      {
        "numJobs": 32,
        "name": "Modesto, CA",
        "stateAbbreviation": "CA",
        "stateName": "California",
        "id": 1146953,
        "latitude": 37.63917,
        "longitude": -120.99583
      },
      {
        "numJobs": 32,
        "name": "Groton, CT",
        "stateAbbreviation": "CT",
        "stateName": "Connecticut",
        "id": 1148487,
        "latitude": 41.35,
        "longitude": -72.07889
      },
      {
        "numJobs": 32,
        "name": "Longmont, CO",
        "stateAbbreviation": "CO",
        "stateName": "Colorado",
        "id": 1148118,
        "latitude": 40.16722,
        "longitude": -105.10139
      },
      {
        "numJobs": 31,
        "name": "Mansfield, MA",
        "stateAbbreviation": "MA",
        "stateName": "Massachusetts",
        "id": 1154780,
        "latitude": 42.03333,
        "longitude": -71.21944
      },
      {
        "numJobs": 31,
        "name": "Golden Valley, MN",
        "stateAbbreviation": "MN",
        "stateName": "Minnesota",
        "id": 1162283,
        "latitude": 45.00972,
        "longitude": -93.34889
      },
      {
        "numJobs": 31,
        "name": "Billings, MT",
        "stateAbbreviation": "MT",
        "stateName": "Montana",
        "id": 1135402,
        "latitude": 45.78333,
        "longitude": -108.5
      },
      {
        "numJobs": 31,
        "name": "Glenview, IL",
        "stateAbbreviation": "IL",
        "stateName": "Illinois",
        "id": 1128852,
        "latitude": 42.072487,
        "longitude": -87.78677
      },
      {
        "numJobs": 31,
        "name": "Corvallis, OR",
        "stateAbbreviation": "OR",
        "stateName": "Oregon",
        "id": 1151455,
        "latitude": 44.56472,
        "longitude": -123.26083
      },
      {
        "numJobs": 31,
        "name": "Blue Bell, PA",
        "stateAbbreviation": "PA",
        "stateName": "Pennsylvania",
        "id": 1152529,
        "latitude": 40.15222,
        "longitude": -75.26667
      },
      {
        "numJobs": 31,
        "name": "Indian Springs, Clark, NV",
        "stateAbbreviation": "NV",
        "stateName": "Nevada",
        "id": 1149601,
        "latitude": 36.56972,
        "longitude": -115.66972
      },
      {
        "numJobs": 31,
        "name": "Twin Valley, MN",
        "stateAbbreviation": "MN",
        "stateName": "Minnesota",
        "id": 1142217,
        "latitude": 47.26028,
        "longitude": -96.25861
      },
      {
        "numJobs": 31,
        "name": "Duluth, MN",
        "stateAbbreviation": "MN",
        "stateName": "Minnesota",
        "id": 1142353,
        "latitude": 46.78333,
        "longitude": -92.10639
      },
      {
        "numJobs": 31,
        "name": "Englewood, CO",
        "stateAbbreviation": "CO",
        "stateName": "Colorado",
        "id": 1148176,
        "latitude": 39.64778,
        "longitude": -104.98722
      },
      {
        "numJobs": 30,
        "name": "Camden, NJ",
        "stateAbbreviation": "NJ",
        "stateName": "New Jersey",
        "id": 1127087,
        "latitude": 39.92583,
        "longitude": -75.12
      },
      {
        "numJobs": 30,
        "name": "New Bedford, MA",
        "stateAbbreviation": "MA",
        "stateName": "Massachusetts",
        "id": 1154781,
        "latitude": 41.63611,
        "longitude": -70.93472
      },
      {
        "numJobs": 30,
        "name": "Little Rock, AR",
        "stateAbbreviation": "AR",
        "stateName": "Arkansas",
        "id": 1143190,
        "latitude": 34.74639,
        "longitude": -92.28944
      },
      {
        "numJobs": 30,
        "name": "Naperville, IL",
        "stateAbbreviation": "IL",
        "stateName": "Illinois",
        "id": 1128928,
        "latitude": 41.78583,
        "longitude": -88.14722
      },
      {
        "numJobs": 30,
        "name": "Asheville, NC",
        "stateAbbreviation": "NC",
        "stateName": "North Carolina",
        "id": 1138579,
        "latitude": 35.60083,
        "longitude": -82.55417
      },
      {
        "numJobs": 30,
        "name": "El Segundo, CA",
        "stateAbbreviation": "CA",
        "stateName": "California",
        "id": 1146779,
        "latitude": 33.91917,
        "longitude": -118.41556
      },
      {
        "numJobs": 30,
        "name": "Jean, NV",
        "stateAbbreviation": "NV",
        "stateName": "Nevada",
        "id": 1149602,
        "latitude": 35.77889,
        "longitude": -115.32306
      },
      {
        "numJobs": 29,
        "name": "Marlton, NJ",
        "stateAbbreviation": "NJ",
        "stateName": "New Jersey",
        "id": 1127123,
        "latitude": 39.89111,
        "longitude": -74.92222
      },
      {
        "numJobs": 29,
        "name": "Cherry Hill, NJ",
        "stateAbbreviation": "NJ",
        "stateName": "New Jersey",
        "id": 1127090,
        "latitude": 39.90461,
        "longitude": -74.997
      },
      {
        "numJobs": 29,
        "name": "Fort Sam Houston, TX",
        "stateAbbreviation": "TX",
        "stateName": "Texas",
        "id": 1161734,
        "latitude": 0,
        "longitude": 0
      },
      {
        "numJobs": 29,
        "name": "Pocatello, ID",
        "stateAbbreviation": "ID",
        "stateName": "Idaho",
        "id": 1128031,
        "latitude": 42.87139,
        "longitude": -112.44472
      },
      {
        "numJobs": 29,
        "name": "Lansing, MI",
        "stateAbbreviation": "MI",
        "stateName": "Michigan",
        "id": 1134930,
        "latitude": 42.7325,
        "longitude": -84.55556
      },
      {
        "numJobs": 29,
        "name": "Huntington Beach, CA",
        "stateAbbreviation": "CA",
        "stateName": "California",
        "id": 1146795,
        "latitude": 33.66028,
        "longitude": -117.99833
      },
      {
        "numJobs": 29,
        "name": "Harrisonburg, VA",
        "stateAbbreviation": "VA",
        "stateName": "Virginia",
        "id": 1130069,
        "latitude": 38.44944,
        "longitude": -78.86917
      },
      {
        "numJobs": 29,
        "name": "New Hyde Park, NY",
        "stateAbbreviation": "NY",
        "stateName": "New York",
        "id": 1132345,
        "latitude": 40.735,
        "longitude": -73.68833
      },
      {
        "numJobs": 29,
        "name": "Tacoma, WA",
        "stateAbbreviation": "WA",
        "stateName": "Washington",
        "id": 1150517,
        "latitude": 47.25306,
        "longitude": -122.44306
      },
      {
        "numJobs": 29,
        "name": "Scottsdale, AZ",
        "stateAbbreviation": "AZ",
        "stateName": "Arizona",
        "id": 1133911,
        "latitude": 33.50917,
        "longitude": -111.89833
      },
      {
        "numJobs": 28,
        "name": "Huntington, WV",
        "stateAbbreviation": "WV",
        "stateName": "West Virginia",
        "id": 1143910,
        "latitude": 38.41917,
        "longitude": -82.44528
      },
      {
        "numJobs": 28,
        "name": "Suitland, MD",
        "stateAbbreviation": "MD",
        "stateName": "Maryland",
        "id": 1153909,
        "latitude": 38.84861,
        "longitude": -76.92417
      },
      {
        "numJobs": 28,
        "name": "Kingsport, TN",
        "stateAbbreviation": "TN",
        "stateName": "Tennessee",
        "id": 1144380,
        "latitude": 36.54833,
        "longitude": -82.56194
      },
      {
        "numJobs": 28,
        "name": "State College, PA",
        "stateAbbreviation": "PA",
        "stateName": "Pennsylvania",
        "id": 1153370,
        "latitude": 40.79333,
        "longitude": -77.86028
      },
      {
        "numJobs": 28,
        "name": "Pennington, NJ",
        "stateAbbreviation": "NJ",
        "stateName": "New Jersey",
        "id": 1127178,
        "latitude": 40.32833,
        "longitude": -74.79111
      },
      {
        "numJobs": 28,
        "name": "Boca Raton, FL",
        "stateAbbreviation": "FL",
        "stateName": "Florida",
        "id": 1154153,
        "latitude": 26.35833,
        "longitude": -80.08333
      },
      {
        "numJobs": 28,
        "name": "Salem, OR",
        "stateAbbreviation": "OR",
        "stateName": "Oregon",
        "id": 1151682,
        "latitude": 44.94306,
        "longitude": -123.03389
      },
      {
        "numJobs": 28,
        "name": "Rockford, IL",
        "stateAbbreviation": "IL",
        "stateName": "Illinois",
        "id": 1129425,
        "latitude": 42.27111,
        "longitude": -89.09389
      },
      {
        "numJobs": 28,
        "name": "Evansville, IN",
        "stateAbbreviation": "IN",
        "stateName": "Indiana",
        "id": 1144913,
        "latitude": 37.97472,
        "longitude": -87.55583
      },
      {
        "numJobs": 28,
        "name": "Monroeville, PA",
        "stateAbbreviation": "PA",
        "stateName": "Pennsylvania",
        "id": 1152956,
        "latitude": 40.42111,
        "longitude": -79.78833
      },
      {
        "numJobs": 28,
        "name": "Pearl River, NY",
        "stateAbbreviation": "NY",
        "stateName": "New York",
        "id": 1132367,
        "latitude": 41.05889,
        "longitude": -74.02222
      },
      {
        "numJobs": 28,
        "name": "Roles Inn of America, AZ",
        "stateAbbreviation": "AZ",
        "stateName": "Arizona",
        "id": 3741533,
        "latitude": 33.54472,
        "longitude": -112.16694
      },
      {
        "numJobs": 28,
        "name": "Carpinteria, CA",
        "stateAbbreviation": "CA",
        "stateName": "California",
        "id": 1147465,
        "latitude": 34.39889,
        "longitude": -119.5175
      },
      {
        "numJobs": 28,
        "name": "West Sacramento, CA",
        "stateAbbreviation": "CA",
        "stateName": "California",
        "id": 1147241,
        "latitude": 38.58056,
        "longitude": -121.52917
      },
      {
        "numJobs": 27,
        "name": "Reading, PA",
        "stateAbbreviation": "PA",
        "stateName": "Pennsylvania",
        "id": 1153175,
        "latitude": 40.33556,
        "longitude": -75.92722
      },
      {
        "numJobs": 27,
        "name": "Auburn, AL",
        "stateAbbreviation": "AL",
        "stateName": "Alabama",
        "id": 1127412,
        "latitude": 32.60972,
        "longitude": -85.48083
      },
      {
        "numJobs": 27,
        "name": "Tuscaloosa, AL",
        "stateAbbreviation": "AL",
        "stateName": "Alabama",
        "id": 1127776,
        "latitude": 33.20972,
        "longitude": -87.56917
      },
      {
        "numJobs": 27,
        "name": "Jonesboro, AR",
        "stateAbbreviation": "AR",
        "stateName": "Arkansas",
        "id": 1143154,
        "latitude": 35.84222,
        "longitude": -90.70417
      },
      {
        "numJobs": 27,
        "name": "Plymouth, MN",
        "stateAbbreviation": "MN",
        "stateName": "Minnesota",
        "id": 1162329,
        "latitude": 45.01056,
        "longitude": -93.45528
      },
      {
        "numJobs": 27,
        "name": "Toledo, OH",
        "stateAbbreviation": "OH",
        "stateName": "Ohio",
        "id": 1146248,
        "latitude": 41.66389,
        "longitude": -83.55528
      },
      {
        "numJobs": 27,
        "name": "Woodcliff Lake, NJ",
        "stateAbbreviation": "NJ",
        "stateName": "New Jersey",
        "id": 1157445,
        "latitude": 41.02333,
        "longitude": -74.06694
      },
      {
        "numJobs": 27,
        "name": "Rensselaer, NY",
        "stateAbbreviation": "NY",
        "stateName": "New York",
        "id": 1131719,
        "latitude": 42.6425,
        "longitude": -73.74333
      },
      {
        "numJobs": 27,
        "name": "Coralville, IA",
        "stateAbbreviation": "IA",
        "stateName": "Iowa",
        "id": 1149329,
        "latitude": 41.67639,
        "longitude": -91.58028
      },
      {
        "numJobs": 27,
        "name": "Hanover, NH",
        "stateAbbreviation": "NH",
        "stateName": "New Hampshire",
        "id": 1147865,
        "latitude": 43.70222,
        "longitude": -72.29
      },
      {
        "numJobs": 27,
        "name": "Neenah, WI",
        "stateAbbreviation": "WI",
        "stateName": "Wisconsin",
        "id": 1133635,
        "latitude": 44.18583,
        "longitude": -88.4625
      },
      {
        "numJobs": 27,
        "name": "Edwards AFB, CA",
        "stateAbbreviation": "CA",
        "stateName": "California",
        "id": 1163557,
        "latitude": 0,
        "longitude": 0
      },
      {
        "numJobs": 26,
        "name": "Salisbury, MD",
        "stateAbbreviation": "MD",
        "stateName": "Maryland",
        "id": 1153799,
        "latitude": 38.36056,
        "longitude": -75.59972
      },
      {
        "numJobs": 26,
        "name": "Fayetteville, AR",
        "stateAbbreviation": "AR",
        "stateName": "Arkansas",
        "id": 1143041,
        "latitude": 36.0625,
        "longitude": -94.15722
      },
      {
        "numJobs": 26,
        "name": "Medford, OR",
        "stateAbbreviation": "OR",
        "stateName": "Oregon",
        "id": 1151534,
        "latitude": 42.32667,
        "longitude": -122.87444
      },
      {
        "numJobs": 26,
        "name": "Santa Ana, CA",
        "stateAbbreviation": "CA",
        "stateName": "California",
        "id": 1146870,
        "latitude": 33.74556,
        "longitude": -117.86694
      },
      {
        "numJobs": 26,
        "name": "Fort Washington, PA",
        "stateAbbreviation": "PA",
        "stateName": "Pennsylvania",
        "id": 1152585,
        "latitude": 40.14167,
        "longitude": -75.20944
      },
      {
        "numJobs": 26,
        "name": "Roanoke, VA",
        "stateAbbreviation": "VA",
        "stateName": "Virginia",
        "id": 1130242,
        "latitude": 37.27083,
        "longitude": -79.94167
      },
      {
        "numJobs": 26,
        "name": "Branchburg, NJ",
        "stateAbbreviation": "NJ",
        "stateName": "New Jersey",
        "id": 1157308,
        "latitude": 0,
        "longitude": 0
      },
      {
        "numJobs": 26,
        "name": "Melville, NY",
        "stateAbbreviation": "NY",
        "stateName": "New York",
        "id": 1132326,
        "latitude": 40.79333,
        "longitude": -73.41556
      },
      {
        "numJobs": 26,
        "name": "Sugar Land, TX",
        "stateAbbreviation": "TX",
        "stateName": "Texas",
        "id": 1140225,
        "latitude": 29.61944,
        "longitude": -95.63472
      },
      {
        "numJobs": 26,
        "name": "Hercules, CA",
        "stateAbbreviation": "CA",
        "stateName": "California",
        "id": 1147359,
        "latitude": 38.01722,
        "longitude": -122.2875
      },
      {
        "numJobs": 26,
        "name": "Stamford, CT",
        "stateAbbreviation": "CT",
        "stateName": "Connecticut",
        "id": 1148355,
        "latitude": 41.05333,
        "longitude": -73.53917
      },
      {
        "numJobs": 26,
        "name": "Danbury, CT",
        "stateAbbreviation": "CT",
        "stateName": "Connecticut",
        "id": 1148332,
        "latitude": 41.39472,
        "longitude": -73.45444
      },
      {
        "numJobs": 25,
        "name": "Westbrook, ME",
        "stateAbbreviation": "ME",
        "stateName": "Maine",
        "id": 1135923,
        "latitude": 43.67694,
        "longitude": -70.37167
      },
      {
        "numJobs": 25,
        "name": "Bar Harbor, ME",
        "stateAbbreviation": "ME",
        "stateName": "Maine",
        "id": 1135500,
        "latitude": 44.3875,
        "longitude": -68.20444
      },
      {
        "numJobs": 25,
        "name": "Bloomington, MN",
        "stateAbbreviation": "MN",
        "stateName": "Minnesota",
        "id": 1162257,
        "latitude": 44.84083,
        "longitude": -93.29806
      },
      {
        "numJobs": 25,
        "name": "Southfield, MI",
        "stateAbbreviation": "MI",
        "stateName": "Michigan",
        "id": 1134732,
        "latitude": 42.47333,
        "longitude": -83.22194
      },
      {
        "numJobs": 25,
        "name": "Troy, MI",
        "stateAbbreviation": "MI",
        "stateName": "Michigan",
        "id": 1134737,
        "latitude": 42.60556,
        "longitude": -83.15
      },
      {
        "numJobs": 25,
        "name": "Lakeland, FL",
        "stateAbbreviation": "FL",
        "stateName": "Florida",
        "id": 1154143,
        "latitude": 28.03917,
        "longitude": -81.95
      },
      {
        "numJobs": 25,
        "name": "Wilmington, OH",
        "stateAbbreviation": "OH",
        "stateName": "Ohio",
        "id": 1146350,
        "latitude": 39.44528,
        "longitude": -83.82861
      },
      {
        "numJobs": 25,
        "name": "Champaign, IL",
        "stateAbbreviation": "IL",
        "stateName": "Illinois",
        "id": 1128722,
        "latitude": 40.11639,
        "longitude": -88.24333
      },
      {
        "numJobs": 25,
        "name": "Fort Wayne, IN",
        "stateAbbreviation": "IN",
        "stateName": "Indiana",
        "id": 1144939,
        "latitude": 41.13056,
        "longitude": -85.12889
      },
      {
        "numJobs": 25,
        "name": "Mesa, AZ",
        "stateAbbreviation": "AZ",
        "stateName": "Arizona",
        "id": 1133897,
        "latitude": 33.42222,
        "longitude": -111.82194
      },
      {
        "numJobs": 25,
        "name": "Merced, CA",
        "stateAbbreviation": "CA",
        "stateName": "California",
        "id": 1146938,
        "latitude": 37.30222,
        "longitude": -120.48194
      },
      {
        "numJobs": 25,
        "name": "Yuma, AZ",
        "stateAbbreviation": "AZ",
        "stateName": "Arizona",
        "id": 1134005,
        "latitude": 32.72528,
        "longitude": -114.62361
      },
      {
        "numJobs": 25,
        "name": "Temecula, CA",
        "stateAbbreviation": "CA",
        "stateName": "California",
        "id": 1147145,
        "latitude": 33.49361,
        "longitude": -117.1475
      },
      {
        "numJobs": 25,
        "name": "Green Bay, WI",
        "stateAbbreviation": "WI",
        "stateName": "Wisconsin",
        "id": 1133406,
        "latitude": 44.51917,
        "longitude": -88.01972
      },