{
  "success": true,
  "status": "OK",
  "jsessionid": "4C436BB1DEA70601C3D1CA3764E62B24",
  "response": {
    "attributionURL": "http://www.glassdoor.com/Job/jobs.htm",
    "countReturned": 56,
    "states": {
      "Rhode Island": {
        "numJobs": 316,
        "name": "Rhode Island",
        "id": 3156,
        "score": 0.6457386593965607,
        "latitude": 41.675617,
        "longitude": -71.503815
      },
      "South Carolina": {
        "numJobs": 1399,
        "name": "South Carolina",
        "id": 3411,
        "score": 0.7937515804552976,
        "latitude": 33.985115,
        "longitude": -80.96936
      },
      "New Mexico": {
        "numJobs": 873,
        "name": "New Mexico",
        "id": 1181,
        "score": 0.7628502015667962,
        "latitude": 34.695763,
        "longitude": -106.22367
      },
      "Florida": {
        "numJobs": 5802,
        "name": "Florida",
        "id": 3318,
        "score": 0.9486043109601797,
        "latitude": 28.63532,
        "longitude": -82.39836
      },
      "Alabama": {
        "numJobs": 1307,
        "name": "Alabama",
        "id": 105,
        "score": 0.7841826098016067,
        "latitude": 33.074646,
        "longitude": -86.72501
      },
      "California": {
        "numJobs": 10554,
        "name": "California",
        "id": 2280,
        "score": 1,
        "latitude": 37.016674,
        "longitude": -120.15913
      },
      "New Hampshire": {
        "numJobs": 604,
        "name": "New Hampshire",
        "id": 2403,
        "score": 0.7197733336114853,
        "latitude": 43.409595,
        "longitude": -71.541885
      },
      "Puerto Rico": {
        "numJobs": 105,
        "name": "Puerto Rico",
        "id": 1618,
        "score": 0.6600281159874992,
        "latitude": 18.250437,
        "longitude": -66.402916
      },
      "Remote": {
        "numJobs": 5,
        "name": "Remote",
        "id": 11047,
        "score": 0.24819832063650166,
        "latitude": "",
        "longitude": ""
      },
      "Massachusetts": {
        "numJobs": 2393,
        "name": "Massachusetts",
        "id": 3399,
        "score": 0.8408565700316949,
        "latitude": 42.204845,
        "longitude": -71.496826
      },
      "Tennessee": {
        "numJobs": 2090,
        "name": "Tennessee",
        "id": 1968,
        "score": 0.8312329360815548,
        "latitude": 35.869774,
        "longitude": -85.69873
      },
      "Louisiana": {
        "numJobs": 1549,
        "name": "Louisiana",
        "id": 2792,
        "score": 0.8239027752500414,
        "latitude": 31.05971,
        "longitude": -91.839554
      },
      "Maryland": {
        "numJobs": 1987,
        "name": "Maryland",
        "id": 3201,
        "score": 0.8246181548776863,
        "latitude": 39.13058,
        "longitude": -76.71935
      },
      "Ohio": {
        "numJobs": 3293,
        "name": "Ohio",
        "id": 2235,
        "score": 0.8667096196637413,
        "latitude": 40.20804,
        "longitude": -82.68456
      },
      "West Virginia": {
        "numJobs": 649,
        "name": "West Virginia",
        "id": 1939,
        "score": 0.7160579900192569,
        "latitude": 38.646973,
        "longitude": -80.79809
      },
      "Idaho": {
        "numJobs": 536,
        "name": "Idaho",
        "id": 132,
        "score": 0.7080521650194587,
        "latitude": 44.72104,
        "longitude": -114.83413
      },
      "Virginia": {
        "numJobs": 3400,
        "name": "Virginia",
        "id": 323,
        "score": 0.8853147133758387,
        "latitude": 37.71112,
        "longitude": -78.51438
      },
      "Mississippi": {
        "numJobs": 935,
        "name": "Mississippi",
        "id": 1553,
        "score": 0.7626157173532905,
        "latitude": 32.81446,
        "longitude": -89.712814
      },
      "Texas": {
        "numJobs": 6917,
        "name": "Texas",
        "id": 1347,
        "score": 0.9497396336425703,
        "latitude": 30.541521,
        "longitude": -97.844345
      },
      "Vermont": {
        "numJobs": 318,
        "name": "Vermont",
        "id": 1765,
        "score": 0.671646845727002,
        "latitude": 44.01336,
        "longitude": -72.68488
      },
      "Wyoming": {
        "numJobs": 312,
        "name": "Wyoming",
        "id": 1258,
        "score": 0.6614998978959264,
        "latitude": 42.800774,
        "longitude": -107.330284
      },
      "New York": {
        "numJobs": 4775,
        "name": "New York",
        "id": 428,
        "score": 0.917254848013713,
        "latitude": 42.56897,
        "longitude": -75.477
      },
      "Kansas": {
        "numJobs": 1209,
        "name": "Kansas",
        "id": 3107,
        "score": 0.7846763793950515,
        "latitude": 38.453106,
        "longitude": -97.173775
      },
      "Guam": {
        "numJobs": 11,
        "name": "Guam",
        "id": 566,
        "score": 0.46054925590163703,
        "latitude": 13.442065,
        "longitude": 144.7609
      },
      "Michigan": {
        "numJobs": 2271,
        "name": "Michigan",
        "id": 527,
        "score": 0.838922532026835,
        "latitude": 43.92309,
        "longitude": -85.22649
      },
      "New Jersey": {
        "numJobs": 2899,
        "name": "New Jersey",
        "id": 39,
        "score": 0.8675308531028371,
        "latitude": 40.219467,
        "longitude": -74.63167
      },
      "Pennsylvania": {
        "numJobs": 4101,
        "name": "Pennsylvania",
        "id": 3185,
        "score": 0.8944567532872738,
        "latitude": 40.60347,
        "longitude": -77.41482
      },
      "Colorado": {
        "numJobs": 2422,
        "name": "Colorado",
        "id": 2519,
        "score": 0.8542747377452952,
        "latitude": 39.152225,
        "longitude": -105.41113
      },
      "Maine": {
        "numJobs": 516,
        "name": "Maine",
        "id": 758,
        "score": 0.7097787940743899,
        "latitude": 44.6072,
        "longitude": -69.434845
      },
      "Arkansas": {
        "numJobs": 841,
        "name": "Arkansas",
        "id": 1892,
        "score": 0.7333541512308347,
        "latitude": 34.997967,
        "longitude": -92.32213
      },
      "Missouri": {
        "numJobs": 1994,
        "name": "Missouri",
        "id": 386,
        "score": 0.8178506658506844,
        "latitude": 38.196053,
        "longitude": -92.25109
      },
      "Iowa": {
        "numJobs": 1149,
        "name": "Iowa",
        "id": 2733,
        "score": 0.7639110042258871,
        "latitude": 42.001587,
        "longitude": -93.15462
      },
      "Oregon": {
        "numJobs": 1544,
        "name": "Oregon",
        "id": 3163,
        "score": 0.8179143648363996,
        "latitude": 44.54903,
        "longitude": -122.14273
      },
      "North Dakota": {
        "numJobs": 458,
        "name": "North Dakota",
        "id": 3517,
        "score": 0.704694514655211,
        "latitude": 47.52474,
        "longitude": -99.81501
      },
      "Indiana": {
        "numJobs": 2096,
        "name": "Indiana",
        "id": 2124,
        "score": 0.8220419740419269,
        "latitude": 39.853703,
        "longitude": -86.26825
      },
      "Wisconsin": {
        "numJobs": 1541,
        "name": "Wisconsin",
        "id": 481,
        "score": 0.794998517774701,
        "latitude": 44.22958,
        "longitude": -89.65535
      },
      "Virgin Islands": {
        "numJobs": 8,
        "name": "Virgin Islands",
        "id": 2564,
        "score": 0.434457224648014,
        "latitude": 17.97962,
        "longitude": -64.825584
      },
      "Nevada": {
        "numJobs": 1291,
        "name": "Nevada",
        "id": 2756,
        "score": 0.8141119688942194,
        "latitude": 39.09225,
        "longitude": -116.94037
      },
      "Minnesota": {
        "numJobs": 1461,
        "name": "Minnesota",
        "id": 1775,
        "score": 0.7870502854530477,
        "latitude": 45.81953,
        "longitude": -93.99869
      },
      "Delaware": {
        "numJobs": 280,
        "name": "Delaware",
        "id": 3523,
        "score": 0.6264018545717528,
        "latitude": 39.267464,
        "longitude": -75.50684
      },
      "Washington": {
        "numJobs": 2290,
        "name": "Washington",
        "id": 3020,
        "score": 0.8433952047733407,
        "latitude": 47.318367,
        "longitude": -121.16399
      },
      "Illinois": {
        "numJobs": 3804,
        "name": "Illinois",
        "id": 302,
        "score": 0.8793542684598104,
        "latitude": 40.22442,
        "longitude": -89.00813
      },
      "Hawaii": {
        "numJobs": 427,
        "name": "Hawaii",
        "id": 1385,
        "score": 0.7166125502662454,
        "latitude": 20.773073,
        "longitude": -156.91919
      },
      "American Samoa": {
        "numJobs": 2,
        "name": "American Samoa",
        "id": 1559,
        "score": 0.48440891952743864,
        "latitude": 14.2412,
        "longitude": -170.71957
      },
      "Connecticut": {
        "numJobs": 1065,
        "name": "Connecticut",
        "id": 2697,
        "score": 0.7627003893193248,
        "latitude": 41.5664,
        "longitude": -72.77289
      },
      "Montana": {
        "numJobs": 378,
        "name": "Montana",
        "id": 669,
        "score": 0.6733467761488039,
        "latitude": 46.91542,
        "longitude": -110.718666
      },
      "District of Columbia": {
        "numJobs": 790,
        "name": "District of Columbia",
        "id": 1211,
        "score": 0.7565399378420377,
        "latitude": 38.895,
        "longitude": -77.03667
      },
      "Oklahoma": {
        "numJobs": 1012,
        "name": "Oklahoma",
        "id": 847,
        "score": 0.7551680824332319,
        "latitude": 35.427067,
        "longitude": -96.773994
      },
      "Arizona": {
        "numJobs": 1628,
        "name": "Arizona",
        "id": 483,
        "score": 0.8036002371789288,
        "latitude": 33.67677,
        "longitude": -111.58828
      },
      "North Carolina": {
        "numJobs": 2846,
        "name": "North Carolina",
        "id": 1282,
        "score": 0.8656001835386044,
        "latitude": 35.576843,
        "longitude": -79.53007
      },
      "Kentucky": {
        "numJobs": 1499,
        "name": "Kentucky",
        "id": 1141,
        "score": 0.7977016404886142,
        "latitude": 37.58137,
        "longitude": -84.888466
      },
      "Alaska": {
        "numJobs": 321,
        "name": "Alaska",
        "id": 496,
        "score": 0.6812264180240578,
        "latitude": 61.27834,
        "longitude": -150.32988
      },
      "Georgia": {
        "numJobs": 2843,
        "name": "Georgia",
        "id": 3426,
        "score": 0.8605401426417322,
        "latitude": 33.18301,
        "longitude": -83.751396
      },
      "Utah": {
        "numJobs": 863,
        "name": "Utah",
        "id": 255,
        "score": 0.7470820468313922,
        "latitude": 40.30287,
        "longitude": -111.84235
      },
      "Nebraska": {
        "numJobs": 737,
        "name": "Nebraska",
        "id": 792,
        "score": 0.7369560337826494,
        "latitude": 41.321033,
        "longitude": -98.7876
      },
      "South Dakota": {
        "numJobs": 431,
        "name": "South Dakota",
        "id": 1502,
        "score": 0.694713804547344,
        "latitude": 44.289787,
        "longitude": -99.61724
      }
    },
    "cities": [
      {
        "numJobs": 1153,
        "name": "New York, NY",
        "stateAbbreviation": "NY",
        "stateName": "New York",
        "id": 1132348,
        "latitude": 40.71417,
        "longitude": -74.00639
      },
      {
        "numJobs": 1119,
        "name": "Houston, TX",
        "stateAbbreviation": "TX",
        "stateName": "Texas",
        "id": 1140171,
        "latitude": 29.76306,
        "longitude": -95.36306
      },
      {
        "numJobs": 927,
        "name": "Chicago, IL",
        "stateAbbreviation": "IL",
        "stateName": "Illinois",
        "id": 1128808,
        "latitude": 41.85,
        "longitude": -87.65
      },
      {
        "numJobs": 790,
        "name": "Washington, DC",
        "stateAbbreviation": "DC",
        "stateName": "District of Columbia",
        "id": 1138213,
        "latitude": 38.895,
        "longitude": -77.03667
      },
      {
        "numJobs": 779,
        "name": "Los Angeles, CA",
        "stateAbbreviation": "CA",
        "stateName": "California",
        "id": 1146821,
        "latitude": 34.05222,
        "longitude": -118.24278
      },
      {
        "numJobs": 698,
        "name": "Atlanta, GA",
        "stateAbbreviation": "GA",
        "stateName": "Georgia",
        "id": 1155583,
        "latitude": 33.74889,
        "longitude": -84.38806
      },
      {
        "numJobs": 629,
        "name": "Dallas, TX",
        "stateAbbreviation": "TX",
        "stateName": "Texas",
        "id": 1139977,
        "latitude": 32.78333,
        "longitude": -96.8
      },
      {
        "numJobs": 618,
        "name": "Philadelphia, PA",
        "stateAbbreviation": "PA",
        "stateName": "Pennsylvania",
        "id": 1152672,
        "latitude": 39.95222,
        "longitude": -75.16417
      },
      {
        "numJobs": 521,
        "name": "Las Vegas, NV",
        "stateAbbreviation": "NV",
        "stateName": "Nevada",
        "id": 1149603,
        "latitude": 36.175,
        "longitude": -115.13639
      },
      {
        "numJobs": 501,
        "name": "San Francisco, CA",
        "stateAbbreviation": "CA",
        "stateName": "California",
        "id": 1147401,
        "latitude": 37.775,
        "longitude": -122.41833
      },
      {
        "numJobs": 499,
        "name": "San Antonio, TX",
        "stateAbbreviation": "TX",
        "stateName": "Texas",
        "id": 1140494,
        "latitude": 29.42389,
        "longitude": -98.49333
      },
      {
        "numJobs": 498,
        "name": "Phoenix, AZ",
        "stateAbbreviation": "AZ",
        "stateName": "Arizona",
        "id": 1133904,
        "latitude": 33.44833,
        "longitude": -112.07333
      },
      {
        "numJobs": 479,
        "name": "Orlando, FL",
        "stateAbbreviation": "FL",
        "stateName": "Florida",
        "id": 1154247,
        "latitude": 28.53806,
        "longitude": -81.37944
      },
      {
        "numJobs": 464,
        "name": "Boston, MA",
        "stateAbbreviation": "MA",
        "stateName": "Massachusetts",
        "id": 1154532,
        "latitude": 42.35833,
        "longitude": -71.06028
      },
      {
        "numJobs": 449,
        "name": "Denver, CO",
        "stateAbbreviation": "CO",
        "stateName": "Colorado",
        "id": 1148170,
        "latitude": 39.73917,
        "longitude": -104.98417
      },
      {
        "numJobs": 444,
        "name": "Seattle, WA",
        "stateAbbreviation": "WA",
        "stateName": "Washington",
        "id": 1150505,
        "latitude": 47.60639,
        "longitude": -122.33083
      },
      {
        "numJobs": 438,
        "name": "San Diego, CA",
        "stateAbbreviation": "CA",
        "stateName": "California",
        "id": 1147311,
        "latitude": 32.71528,
        "longitude": -117.15639
      },
      {
        "numJobs": 437,
        "name": "Miami, FL",
        "stateAbbreviation": "FL",
        "stateName": "Florida",
        "id": 1154170,
        "latitude": 25.77389,
        "longitude": -80.19389
      },
      {
        "numJobs": 419,
        "name": "Portland, OR",
        "stateAbbreviation": "OR",
        "stateName": "Oregon",
        "id": 1151614,
        "latitude": 45.52361,
        "longitude": -122.675
      },
      {
        "numJobs": 398,
        "name": "Austin, TX",
        "stateAbbreviation": "TX",
        "stateName": "Texas",
        "id": 1139761,
        "latitude": 30.26694,
        "longitude": -97.74278
      },
      {
        "numJobs": 396,
        "name": "Columbus, OH",
        "stateAbbreviation": "OH",
        "stateName": "Ohio",
        "id": 1145845,
        "latitude": 39.96111,
        "longitude": -82.99889
      },
      {
        "numJobs": 395,
        "name": "Nashville, TN",
        "stateAbbreviation": "TN",
        "stateName": "Tennessee",
        "id": 1144541,
        "latitude": 36.16583,
        "longitude": -86.78444
      },
      {
        "numJobs": 383,
        "name": "Saint Louis, MO",
        "stateAbbreviation": "MO",
        "stateName": "Missouri",
        "id": 1131270,
        "latitude": 38.636864,
        "longitude": -90.28388
      },
      {
        "numJobs": 378,
        "name": "Indianapolis, IN",
        "stateAbbreviation": "IN",
        "stateName": "Indiana",
        "id": 1145013,
        "latitude": 39.76833,
        "longitude": -86.15806
      },
      {
        "numJobs": 371,
        "name": "Louisville, KY",
        "stateAbbreviation": "KY",
        "stateName": "Kentucky",
        "id": 1137724,
        "latitude": 38.25417,
        "longitude": -85.75944
      },
      {
        "numJobs": 363,
        "name": "Pittsburgh, PA",
        "stateAbbreviation": "PA",
        "stateName": "Pennsylvania",
        "id": 1152990,
        "latitude": 40.44056,
        "longitude": -79.99611
      },
      {
        "numJobs": 356,
        "name": "Baltimore, MD",
        "stateAbbreviation": "MD",
        "stateName": "Maryland",
        "id": 1153527,
        "latitude": 39.29028,
        "longitude": -76.6125
      },
      {
        "numJobs": 340,
        "name": "Charlotte, NC",
        "stateAbbreviation": "NC",
        "stateName": "North Carolina",
        "id": 1138644,
        "latitude": 35.22694,
        "longitude": -80.84333
      },
      {
        "numJobs": 329,
        "name": "Cincinnati, OH",
        "stateAbbreviation": "OH",
        "stateName": "Ohio",
        "id": 1145705,
        "latitude": 39.16194,
        "longitude": -84.45694
      },
      {
        "numJobs": 317,
        "name": "San Jose, CA",
        "stateAbbreviation": "CA",
        "stateName": "California",
        "id": 1147436,
        "latitude": 37.33944,
        "longitude": -121.89389
      },
      {
        "numJobs": 304,
        "name": "Jacksonville, FL",
        "stateAbbreviation": "FL",
        "stateName": "Florida",
        "id": 1154093,
        "latitude": 30.33194,
        "longitude": -81.65583
      },
      {
        "numJobs": 303,
        "name": "Tampa, FL",
        "stateAbbreviation": "FL",
        "stateName": "Florida",
        "id": 1154429,
        "latitude": 27.94722,
        "longitude": -82.45861
      },
      {
        "numJobs": 255,
        "name": "Kansas City, MO",
        "stateAbbreviation": "MO",
        "stateName": "Missouri",
        "id": 1131040,
        "latitude": 39.09972,
        "longitude": -94.57833
      },
      {
        "numJobs": 249,
        "name": "Memphis, TN",
        "stateAbbreviation": "TN",
        "stateName": "Tennessee",
        "id": 1144463,
        "latitude": 35.14944,
        "longitude": -90.04889
      },
      {
        "numJobs": 248,
        "name": "Albuquerque, NM",
        "stateAbbreviation": "NM",
        "stateName": "New Mexico",
        "id": 1137959,
        "latitude": 35.08444,
        "longitude": -106.65056
      },
      {
        "numJobs": 244,
        "name": "Fort Worth, TX",
        "stateAbbreviation": "TX",
        "stateName": "Texas",
        "id": 1139993,
        "latitude": 32.72528,
        "longitude": -97.32056
      },
      {
        "numJobs": 241,
        "name": "Sacramento, CA",
        "stateAbbreviation": "CA",
        "stateName": "California",
        "id": 1147229,
        "latitude": 38.58167,
        "longitude": -121.49333
      },
      {
        "numJobs": 231,
        "name": "Richmond, VA",
        "stateAbbreviation": "VA",
        "stateName": "Virginia",
        "id": 1130198,
        "latitude": 37.55361,
        "longitude": -77.46056
      },
      {
        "numJobs": 222,
        "name": "Arlington, VA",
        "stateAbbreviation": "VA",
        "stateName": "Virginia",
        "id": 1130337,
        "latitude": 38.89028,
        "longitude": -77.08444
      },
      {
        "numJobs": 219,
        "name": "Minneapolis, MN",
        "stateAbbreviation": "MN",
        "stateName": "Minnesota",
        "id": 1142551,
        "latitude": 44.98,
        "longitude": -93.26361
      },
      {
        "numJobs": 216,
        "name": "Raleigh, NC",
        "stateAbbreviation": "NC",
        "stateName": "North Carolina",
        "id": 1138960,
        "latitude": 35.77194,
        "longitude": -78.63889
      },
      {
        "numJobs": 214,
        "name": "Salt Lake City, UT",
        "stateAbbreviation": "UT",
        "stateName": "Utah",
        "id": 1128289,
        "latitude": 40.76083,
        "longitude": -111.89028
      },
      {
        "numJobs": 194,
        "name": "Fort Lauderdale, FL",
        "stateAbbreviation": "FL",
        "stateName": "Florida",
        "id": 1154160,
        "latitude": 26.12194,
        "longitude": -80.14361
      },
      {
        "numJobs": 190,
        "name": "Cleveland, OH",
        "stateAbbreviation": "OH",
        "stateName": "Ohio",
        "id": 1145778,
        "latitude": 41.49944,
        "longitude": -81.69556
      },
      {
        "numJobs": 190,
        "name": "New Orleans, LA",
        "stateAbbreviation": "LA",
        "stateName": "Louisiana",
        "id": 1150035,
        "latitude": 29.95444,
        "longitude": -90.075
      },
      {
        "numJobs": 190,
        "name": "Milwaukee, WI",
        "stateAbbreviation": "WI",
        "stateName": "Wisconsin",
        "id": 1133579,
        "latitude": 43.03889,
        "longitude": -87.90639
      },
      {
        "numJobs": 179,
        "name": "Detroit, MI",
        "stateAbbreviation": "MI",
        "stateName": "Michigan",
        "id": 1134644,
        "latitude": 42.33139,
        "longitude": -83.04583
      },
      {
        "numJobs": 174,
        "name": "Brooklyn, NY",
        "stateAbbreviation": "NY",
        "stateName": "New York",
        "id": 1132200,
        "latitude": 40.65,
        "longitude": -73.95
      },
      {
        "numJobs": 172,
        "name": "San Bernardino, CA",
        "stateAbbreviation": "CA",
        "stateName": "California",
        "id": 1147140,
        "latitude": 34.10833,
        "longitude": -117.28889
      },
      {
        "numJobs": 169,
        "name": "Tulsa, OK",
        "stateAbbreviation": "OK",
        "stateName": "Oklahoma",
        "id": 1137055,
        "latitude": 36.15389,
        "longitude": -95.9925
      },
      {
        "numJobs": 169,
        "name": "Aurora, CO",
        "stateAbbreviation": "CO",
        "stateName": "Colorado",
        "id": 1148156,
        "latitude": 39.72944,
        "longitude": -104.83139
      },
      {
        "numJobs": 163,
        "name": "Winston-Salem, NC",
        "stateAbbreviation": "NC",
        "stateName": "North Carolina",
        "id": 1139151,
        "latitude": 36.09766,
        "longitude": -80.24728
      },
      {
        "numJobs": 163,
        "name": "Omaha, NE",
        "stateAbbreviation": "NE",
        "stateName": "Nebraska",
        "id": 1136440,
        "latitude": 41.25861,
        "longitude": -95.9375
      },
      {
        "numJobs": 158,
        "name": "McLean, VA",
        "stateAbbreviation": "VA",
        "stateName": "Virginia",
        "id": 1158535,
        "latitude": 38.93417,
        "longitude": -77.17778
      },
      {
        "numJobs": 158,
        "name": "West Palm Beach, FL",
        "stateAbbreviation": "FL",
        "stateName": "Florida",
        "id": 1154182,
        "latitude": 26.715,
        "longitude": -80.05361
      },
      {
        "numJobs": 158,
        "name": "Hillsboro, OR",
        "stateAbbreviation": "OR",
        "stateName": "Oregon",
        "id": 1151603,
        "latitude": 45.52306,
        "longitude": -122.98861
      },
      {
        "numJobs": 158,
        "name": "Rochester, NY",
        "stateAbbreviation": "NY",
        "stateName": "New York",
        "id": 1132765,
        "latitude": 43.15472,
        "longitude": -77.61583
      },
      {
        "numJobs": 156,
        "name": "Chantilly, VA",
        "stateAbbreviation": "VA",
        "stateName": "Virginia",
        "id": 1130353,
        "latitude": 38.89417,
        "longitude": -77.43139
      },
      {
        "numJobs": 153,
        "name": "Madison, WI",
        "stateAbbreviation": "WI",
        "stateName": "Wisconsin",
        "id": 1133470,
        "latitude": 43.07306,
        "longitude": -89.40111
      },
      {
        "numJobs": 152,
        "name": "Honolulu, HI",
        "stateAbbreviation": "HI",
        "stateName": "Hawaii",
        "id": 1140656,
        "latitude": 21.30694,
        "longitude": -157.85834
      },
      {
        "numJobs": 148,
        "name": "Reno, NV",
        "stateAbbreviation": "NV",
        "stateName": "Nevada",
        "id": 1149627,
        "latitude": 39.52972,
        "longitude": -119.81278
      },
      {
        "numJobs": 143,
        "name": "Tallahassee, FL",
        "stateAbbreviation": "FL",
        "stateName": "Florida",
        "id": 1154378,
        "latitude": 30.43806,
        "longitude": -84.28083
      },
      {
        "numJobs": 142,
        "name": "Virginia Beach, VA",
        "stateAbbreviation": "VA",
        "stateName": "Virginia",
        "id": 1130324,
        "latitude": 36.85278,
        "longitude": -75.97833
      },
      {
        "numJobs": 142,
        "name": "Oklahoma City, OK",
        "stateAbbreviation": "OK",
        "stateName": "Oklahoma",
        "id": 1136950,
        "latitude": 35.4675,
        "longitude": -97.51611
      },
      {
        "numJobs": 141,
        "name": "Birmingham, AL",
        "stateAbbreviation": "AL",
        "stateName": "Alabama",
        "id": 1127429,
        "latitude": 33.52056,
        "longitude": -86.8025
      },
      {
        "numJobs": 141,
        "name": "Greensboro, NC",
        "stateAbbreviation": "NC",
        "stateName": "North Carolina",
        "id": 1138755,
        "latitude": 36.0725,
        "longitude": -79.79222
      },
      {
        "numJobs": 140,
        "name": "Baton Rouge, LA",
        "stateAbbreviation": "LA",
        "stateName": "Louisiana",
        "id": 1149789,
        "latitude": 30.45056,
        "longitude": -91.15444
      },
      {
        "numJobs": 140,
        "name": "Tucson, AZ",
        "stateAbbreviation": "AZ",
        "stateName": "Arizona",
        "id": 1133996,
        "latitude": 32.22167,
        "longitude": -110.92583
      },
      {
        "numJobs": 139,
        "name": "Saint Paul, MN",
        "stateAbbreviation": "MN",
        "stateName": "Minnesota",
        "id": 1142575,
        "latitude": 44.94444,
        "longitude": -93.09306
      },
      {
        "numJobs": 138,
        "name": "Wichita, KS",
        "stateAbbreviation": "KS",
        "stateName": "Kansas",
        "id": 1151230,
        "latitude": 37.69222,
        "longitude": -97.33722
      },
      {
        "numJobs": 136,
        "name": "Dayton, OH",
        "stateAbbreviation": "OH",
        "stateName": "Ohio",
        "id": 1145937,
        "latitude": 39.75889,
        "longitude": -84.19167
      },
      {
        "numJobs": 134,
        "name": "Oakland, CA",
        "stateAbbreviation": "CA",
        "stateName": "California",
        "id": 1147380,
        "latitude": 37.80444,
        "longitude": -122.26972
      },
      {
        "numJobs": 131,
        "name": "Columbia, SC",
        "stateAbbreviation": "SC",
        "stateName": "South Carolina",
        "id": 1155132,
        "latitude": 34.00056,
        "longitude": -81.035
      },
      {
        "numJobs": 131,
        "name": "Buffalo, NY",
        "stateAbbreviation": "NY",
        "stateName": "New York",
        "id": 1131850,
        "latitude": 42.88639,
        "longitude": -78.87861
      },
      {
        "numJobs": 128,
        "name": "Pensacola, FL",
        "stateAbbreviation": "FL",
        "stateName": "Florida",
        "id": 1154318,
        "latitude": 30.42111,
        "longitude": -87.21694
      },
      {
        "numJobs": 128,
        "name": "Riverside, CA",
        "stateAbbreviation": "CA",
        "stateName": "California",
        "id": 1147138,
        "latitude": 33.95333,
        "longitude": -117.39528
      },
      {
        "numJobs": 127,
        "name": "Reston, VA",
        "stateAbbreviation": "VA",
        "stateName": "Virginia",
        "id": 1130404,
        "latitude": 38.96861,
        "longitude": -77.34139
      },
      {
        "numJobs": 127,
        "name": "Colorado Springs, CO",
        "stateAbbreviation": "CO",
        "stateName": "Colorado",
        "id": 1148136,
        "latitude": 38.83389,
        "longitude": -104.82083
      },
      {
        "numJobs": 124,
        "name": "Des Moines, IA",
        "stateAbbreviation": "IA",
        "stateName": "Iowa",
        "id": 1149246,
        "latitude": 41.60056,
        "longitude": -93.60889
      },
      {
        "numJobs": 123,
        "name": "Knoxville, TN",
        "stateAbbreviation": "TN",
        "stateName": "Tennessee",
        "id": 1144394,
        "latitude": 35.96056,
        "longitude": -83.92083
      },
      {
        "numJobs": 123,
        "name": "Fresno, CA",
        "stateAbbreviation": "CA",
        "stateName": "California",
        "id": 1146705,
        "latitude": 36.74778,
        "longitude": -119.77139
      },
      {
        "numJobs": 123,
        "name": "Anaheim, CA",
        "stateAbbreviation": "CA",
        "stateName": "California",
        "id": 1146743,
        "latitude": 33.83528,
        "longitude": -117.91361
      },
      {
        "numJobs": 122,
        "name": "Fort Wayne, IN",
        "stateAbbreviation": "IN",
        "stateName": "Indiana",
        "id": 1144939,
        "latitude": 41.13056,
        "longitude": -85.12889
      },
      {
        "numJobs": 122,
        "name": "Alpharetta, GA",
        "stateAbbreviation": "GA",
        "stateName": "Georgia",
        "id": 1155582,
        "latitude": 34.07528,
        "longitude": -84.29417
      },
      {
        "numJobs": 120,
        "name": "Albany, NY",
        "stateAbbreviation": "NY",
        "stateName": "New York",
        "id": 1131650,
        "latitude": 42.6525,
        "longitude": -73.75667
      },
      {
        "numJobs": 120,
        "name": "Springfield, MO",
        "stateAbbreviation": "MO",
        "stateName": "Missouri",
        "id": 1131348,
        "latitude": 37.21528,
        "longitude": -93.29806
      },
      {
        "numJobs": 120,
        "name": "Syracuse, NY",
        "stateAbbreviation": "NY",
        "stateName": "New York",
        "id": 1132872,
        "latitude": 43.04806,
        "longitude": -76.14778
      },
      {
        "numJobs": 118,
        "name": "Toledo, OH",
        "stateAbbreviation": "OH",
        "stateName": "Ohio",
        "id": 1146248,
        "latitude": 41.66389,
        "longitude": -83.55528
      },
      {
        "numJobs": 116,
        "name": "Huntsville, AL",
        "stateAbbreviation": "AL",
        "stateName": "Alabama",
        "id": 1127653,
        "latitude": 34.73028,
        "longitude": -86.58611
      },
      {
        "numJobs": 116,
        "name": "Irving, TX",
        "stateAbbreviation": "TX",
        "stateName": "Texas",
        "id": 1140006,
        "latitude": 32.81389,
        "longitude": -96.94861
      },
      {
        "numJobs": 116,
        "name": "Littleton, CO",
        "stateAbbreviation": "CO",
        "stateName": "Colorado",
        "id": 1148194,
        "latitude": 39.61333,
        "longitude": -105.01611
      },
      {
        "numJobs": 114,
        "name": "Charleston, SC",
        "stateAbbreviation": "SC",
        "stateName": "South Carolina",
        "id": 1155074,
        "latitude": 32.77639,
        "longitude": -79.93111
      },
      {
        "numJobs": 112,
        "name": "Alexandria, VA",
        "stateAbbreviation": "VA",
        "stateName": "Virginia",
        "id": 1130334,
        "latitude": 38.79755,
        "longitude": -77.08908
      },
      {
        "numJobs": 110,
        "name": "Mobile, AL",
        "stateAbbreviation": "AL",
        "stateName": "Alabama",
        "id": 1127676,
        "latitude": 30.69417,
        "longitude": -88.04306
      },
      {
        "numJobs": 110,
        "name": "Grand Rapids, MI",
        "stateAbbreviation": "MI",
        "stateName": "Michigan",
        "id": 1134796,
        "latitude": 42.96333,
        "longitude": -85.66806
      },
      {
        "numJobs": 109,
        "name": "Lincoln, NE",
        "stateAbbreviation": "NE",
        "stateName": "Nebraska",
        "id": 1136371,
        "latitude": 40.8,
        "longitude": -96.66667
      },
      {
        "numJobs": 109,
        "name": "Henderson, NV",
        "stateAbbreviation": "NV",
        "stateName": "Nevada",
        "id": 1149600,
        "latitude": 36.03972,
        "longitude": -114.98111
      },
      {
        "numJobs": 109,
        "name": "Bellevue, WA",
        "stateAbbreviation": "WA",
        "stateName": "Washington",
        "id": 1150442,
        "latitude": 47.61056,
        "longitude": -122.19944
      },
      {
        "numJobs": 109,
        "name": "Scottsdale, AZ",
        "stateAbbreviation": "AZ",
        "stateName": "Arizona",
        "id": 1133911,
        "latitude": 33.50917,
        "longitude": -111.89833
      },
      {
        "numJobs": 108,
        "name": "Myrtle Beach, SC",
        "stateAbbreviation": "SC",
        "stateName": "South Carolina",
        "id": 1155247,
        "latitude": 33.68889,
        "longitude": -78.88694
      },
      {
        "numJobs": 108,
        "name": "Spokane, WA",
        "stateAbbreviation": "WA",
        "stateName": "Washington",
        "id": 1150554,
        "latitude": 47.65889,
        "longitude": -117.425
      },
      {
        "numJobs": 108,
        "name": "Tacoma, WA",
        "stateAbbreviation": "WA",
        "stateName": "Washington",
        "id": 1150517,
        "latitude": 47.25306,
        "longitude": -122.44306
      },
      {
        "numJobs": 107,
        "name": "Plano, TX",
        "stateAbbreviation": "TX",
        "stateName": "Texas",
        "id": 1140045,
        "latitude": 33.01972,
        "longitude": -96.69861
      },
      {
        "numJobs": 106,
        "name": "Naples, FL",
        "stateAbbreviation": "FL",
        "stateName": "Florida",
        "id": 1154189,
        "latitude": 26.14167,
        "longitude": -81.795
      },
      {
        "numJobs": 106,
        "name": "Boca Raton, FL",
        "stateAbbreviation": "FL",
        "stateName": "Florida",
        "id": 1154153,
        "latitude": 26.35833,
        "longitude": -80.08333
      },
      {
        "numJobs": 106,
        "name": "Kansas City, KS",
        "stateAbbreviation": "KS",
        "stateName": "Kansas",
        "id": 4990210,
        "latitude": 39.11417,
        "longitude": -94.62722
      },
      {
        "numJobs": 105,
        "name": "Anchorage, AK",
        "stateAbbreviation": "AK",
        "stateName": "Alaska",
        "id": 1134201,
        "latitude": 61.21806,
        "longitude": -149.90028
      },
      {
        "numJobs": 103,
        "name": "Fort Myers, FL",
        "stateAbbreviation": "FL",
        "stateName": "Florida",
        "id": 1154016,
        "latitude": 26.64028,
        "longitude": -81.8725
      },
      {
        "numJobs": 103,
        "name": "York, PA",
        "stateAbbreviation": "PA",
        "stateName": "Pennsylvania",
        "id": 1153468,
        "latitude": 39.9625,
        "longitude": -76.72806
      },
      {
        "numJobs": 102,
        "name": "Harrisburg, PA",
        "stateAbbreviation": "PA",
        "stateName": "Pennsylvania",
        "id": 1152185,
        "latitude": 40.27361,
        "longitude": -76.88472
      },
      {
        "numJobs": 100,
        "name": "Fairfax, VA",
        "stateAbbreviation": "VA",
        "stateName": "Virginia",
        "id": 1130359,
        "latitude": 38.84611,
        "longitude": -77.30667
      },
      {
        "numJobs": 99,
        "name": "Kissimmee, FL",
        "stateAbbreviation": "FL",
        "stateName": "Florida",
        "id": 1154232,
        "latitude": 28.29167,
        "longitude": -81.40778
      },
      {
        "numJobs": 97,
        "name": "Irvine, CA",
        "stateAbbreviation": "CA",
        "stateName": "California",
        "id": 1146798,
        "latitude": 33.66944,
        "longitude": -117.82222
      },
      {
        "numJobs": 97,
        "name": "Bronx, NY",
        "stateAbbreviation": "NY",
        "stateName": "New York",
        "id": 1132197,
        "latitude": 40.85,
        "longitude": -73.86667
      },
      {
        "numJobs": 96,
        "name": "Chattanooga, TN",
        "stateAbbreviation": "TN",
        "stateName": "Tennessee",
        "id": 1144251,
        "latitude": 35.04556,
        "longitude": -85.30972
      },
      {
        "numJobs": 96,
        "name": "Long Beach, CA",
        "stateAbbreviation": "CA",
        "stateName": "California",
        "id": 1146819,
        "latitude": 33.76694,
        "longitude": -118.18833
      },
      {
        "numJobs": 96,
        "name": "Durham, NC",
        "stateAbbreviation": "NC",
        "stateName": "North Carolina",
        "id": 1138697,
        "latitude": 35.99389,
        "longitude": -78.89889
      },
      {
        "numJobs": 96,
        "name": "Columbia, MD",
        "stateAbbreviation": "MD",
        "stateName": "Maryland",
        "id": 1153546,
        "latitude": 39.24028,
        "longitude": -76.83972
      },
      {
        "numJobs": 96,
        "name": "Santa Clara, CA",
        "stateAbbreviation": "CA",
        "stateName": "California",
        "id": 1147439,
        "latitude": 37.35417,
        "longitude": -121.95417
      },
      {
        "numJobs": 95,
        "name": "Shreveport, LA",
        "stateAbbreviation": "LA",
        "stateName": "Louisiana",
        "id": 1150108,
        "latitude": 32.525,
        "longitude": -93.75
      },
      {
        "numJobs": 94,
        "name": "El Paso, TX",
        "stateAbbreviation": "TX",
        "stateName": "Texas",
        "id": 1140105,
        "latitude": 31.75861,
        "longitude": -106.48639
      },
      {
        "numJobs": 94,
        "name": "Sarasota, FL",
        "stateAbbreviation": "FL",
        "stateName": "Florida",
        "id": 1154350,
        "latitude": 27.33611,
        "longitude": -82.53083
      },
      {
        "numJobs": 93,
        "name": "Little Rock, AR",
        "stateAbbreviation": "AR",
        "stateName": "Arkansas",
        "id": 1143190,
        "latitude": 34.74639,
        "longitude": -92.28944
      },
      {
        "numJobs": 93,
        "name": "Boise, ID",
        "stateAbbreviation": "ID",
        "stateName": "Idaho",
        "id": 1127927,
        "latitude": 43.61361,
        "longitude": -116.2025
      },
      {
        "numJobs": 93,
        "name": "Bakersfield, CA",
        "stateAbbreviation": "CA",
        "stateName": "California",
        "id": 1146557,
        "latitude": 35.37333,
        "longitude": -119.01778
      },
      {
        "numJobs": 93,
        "name": "Arlington, TX",
        "stateAbbreviation": "TX",
        "stateName": "Texas",
        "id": 1139951,
        "latitude": 32.73556,
        "longitude": -97.10778
      },
      {
        "numJobs": 93,
        "name": "Bethesda, MD",
        "stateAbbreviation": "MD",
        "stateName": "Maryland",
        "id": 1153817,
        "latitude": 38.98056,
        "longitude": -77.10056
      },
      {
        "numJobs": 93,
        "name": "Stockton, CA",
        "stateAbbreviation": "CA",
        "stateName": "California",
        "id": 1147539,
        "latitude": 37.95778,
        "longitude": -121.28972
      },
      {
        "numJobs": 92,
        "name": "Orange, CA",
        "stateAbbreviation": "CA",
        "stateName": "California",
        "id": 1146843,
        "latitude": 33.78778,
        "longitude": -117.85222
      },
      {
        "numJobs": 92,
        "name": "Everett, WA",
        "stateAbbreviation": "WA",
        "stateName": "Washington",
        "id": 1150458,
        "latitude": 47.97917,
        "longitude": -122.20083
      },
      {
        "numJobs": 92,
        "name": "Torrance, CA",
        "stateAbbreviation": "CA",
        "stateName": "California",
        "id": 1146894,
        "latitude": 33.83583,
        "longitude": -118.33972
      },
      {
        "numJobs": 91,
        "name": "Akron, OH",
        "stateAbbreviation": "OH",
        "stateName": "Ohio",
        "id": 1145529,
        "latitude": 41.08139,
        "longitude": -81.51917
      },
      {
        "numJobs": 90,
        "name": "Saint Petersburg, FL",
        "stateAbbreviation": "FL",
        "stateName": "Florida",
        "id": 1154421,
        "latitude": 27.77056,
        "longitude": -82.67944
      },
      {
        "numJobs": 90,
        "name": "Cedar Rapids, IA",
        "stateAbbreviation": "IA",
        "stateName": "Iowa",
        "id": 1149160,
        "latitude": 42.00833,
        "longitude": -91.64389
      },
      {
        "numJobs": 89,
        "name": "Herndon, VA",
        "stateAbbreviation": "VA",
        "stateName": "Virginia",
        "id": 1130374,
        "latitude": 38.96944,
        "longitude": -77.38639
      },
      {
        "numJobs": 88,
        "name": "Cambridge, MA",
        "stateAbbreviation": "MA",
        "stateName": "Massachusetts",
        "id": 1154545,
        "latitude": 42.375,
        "longitude": -71.10611
      },
      {
        "numJobs": 86,
        "name": "Jersey City, NJ",
        "stateAbbreviation": "NJ",
        "stateName": "New Jersey",
        "id": 1126819,
        "latitude": 40.72806,
        "longitude": -74.07806
      },
      {
        "numJobs": 86,
        "name": "Palo Alto, CA",
        "stateAbbreviation": "CA",
        "stateName": "California",
        "id": 1147434,
        "latitude": 37.44194,
        "longitude": -122.14194
      },
      {
        "numJobs": 85,
        "name": "Savannah, GA",
        "stateAbbreviation": "GA",
        "stateName": "Georgia",
        "id": 1155906,
        "latitude": 32.08333,
        "longitude": -81.1
      },
      {
        "numJobs": 85,
        "name": "Westminster, CO",
        "stateAbbreviation": "CO",
        "stateName": "Colorado",
        "id": 1148207,
        "latitude": 39.83667,
        "longitude": -105.03667
      },
      {
        "numJobs": 84,
        "name": "Tempe, AZ",
        "stateAbbreviation": "AZ",
        "stateName": "Arizona",
        "id": 1133917,
        "latitude": 33.41472,
        "longitude": -111.90861
      },
      {
        "numJobs": 84,
        "name": "Boulder, CO",
        "stateAbbreviation": "CO",
        "stateName": "Colorado",
        "id": 1148112,
        "latitude": 40.015,
        "longitude": -105.27
      },
      {
        "numJobs": 83,
        "name": "Marietta, GA",
        "stateAbbreviation": "GA",
        "stateName": "Georgia",
        "id": 1155654,
        "latitude": 33.9525,
        "longitude": -84.55
      },
      {
        "numJobs": 83,
        "name": "Allentown, PA",
        "stateAbbreviation": "PA",
        "stateName": "Pennsylvania",
        "id": 1151916,
        "latitude": 40.60833,
        "longitude": -75.49056
      },
      {
        "numJobs": 82,
        "name": "Overland Park, KS",
        "stateAbbreviation": "KS",
        "stateName": "Kansas",
        "id": 1151049,
        "latitude": 38.98222,
        "longitude": -94.67056
      },
      {
        "numJobs": 81,
        "name": "Newark, NJ",
        "stateAbbreviation": "NJ",
        "stateName": "New Jersey",
        "id": 1126906,
        "latitude": 40.73556,
        "longitude": -74.17278
      },
      {
        "numJobs": 81,
        "name": "Kent, WA",
        "stateAbbreviation": "WA",
        "stateName": "Washington",
        "id": 1150471,
        "latitude": 47.38111,
        "longitude": -122.23361
      },
      {
        "numJobs": 81,
        "name": "Lakewood, CO",
        "stateAbbreviation": "CO",
        "stateName": "Colorado",
        "id": 1164305,
        "latitude": 39.70472,
        "longitude": -105.08083
      },
      {
        "numJobs": 81,
        "name": "Hayward, CA",
        "stateAbbreviation": "CA",
        "stateName": "California",
        "id": 1147358,
        "latitude": 37.66889,
        "longitude": -122.07972
      },
      {
        "numJobs": 80,
        "name": "Lubbock, TX",
        "stateAbbreviation": "TX",
        "stateName": "Texas",
        "id": 1140320,
        "latitude": 33.57778,
        "longitude": -101.85472
      },
      {
        "numJobs": 80,
        "name": "Ann Arbor, MI",
        "stateAbbreviation": "MI",
        "stateName": "Michigan",
        "id": 1134560,
        "latitude": 42.27083,
        "longitude": -83.72639
      },
      {
        "numJobs": 79,
        "name": "Wilmington, DE",
        "stateAbbreviation": "DE",
        "stateName": "Delaware",
        "id": 1156375,
        "latitude": 39.74583,
        "longitude": -75.54694
      },
      {
        "numJobs": 79,
        "name": "Mesa, AZ",
        "stateAbbreviation": "AZ",
        "stateName": "Arizona",
        "id": 1133897,
        "latitude": 33.42222,
        "longitude": -111.82194
      },
      {
        "numJobs": 78,
        "name": "Lexington-Fayette, KY",
        "stateAbbreviation": "KY",
        "stateName": "Kentucky",
        "id": 3749474,
        "latitude": 38.04972,
        "longitude": -84.45861
      },
      {
        "numJobs": 78,
        "name": "Cary, NC",
        "stateAbbreviation": "NC",
        "stateName": "North Carolina",
        "id": 1138945,
        "latitude": 35.79139,
        "longitude": -78.78139
      },
      {
        "numJobs": 78,
        "name": "Greenville, SC",
        "stateAbbreviation": "SC",
        "stateName": "South Carolina",
        "id": 1155193,
        "latitude": 34.8525,
        "longitude": -82.39417
      },
      {
        "numJobs": 78,
        "name": "White Plains, NY",
        "stateAbbreviation": "NY",
        "stateName": "New York",
        "id": 1132464,
        "latitude": 41.03389,
        "longitude": -73.76333
      },
      {
        "numJobs": 77,
        "name": "Providence, RI",
        "stateAbbreviation": "RI",
        "stateName": "Rhode Island",
        "id": 1151289,
        "latitude": 41.82389,
        "longitude": -71.41333
      },
      {
        "numJobs": 77,
        "name": "Lake Charles, LA",
        "stateAbbreviation": "LA",
        "stateName": "Louisiana",
        "id": 1149940,
        "latitude": 30.22639,
        "longitude": -93.21722
      },
      {
        "numJobs": 76,
        "name": "Silver Spring, MD",
        "stateAbbreviation": "MD",
        "stateName": "Maryland",
        "id": 1153904,
        "latitude": 38.99056,
        "longitude": -77.02639
      },
      {
        "numJobs": 76,
        "name": "Fort Collins, CO",
        "stateAbbreviation": "CO",
        "stateName": "Colorado",
        "id": 1148233,
        "latitude": 40.58528,
        "longitude": -105.08389
      },
      {
        "numJobs": 76,
        "name": "Broomfield, CO",
        "stateAbbreviation": "CO",
        "stateName": "Colorado",
        "id": 1148161,
        "latitude": 39.92056,
        "longitude": -105.08611
      },
      {
        "numJobs": 75,
        "name": "Joliet, IL",
        "stateAbbreviation": "IL",
        "stateName": "Illinois",
        "id": 1128880,
        "latitude": 41.525,
        "longitude": -88.08167
      },
      {
        "numJobs": 74,
        "name": "Staten Island, NY",
        "stateAbbreviation": "NY",
        "stateName": "New York",
        "id": 1132430,
        "latitude": 40.58901,
        "longitude": -74.145874
      },
      {
        "numJobs": 73,
        "name": "Charlottesville, VA",
        "stateAbbreviation": "VA",
        "stateName": "Virginia",
        "id": 1130001,
        "latitude": 38.02917,
        "longitude": -78.47694
      },
      {
        "numJobs": 73,
        "name": "Wilmington, NC",
        "stateAbbreviation": "NC",
        "stateName": "North Carolina",
        "id": 1139117,
        "latitude": 34.22556,
        "longitude": -77.945
      },
      {
        "numJobs": 73,
        "name": "Sioux Falls, SD",
        "stateAbbreviation": "SD",
        "stateName": "South Dakota",
        "id": 1141041,
        "latitude": 43.55,
        "longitude": -96.7
      },
      {
        "numJobs": 73,
        "name": "Santa Barbara, CA",
        "stateAbbreviation": "CA",
        "stateName": "California",
        "id": 1147473,
        "latitude": 34.42083,
        "longitude": -119.69722
      },
      {
        "numJobs": 72,
        "name": "Naperville, IL",
        "stateAbbreviation": "IL",
        "stateName": "Illinois",
        "id": 1128928,
        "latitude": 41.78583,
        "longitude": -88.14722
      },
      {
        "numJobs": 71,
        "name": "Springfield, VA",
        "stateAbbreviation": "VA",
        "stateName": "Virginia",
        "id": 1130409,
        "latitude": 38.791557,
        "longitude": -77.18702
      },
      {
        "numJobs": 71,
        "name": "Norfolk, VA",
        "stateAbbreviation": "VA",
        "stateName": "Virginia",
        "id": 1130306,
        "latitude": 36.84667,
        "longitude": -76.28556
      },
      {
        "numJobs": 71,
        "name": "Falls Church, VA",
        "stateAbbreviation": "VA",
        "stateName": "Virginia",
        "id": 1130361,
        "latitude": 38.88222,
        "longitude": -77.17139
      },
      {
        "numJobs": 70,
        "name": "Portland, ME",
        "stateAbbreviation": "ME",
        "stateName": "Maine",
        "id": 1135898,
        "latitude": 43.66139,
        "longitude": -70.25583
      },
      {
        "numJobs": 70,
        "name": "Lakeland, FL",
        "stateAbbreviation": "FL",
        "stateName": "Florida",
        "id": 1154143,
        "latitude": 28.03917,
        "longitude": -81.95
      },
      {
        "numJobs": 69,
        "name": "Bloomington, MN",
        "stateAbbreviation": "MN",
        "stateName": "Minnesota",
        "id": 1162257,
        "latitude": 44.84083,
        "longitude": -93.29806
      },
      {
        "numJobs": 69,
        "name": "Corpus Christi, TX",
        "stateAbbreviation": "TX",
        "stateName": "Texas",
        "id": 1139919,
        "latitude": 27.80028,
        "longitude": -97.39611
      },
      {
        "numJobs": 69,
        "name": "Green Bay, WI",
        "stateAbbreviation": "WI",
        "stateName": "Wisconsin",
        "id": 1133406,
        "latitude": 44.51917,
        "longitude": -88.01972
      },
      {
        "numJobs": 69,
        "name": "Stamford, CT",
        "stateAbbreviation": "CT",
        "stateName": "Connecticut",
        "id": 1148355,
        "latitude": 41.05333,
        "longitude": -73.53917
      },
      {
        "numJobs": 68,
        "name": "Salem, OR",
        "stateAbbreviation": "OR",
        "stateName": "Oregon",
        "id": 1151682,
        "latitude": 44.94306,
        "longitude": -123.03389
      },
      {
        "numJobs": 68,
        "name": "Menlo Park, CA",
        "stateAbbreviation": "CA",
        "stateName": "California",
        "id": 1147371,
        "latitude": 37.45389,
        "longitude": -122.18111
      },
      {
        "numJobs": 67,
        "name": "Dublin, OH",
        "stateAbbreviation": "OH",
        "stateName": "Ohio",
        "id": 1145850,
        "latitude": 40.102497,
        "longitude": -83.11432
      },
      {
        "numJobs": 67,
        "name": "Hollywood, FL",
        "stateAbbreviation": "FL",
        "stateName": "Florida",
        "id": 1154163,
        "latitude": 26.01083,
        "longitude": -80.14972
      },
      {
        "numJobs": 67,
        "name": "Nashua, NH",
        "stateAbbreviation": "NH",
        "stateName": "New Hampshire",
        "id": 1147911,
        "latitude": 42.76528,
        "longitude": -71.46806
      },
      {
        "numJobs": 66,
        "name": "Cherry Hill, NJ",
        "stateAbbreviation": "NJ",
        "stateName": "New Jersey",
        "id": 1127090,
        "latitude": 39.90461,
        "longitude": -74.997
      },
      {
        "numJobs": 66,
        "name": "Santa Monica, CA",
        "stateAbbreviation": "CA",
        "stateName": "California",
        "id": 1146873,
        "latitude": 34.01944,
        "longitude": -118.49028
      },
      {
        "numJobs": 66,
        "name": "Clearwater, FL",
        "stateAbbreviation": "FL",
        "stateName": "Florida",
        "id": 1154388,
        "latitude": 27.96556,
        "longitude": -82.80028
      },
      {
        "numJobs": 66,
        "name": "Topeka, KS",
        "stateAbbreviation": "KS",
        "stateName": "Kansas",
        "id": 1151173,
        "latitude": 39.04833,
        "longitude": -95.67778
      },
      {
        "numJobs": 66,
        "name": "Lancaster, PA",
        "stateAbbreviation": "PA",
        "stateName": "Pennsylvania",
        "id": 1152360,
        "latitude": 40.03778,
        "longitude": -76.30583
      },
      {
        "numJobs": 66,
        "name": "Sinking Spring, PA",
        "stateAbbreviation": "PA",
        "stateName": "Pennsylvania",
        "id": 1165572,
        "latitude": 40.32722,
        "longitude": -76.01139
      },
      {
        "numJobs": 65,
        "name": "Schaumburg, IL",
        "stateAbbreviation": "IL",
        "stateName": "Illinois",
        "id": 1128969,
        "latitude": 42.03333,
        "longitude": -88.08333
      },
      {
        "numJobs": 65,
        "name": "Costa Mesa, CA",
        "stateAbbreviation": "CA",
        "stateName": "California",
        "id": 1146769,
        "latitude": 33.64111,
        "longitude": -117.91778
      },
      {
        "numJobs": 65,
        "name": "Pasadena, TX",
        "stateAbbreviation": "TX",
        "stateName": "Texas",
        "id": 1140200,
        "latitude": 29.69083,
        "longitude": -95.20889
      },
      {
        "numJobs": 65,
        "name": "Jackson, MS",
        "stateAbbreviation": "MS",
        "stateName": "Mississippi",
        "id": 1141371,
        "latitude": 32.29861,
        "longitude": -90.18472
      },
      {
        "numJobs": 65,
        "name": "Miami Beach, FL",
        "stateAbbreviation": "FL",
        "stateName": "Florida",
        "id": 1154171,
        "latitude": 25.79028,
        "longitude": -80.13028
      },
      {
        "numJobs": 65,
        "name": "Manchester, NH",
        "stateAbbreviation": "NH",
        "stateName": "New Hampshire",
        "id": 1147907,
        "latitude": 42.99556,
        "longitude": -71.45528
      },
      {
        "numJobs": 64,
        "name": "Aurora, IL",
        "stateAbbreviation": "IL",
        "stateName": "Illinois",
        "id": 1128780,
        "latitude": 41.76056,
        "longitude": -88.32
      },
      {
        "numJobs": 64,
        "name": "Pasadena, CA",
        "stateAbbreviation": "CA",
        "stateName": "California",
        "id": 1146850,
        "latitude": 34.14778,
        "longitude": -118.14361
      },
      {
        "numJobs": 64,
        "name": "Santa Ana, CA",
        "stateAbbreviation": "CA",
        "stateName": "California",
        "id": 1146870,
        "latitude": 33.74556,
        "longitude": -117.86694
      },
      {
        "numJobs": 64,
        "name": "Fayetteville, NC",
        "stateAbbreviation": "NC",
        "stateName": "North Carolina",
        "id": 1138720,
        "latitude": 35.0525,
        "longitude": -78.87861
      },
      {
        "numJobs": 64,
        "name": "Dearborn, MI",
        "stateAbbreviation": "MI",
        "stateName": "Michigan",
        "id": 1134642,
        "latitude": 42.32222,
        "longitude": -83.17639
      },
      {
        "numJobs": 64,
        "name": "Fremont, CA",
        "stateAbbreviation": "CA",
        "stateName": "California",
        "id": 1147355,
        "latitude": 37.54833,
        "longitude": -121.9875
      },
      {
        "numJobs": 64,
        "name": "Centennial, CO",
        "stateAbbreviation": "CO",
        "stateName": "Colorado",
        "id": 1164284,
        "latitude": 39.57917,
        "longitude": -104.87639
      },
      {
        "numJobs": 64,
        "name": "Longmont, CO",
        "stateAbbreviation": "CO",
        "stateName": "Colorado",
        "id": 1148118,
        "latitude": 40.16722,
        "longitude": -105.10139
      },
      {
        "numJobs": 63,
        "name": "Murfreesboro, TN",
        "stateAbbreviation": "TN",
        "stateName": "Tennessee",
        "id": 1144540,
        "latitude": 35.84556,
        "longitude": -86.39028
      },
      {
        "numJobs": 63,
        "name": "Burbank, CA",
        "stateAbbreviation": "CA",
        "stateName": "California",
        "id": 1146756,
        "latitude": 34.18083,
        "longitude": -118.30806
      },
      {
        "numJobs": 63,
        "name": "North Charleston, SC",
        "stateAbbreviation": "SC",
        "stateName": "South Carolina",
        "id": 1155093,
        "latitude": 32.85444,
        "longitude": -79.975
      },
      {
        "numJobs": 63,
        "name": "Asheville, NC",
        "stateAbbreviation": "NC",
        "stateName": "North Carolina",
        "id": 1138579,
        "latitude": 35.60083,
        "longitude": -82.55417
      },
      {
        "numJobs": 63,
        "name": "Modesto, CA",
        "stateAbbreviation": "CA",
        "stateName": "California",
        "id": 1146953,
        "latitude": 37.63917,
        "longitude": -120.99583
      },
      {
        "numJobs": 63,
        "name": "Chandler, AZ",
        "stateAbbreviation": "AZ",
        "stateName": "Arizona",
        "id": 1133878,
        "latitude": 33.30611,
        "longitude": -111.84056
      },
      {
        "numJobs": 62,
        "name": "Augusta, GA",
        "stateAbbreviation": "GA",
        "stateName": "Georgia",
        "id": 1155718,
        "latitude": 33.47083,
        "longitude": -81.975
      },
      {
        "numJobs": 62,
        "name": "Altamonte Springs, FL",
        "stateAbbreviation": "FL",
        "stateName": "Florida",
        "id": 1154211,
        "latitude": 28.66083,
        "longitude": -81.36583
      },
      {
        "numJobs": 62,
        "name": "Lansing, MI",
        "stateAbbreviation": "MI",
        "stateName": "Michigan",
        "id": 1134930,
        "latitude": 42.7325,
        "longitude": -84.55556
      },
      {
        "numJobs": 62,
        "name": "Yonkers, NY",
        "stateAbbreviation": "NY",
        "stateName": "New York",
        "id": 1132473,
        "latitude": 40.93111,
        "longitude": -73.89917
      },
      {
        "numJobs": 62,
        "name": "Columbia, MO",
        "stateAbbreviation": "MO",
        "stateName": "Missouri",
        "id": 1130886,
        "latitude": 38.95167,
        "longitude": -92.33389
      },
      {
        "numJobs": 62,
        "name": "Vancouver, WA",
        "stateAbbreviation": "WA",
        "stateName": "Washington",
        "id": 1150413,
        "latitude": 45.63889,
        "longitude": -122.66028
      },
      {
        "numJobs": 62,
        "name": "Ventura, CA",
        "stateAbbreviation": "CA",
        "stateName": "California",
        "id": 1146989,
        "latitude": 34.27833,
        "longitude": -119.29222
      },
      {
        "numJobs": 62,
        "name": "Ontario, CA",
        "stateAbbreviation": "CA",
        "stateName": "California",
        "id": 1147122,
        "latitude": 34.06333,
        "longitude": -117.65
      },
      {
        "numJobs": 62,
        "name": "Hartford, CT",
        "stateAbbreviation": "CT",
        "stateName": "Connecticut",
        "id": 1148399,
        "latitude": 41.76361,
        "longitude": -72.68556
      },
      {
        "numJobs": 61,
        "name": "El Segundo, CA",
        "stateAbbreviation": "CA",
        "stateName": "California",
        "id": 1146779,
        "latitude": 33.91917,
        "longitude": -118.41556
      },
      {
        "numJobs": 61,
        "name": "Richardson, TX",
        "stateAbbreviation": "TX",
        "stateName": "Texas",
        "id": 1140053,
        "latitude": 32.94806,
        "longitude": -96.72944
      },
      {
        "numJobs": 61,
        "name": "Redmond, WA",
        "stateAbbreviation": "WA",
        "stateName": "Washington",
        "id": 1150499,
        "latitude": 47.67417,
        "longitude": -122.12028
      },
      {
        "numJobs": 61,
        "name": "Independence, MO",
        "stateAbbreviation": "MO",
        "stateName": "Missouri",
        "id": 1131039,
        "latitude": 39.09111,
        "longitude": -94.41528
      },
      {
        "numJobs": 60,
        "name": "Amarillo, TX",
        "stateAbbreviation": "TX",
        "stateName": "Texas",
        "id": 1139740,
        "latitude": 35.22194,
        "longitude": -101.83083
      },
      {
        "numJobs": 60,
        "name": "Sugar Land, TX",
        "stateAbbreviation": "TX",
        "stateName": "Texas",
        "id": 1140225,
        "latitude": 29.61944,
        "longitude": -95.63472
      },
      {
        "numJobs": 60,
        "name": "Livonia, MI",
        "stateAbbreviation": "MI",
        "stateName": "Michigan",
        "id": 1134687,
        "latitude": 42.36833,
        "longitude": -83.35278
      },
      {
        "numJobs": 59,
        "name": "Montgomery, AL",
        "stateAbbreviation": "AL",
        "stateName": "Alabama",
        "id": 1127704,
        "latitude": 32.36667,
        "longitude": -86.3
      },
      {
        "numJobs": 59,
        "name": "Ashburn, VA",
        "stateAbbreviation": "VA",
        "stateName": "Virginia",
        "id": 1130338,
        "latitude": 39.04361,
        "longitude": -77.48778
      },
      {
        "numJobs": 59,
        "name": "Frederick, MD",
        "stateAbbreviation": "MD",
        "stateName": "Maryland",
        "id": 1153851,
        "latitude": 39.41417,
        "longitude": -77.41083
      },
      {
        "numJobs": 58,
        "name": "Katy, TX",
        "stateAbbreviation": "TX",
        "stateName": "Texas",
        "id": 1140177,
        "latitude": 29.78556,
        "longitude": -95.82417
      },
      {
        "numJobs": 58,
        "name": "Waltham, MA",
        "stateAbbreviation": "MA",
        "stateName": "Massachusetts",
        "id": 1154703,
        "latitude": 42.37639,
        "longitude": -71.23611
      },
      {
        "numJobs": 58,
        "name": "Hialeah, FL",
        "stateAbbreviation": "FL",
        "stateName": "Florida",
        "id": 1154162,
        "latitude": 25.85722,
        "longitude": -80.27833
      },
      {
        "numJobs": 58,
        "name": "San Mateo, CA",
        "stateAbbreviation": "CA",
        "stateName": "California",
        "id": 1147406,
        "latitude": 37.56306,
        "longitude": -122.32444
      },
      {
        "numJobs": 58,
        "name": "Santa Rosa, CA",
        "stateAbbreviation": "CA",
        "stateName": "California",
        "id": 1147518,
        "latitude": 38.44056,
        "longitude": -122.71333
      },
      {
        "numJobs": 57,
        "name": "Rockford, IL",
        "stateAbbreviation": "IL",
        "stateName": "Illinois",
        "id": 1129425,
        "latitude": 42.27111,
        "longitude": -89.09389
      },
      {
        "numJobs": 57,
        "name": "Huntington Beach, CA",
        "stateAbbreviation": "CA",
        "stateName": "California",
        "id": 1146795,
        "latitude": 33.66028,
        "longitude": -117.99833
      },
      {
        "numJobs": 57,
        "name": "Laredo, TX",
        "stateAbbreviation": "TX",
        "stateName": "Texas",
        "id": 1140286,
        "latitude": 27.50611,
        "longitude": -99.50722
      },
      {
        "numJobs": 57,
        "name": "Spartanburg, SC",
        "stateAbbreviation": "SC",
        "stateName": "South Carolina",
        "id": 1155311,
        "latitude": 34.94944,
        "longitude": -81.93222
      },
      {
        "numJobs": 57,
        "name": "Hagerstown, MD",
        "stateAbbreviation": "MD",
        "stateName": "Maryland",
        "id": 1153716,
        "latitude": 39.64167,
        "longitude": -77.72028
      },
      {
        "numJobs": 57,
        "name": "Lafayette, LA",
        "stateAbbreviation": "LA",
        "stateName": "Louisiana",
        "id": 1149927,
        "latitude": 30.22389,
        "longitude": -92.01972
      },
      {
        "numJobs": 57,
        "name": "Mountain View, CA",
        "stateAbbreviation": "CA",
        "stateName": "California",
        "id": 1147431,
        "latitude": 37.38611,
        "longitude": -122.08278
      },
      {
        "numJobs": 57,
        "name": "Oceanside, CA",
        "stateAbbreviation": "CA",
        "stateName": "California",
        "id": 1147301,
        "latitude": 33.19583,
        "longitude": -117.37861
      },
      {
        "numJobs": 56,
        "name": "Trenton, NJ",
        "stateAbbreviation": "NJ",
        "stateName": "New Jersey",
        "id": 1127182,
        "latitude": 40.21694,
        "longitude": -74.74333
      },
      {
        "numJobs": 56,
        "name": "South Bend, IN",
        "stateAbbreviation": "IN",
        "stateName": "Indiana",
        "id": 1145268,
        "latitude": 41.68333,
        "longitude": -86.25
      },
      {
        "numJobs": 56,
        "name": "Roanoke, VA",
        "stateAbbreviation": "VA",
        "stateName": "Virginia",
        "id": 1130242,
        "latitude": 37.27083,
        "longitude": -79.94167
      },
      {
        "numJobs": 56,
        "name": "Roswell, GA",
        "stateAbbreviation": "GA",
        "stateName": "Georgia",
        "id": 1155681,
        "latitude": 34.02306,
        "longitude": -84.36167
      },
      {
        "numJobs": 56,
        "name": "Waterloo, IA",
        "stateAbbreviation": "IA",
        "stateName": "Iowa",
        "id": 1149531,
        "latitude": 42.49278,
        "longitude": -92.34278
      },
      {
        "numJobs": 56,
        "name": "Metairie, LA",
        "stateAbbreviation": "LA",
        "stateName": "Louisiana",
        "id": 1150033,
        "latitude": 29.98389,
        "longitude": -90.15278
      },
      {
        "numJobs": 56,
        "name": "Glendale, AZ",
        "stateAbbreviation": "AZ",
        "stateName": "Arizona",
        "id": 1133888,
        "latitude": 33.53861,
        "longitude": -112.18528
      },
      {
        "numJobs": 55,
        "name": "Franklin, TN",
        "stateAbbreviation": "TN",
        "stateName": "Tennessee",
        "id": 1144518,
        "latitude": 35.925,
        "longitude": -86.86889
      },
      {
        "numJobs": 55,
        "name": "Frisco, TX",
        "stateAbbreviation": "TX",
        "stateName": "Texas",
        "id": 1139994,
        "latitude": 33.15056,
        "longitude": -96.82333
      },
      {
        "numJobs": 55,
        "name": "Springfield, MA",
        "stateAbbreviation": "MA",
        "stateName": "Massachusetts",
        "id": 1154860,
        "latitude": 42.10139,
        "longitude": -72.59028
      },
      {
        "numJobs": 55,
        "name": "Farmington, NM",
        "stateAbbreviation": "NM",
        "stateName": "New Mexico",
        "id": 1138046,
        "latitude": 36.72806,
        "longitude": -108.21806
      },
      {
        "numJobs": 55,
        "name": "King of Prussia, PA",
        "stateAbbreviation": "PA",
        "stateName": "Pennsylvania",
        "id": 1152620,
        "latitude": 40.08917,
        "longitude": -75.39639
      },
      {
        "numJobs": 55,
        "name": "Erie, PA",
        "stateAbbreviation": "PA",
        "stateName": "Pennsylvania",
        "id": 1152139,
        "latitude": 42.12917,
        "longitude": -80.08528
      },
      {
        "numJobs": 55,
        "name": "Sunnyvale, CA",
        "stateAbbreviation": "CA",
        "stateName": "California",
        "id": 1147442,
        "latitude": 37.36889,
        "longitude": -122.03528
      },
      {
        "numJobs": 54,
        "name": "Evansville, IN",
        "stateAbbreviation": "IN",
        "stateName": "Indiana",
        "id": 1144913,
        "latitude": 37.97472,
        "longitude": -87.55583
      },
      {
        "numJobs": 54,
        "name": "Worcester, MA",
        "stateAbbreviation": "MA",
        "stateName": "Massachusetts",
        "id": 1154962,
        "latitude": 42.2625,
        "longitude": -71.80278
      },
      {
        "numJobs": 54,
        "name": "Panama City, FL",
        "stateAbbreviation": "FL",
        "stateName": "Florida",
        "id": 1154305,
        "latitude": 30.15861,
        "longitude": -85.66028
      },
      {
        "numJobs": 54,
        "name": "Escondido, CA",
        "stateAbbreviation": "CA",
        "stateName": "California",
        "id": 1147287,
        "latitude": 33.11917,
        "longitude": -117.08556
      },
      {
        "numJobs": 53,
        "name": "Spring, TX",
        "stateAbbreviation": "TX",
        "stateName": "Texas",
        "id": 1140222,
        "latitude": 30.07972,
        "longitude": -95.41694
      },
      {
        "numJobs": 53,
        "name": "Reading, PA",
        "stateAbbreviation": "PA",
        "stateName": "Pennsylvania",
        "id": 1153175,
        "latitude": 40.33556,
        "longitude": -75.92722
      },
      {
        "numJobs": 53,
        "name": "West Chester, PA",
        "stateAbbreviation": "PA",
        "stateName": "Pennsylvania",
        "id": 1152733,
        "latitude": 39.96056,
        "longitude": -75.60583
      },
      {
        "numJobs": 53,
        "name": "Folsom, CA",
        "stateAbbreviation": "CA",
        "stateName": "California",
        "id": 1147188,
        "latitude": 38.67806,
        "longitude": -121.175
      },
      {
        "numJobs": 53,
        "name": "Englewood, CO",
        "stateAbbreviation": "CO",
        "stateName": "Colorado",
        "id": 1148176,
        "latitude": 39.64778,
        "longitude": -104.98722
      },
      {
        "numJobs": 52,
        "name": "Glendale, CA",
        "stateAbbreviation": "CA",
        "stateName": "California",
        "id": 1146787,
        "latitude": 34.1425,
        "longitude": -118.25417
      },
      {
        "numJobs": 52,
        "name": "Troy, MI",
        "stateAbbreviation": "MI",
        "stateName": "Michigan",
        "id": 1134737,
        "latitude": 42.60556,
        "longitude": -83.15
      },
      {
        "numJobs": 52,
        "name": "Cheyenne, WY",
        "stateAbbreviation": "WY",
        "stateName": "Wyoming",
        "id": 1138322,
        "latitude": 41.14,
        "longitude": -104.81972
      },
      {
        "numJobs": 52,
        "name": "Olathe, KS",
        "stateAbbreviation": "KS",
        "stateName": "Kansas",
        "id": 1151046,
        "latitude": 38.88139,
        "longitude": -94.81889
      },
      {
        "numJobs": 51,
        "name": "Champaign, IL",
        "stateAbbreviation": "IL",
        "stateName": "Illinois",
        "id": 1128722,
        "latitude": 40.11639,
        "longitude": -88.24333
      },
      {
        "numJobs": 51,
        "name": "Fredericksburg, VA",
        "stateAbbreviation": "VA",
        "stateName": "Virginia",
        "id": 1130363,
        "latitude": 38.30306,
        "longitude": -77.46083
      },
      {
        "numJobs": 51,
        "name": "Decatur, GA",
        "stateAbbreviation": "GA",
        "stateName": "Georgia",
        "id": 1155610,
        "latitude": 33.77472,
        "longitude": -84.29639
      },
      {
        "numJobs": 51,
        "name": "Fargo, ND",
        "stateAbbreviation": "ND",
        "stateName": "North Dakota",
        "id": 1156255,
        "latitude": 46.87722,
        "longitude": -96.78944
      },
      {
        "numJobs": 51,
        "name": "Newark, DE",
        "stateAbbreviation": "DE",
        "stateName": "Delaware",
        "id": 1156369,
        "latitude": 39.68361,
        "longitude": -75.75
      },
      {
        "numJobs": 51,
        "name": "Bradenton, FL",
        "stateAbbreviation": "FL",
        "stateName": "Florida",
        "id": 1154335,
        "latitude": 27.49861,
        "longitude": -82.575
      },
      {
        "numJobs": 51,
        "name": "Salinas, CA",
        "stateAbbreviation": "CA",
        "stateName": "California",
        "id": 1147265,
        "latitude": 36.67778,
        "longitude": -121.65444
      },
      {
        "numJobs": 51,
        "name": "Greeley, CO",
        "stateAbbreviation": "CO",
        "stateName": "Colorado",
        "id": 1148276,
        "latitude": 40.42333,
        "longitude": -104.70861
      },
      {
        "numJobs": 50,
        "name": "Atlantic City, NJ",
        "stateAbbreviation": "NJ",
        "stateName": "New Jersey",
        "id": 1126642,
        "latitude": 39.36417,
        "longitude": -74.42333
      },
      {
        "numJobs": 50,
        "name": "Edison, NJ",
        "stateAbbreviation": "NJ",
        "stateName": "New Jersey",
        "id": 1126748,
        "latitude": 40.52424,
        "longitude": -74.41246
      },
      {
        "numJobs": 50,
        "name": "Annapolis, MD",
        "stateAbbreviation": "MD",
        "stateName": "Maryland",
        "id": 1153523,
        "latitude": 38.97833,
        "longitude": -76.4925
      },
      {
        "numJobs": 50,
        "name": "Carson City, NV",
        "stateAbbreviation": "NV",
        "stateName": "Nevada",
        "id": 1149563,
        "latitude": 39.16389,
        "longitude": -119.76639
      },
      {
        "numJobs": 50,
        "name": "Renton, WA",
        "stateAbbreviation": "WA",
        "stateName": "Washington",
        "id": 1150501,
        "latitude": 47.48306,
        "longitude": -122.21583
      },
      {
        "numJobs": 50,
        "name": "Thornton, CO",
        "stateAbbreviation": "CO",
        "stateName": "Colorado",
        "id": 1164313,
        "latitude": 39.86806,
        "longitude": -104.97139
      },
      {
        "numJobs": 50,
        "name": "Castle Rock, CO",
        "stateAbbreviation": "CO",
        "stateName": "Colorado",
        "id": 1148164,
        "latitude": 39.37222,
        "longitude": -104.85556
      },
      {
        "numJobs": 49,
        "name": "Macon, GA",
        "stateAbbreviation": "GA",
        "stateName": "Georgia",
        "id": 1155868,
        "latitude": 32.84056,
        "longitude": -83.6325
      },
      {
        "numJobs": 49,
        "name": "Boynton Beach, FL",
        "stateAbbreviation": "FL",
        "stateName": "Florida",
        "id": 1154154,
        "latitude": 26.525,
        "longitude": -80.06667
      },
      {
        "numJobs": 49,
        "name": "Lawrence, KS",
        "stateAbbreviation": "KS",
        "stateName": "Kansas",
        "id": 1151068,
        "latitude": 38.97167,
        "longitude": -95.235
      },
      {
        "numJobs": 49,
        "name": "Las Cruces, NM",
        "stateAbbreviation": "NM",
        "stateName": "New Mexico",
        "id": 1138109,
        "latitude": 32.31222,
        "longitude": -106.77778
      },
      {
        "numJobs": 49,
        "name": "Jamaica, NY",
        "stateAbbreviation": "NY",
        "stateName": "New York",
        "id": 1132292,
        "latitude": 40.69139,
        "longitude": -73.80611
      },
      {
        "numJobs": 49,
        "name": "Racine, WI",
        "stateAbbreviation": "WI",
        "stateName": "Wisconsin",
        "id": 1133669,
        "latitude": 42.72611,
        "longitude": -87.78278
      },
      {
        "numJobs": 48,
        "name": "The Woodlands, TX",
        "stateAbbreviation": "TX",
        "stateName": "Texas",
        "id": 1161666,
        "latitude": 30.15778,
        "longitude": -95.48917
      },
      {
        "numJobs": 48,
        "name": "Bloomington, IN",
        "stateAbbreviation": "IN",
        "stateName": "Indiana",
        "id": 1144789,
        "latitude": 39.16528,
        "longitude": -86.52639
      },
      {
        "numJobs": 48,
        "name": "Dothan, AL",
        "stateAbbreviation": "AL",
        "stateName": "Alabama",
        "id": 1127583,
        "latitude": 31.22306,
        "longitude": -85.39056
      },
      {
        "numJobs": 48,
        "name": "Round Rock, TX",
        "stateAbbreviation": "TX",
        "stateName": "Texas",
        "id": 1139794,
        "latitude": 30.50806,
        "longitude": -97.67861
      },
      {
        "numJobs": 48,
        "name": "Gaithersburg, MD",
        "stateAbbreviation": "MD",
        "stateName": "Maryland",
        "id": 1153852,
        "latitude": 39.14333,
        "longitude": -77.20167
      },
      {
        "numJobs": 48,
        "name": "Rockville, MD",
        "stateAbbreviation": "MD",
        "stateName": "Maryland",
        "id": 1153899,
        "latitude": 39.08389,
        "longitude": -77.15306
      },
      {
        "numJobs": 48,
        "name": "Ocala, FL",
        "stateAbbreviation": "FL",
        "stateName": "Florida",
        "id": 1154201,
        "latitude": 29.18694,
        "longitude": -82.14028
      },
      {
        "numJobs": 48,
        "name": "Gainesville, FL",
        "stateAbbreviation": "FL",
        "stateName": "Florida",
        "id": 1154062,
        "latitude": 29.65139,
        "longitude": -82.325
      },
      {
        "numJobs": 48,
        "name": "Redwood City, CA",
        "stateAbbreviation": "CA",
        "stateName": "California",
        "id": 1147394,
        "latitude": 37.48528,
        "longitude": -122.23528
      },
      {
        "numJobs": 48,
        "name": "Thousand Oaks, CA",
        "stateAbbreviation": "CA",
        "stateName": "California",
        "id": 1146988,
        "latitude": 34.17056,
        "longitude": -118.83667
      },
      {
        "numJobs": 48,
        "name": "Fontana, CA",
        "stateAbbreviation": "CA",
        "stateName": "California",
        "id": 1147081,
        "latitude": 34.09222,
        "longitude": -117.43417
      },
      {
        "numJobs": 48,
        "name": "Highlands Ranch, CO",
        "stateAbbreviation": "CO",
        "stateName": "Colorado",
        "id": 1164304,
        "latitude": 39.55389,
        "longitude": -104.96889
      },
      {
        "numJobs": 48,
        "name": "Carlsbad, CA",
        "stateAbbreviation": "CA",
        "stateName": "California",
        "id": 1147279,
        "latitude": 33.15806,
        "longitude": -117.34972
      },
      {
        "numJobs": 48,
        "name": "Golden, CO",
        "stateAbbreviation": "CO",
        "stateName": "Colorado",
        "id": 1148181,
        "latitude": 39.75556,
        "longitude": -105.22056
      },
      {
        "numJobs": 47,
        "name": "Morgantown, WV",
        "stateAbbreviation": "WV",
        "stateName": "West Virginia",
        "id": 1143936,
        "latitude": 39.62944,
        "longitude": -79.95611
      },
      {
        "numJobs": 47,
        "name": "Culver City, CA",
        "stateAbbreviation": "CA",
        "stateName": "California",
        "id": 1146771,
        "latitude": 34.02111,
        "longitude": -118.39556
      },
      {
        "numJobs": 47,
        "name": "Lynchburg, VA",
        "stateAbbreviation": "VA",
        "stateName": "Virginia",
        "id": 1130113,
        "latitude": 37.41361,
        "longitude": -79.1425
      },
      {
        "numJobs": 47,
        "name": "Baytown, TX",
        "stateAbbreviation": "TX",
        "stateName": "Texas",
        "id": 1140132,
        "latitude": 29.73528,
        "longitude": -94.97722
      },
      {
        "numJobs": 47,
        "name": "Lexington, MA",
        "stateAbbreviation": "MA",
        "stateName": "Massachusetts",
        "id": 1154599,
        "latitude": 42.44722,
        "longitude": -71.225
      },
      {
        "numJobs": 47,
        "name": "Pompano Beach, FL",
        "stateAbbreviation": "FL",
        "stateName": "Florida",
        "id": 1154180,
        "latitude": 26.2375,
        "longitude": -80.125
      },
      {
        "numJobs": 47,
        "name": "Lexington, KY",
        "stateAbbreviation": "KY",
        "stateName": "Kentucky",
        "id": 1137677,
        "latitude": 37.98861,
        "longitude": -84.47778
      },
      {
        "numJobs": 47,
        "name": "Richmond, CA",
        "stateAbbreviation": "CA",
        "stateName": "California",
        "id": 1147395,
        "latitude": 37.93583,
        "longitude": -122.34667
      },
      {
        "numJobs": 47,
        "name": "Chula Vista, CA",
        "stateAbbreviation": "CA",
        "stateName": "California",
        "id": 1147280,
        "latitude": 32.64,
        "longitude": -117.08333
      },
      {
        "numJobs": 47,
        "name": "Concord, CA",
        "stateAbbreviation": "CA",
        "stateName": "California",
        "id": 1147340,
        "latitude": 37.97806,
        "longitude": -122.03
      },
      {
        "numJobs": 47,
        "name": "Appleton, WI",
        "stateAbbreviation": "WI",
        "stateName": "Wisconsin",
        "id": 1133289,
        "latitude": 44.26194,
        "longitude": -88.41528
      },
      {
        "numJobs": 47,
        "name": "Parker, CO",
        "stateAbbreviation": "CO",
        "stateName": "Colorado",
        "id": 1148198,
        "latitude": 39.51861,
        "longitude": -104.76083
      },
      {
        "numJobs": 46,
        "name": "Wayne, NJ",
        "stateAbbreviation": "NJ",
        "stateName": "New Jersey",
        "id": 1127034,
        "latitude": 40.92528,
        "longitude": -74.27694
      },
      {
        "numJobs": 46,
        "name": "Charleston, WV",
        "stateAbbreviation": "WV",
        "stateName": "West Virginia",
        "id": 1143753,
        "latitude": 38.34972,
        "longitude": -81.63278
      },
      {
        "numJobs": 46,
        "name": "Redondo Beach, CA",
        "stateAbbreviation": "CA",
        "stateName": "California",
        "id": 1146859,
        "latitude": 33.84917,
        "longitude": -118.3875
      },
      {
        "numJobs": 46,
        "name": "Williamsburg, VA",
        "stateAbbreviation": "VA",
        "stateName": "Virginia",
        "id": 1130328,
        "latitude": 37.27056,
        "longitude": -76.70778
      },
      {
        "numJobs": 46,
        "name": "Grand Prairie, TX",
        "stateAbbreviation": "TX",
        "stateName": "Texas",
        "id": 1139997,
        "latitude": 32.74583,
        "longitude": -96.9975
      },
      {
        "numJobs": 46,
        "name": "Denton, TX",
        "stateAbbreviation": "TX",
        "stateName": "Texas",
        "id": 1139980,
        "latitude": 33.21472,
        "longitude": -97.13278
      },
      {
        "numJobs": 46,
        "name": "McKinney, TX",
        "stateAbbreviation": "TX",
        "stateName": "Texas",
        "id": 1140029,
        "latitude": 33.1975,
        "longitude": -96.615
      },
      {
        "numJobs": 46,
        "name": "Milpitas, CA",
        "stateAbbreviation": "CA",
        "stateName": "California",
        "id": 1147428,
        "latitude": 37.42833,
        "longitude": -121.90556
      },
      {
        "numJobs": 45,
        "name": "Clarksville, TN",
        "stateAbbreviation": "TN",
        "stateName": "Tennessee",
        "id": 1144270,
        "latitude": 36.52972,
        "longitude": -87.35944
      },
      {
        "numJobs": 45,
        "name": "Midland, TX",
        "stateAbbreviation": "TX",
        "stateName": "Texas",
        "id": 1140362,
        "latitude": 31.99722,
        "longitude": -102.0775
      },
      {
        "numJobs": 45,
        "name": "High Point, NC",
        "stateAbbreviation": "NC",
        "stateName": "North Carolina",
        "id": 1138756,
        "latitude": 35.95556,
        "longitude": -80.00556
      },
      {
        "numJobs": 45,
        "name": "Athens, GA",
        "stateAbbreviation": "GA",
        "stateName": "Georgia",
        "id": 1155564,
        "latitude": 33.96083,
        "longitude": -83.37806
      },
      {
        "numJobs": 45,
        "name": "Bend, OR",
        "stateAbbreviation": "OR",
        "stateName": "Oregon",
        "id": 1151424,
        "latitude": 44.05833,
        "longitude": -121.31417
      },
      {
        "numJobs": 45,
        "name": "Santa Fe, NM",
        "stateAbbreviation": "NM",
        "stateName": "New Mexico",
        "id": 1138171,
        "latitude": 35.68694,
        "longitude": -105.93722
      },
      {
        "numJobs": 45,
        "name": "Boulder City, NV",
        "stateAbbreviation": "NV",
        "stateName": "Nevada",
        "id": 1149597,
        "latitude": 35.97861,
        "longitude": -114.83167
      },
      {
        "numJobs": 45,
        "name": "Van Nuys, CA",
        "stateAbbreviation": "CA",
        "stateName": "California",
        "id": 1146902,
        "latitude": 34.18667,
        "longitude": -118.44806
      },
      {
        "numJobs": 45,
        "name": "Moreno Valley, CA",
        "stateAbbreviation": "CA",
        "stateName": "California",
        "id": 1147111,
        "latitude": 33.9375,
        "longitude": -117.22972
      },
      {
        "numJobs": 45,
        "name": "Commerce City, CO",
        "stateAbbreviation": "CO",
        "stateName": "Colorado",
        "id": 1148166,
        "latitude": 39.80833,
        "longitude": -104.93333
      },
      {
        "numJobs": 44,
        "name": "Lebanon, TN",
        "stateAbbreviation": "TN",
        "stateName": "Tennessee",
        "id": 1144534,
        "latitude": 36.20744,
        "longitude": -86.2928
      },
      {
        "numJobs": 44,
        "name": "Peoria, IL",
        "stateAbbreviation": "IL",
        "stateName": "Illinois",
        "id": 1129349,
        "latitude": 40.69361,
        "longitude": -89.58889
      },
      {
        "numJobs": 44,
        "name": "Newport Beach, CA",
        "stateAbbreviation": "CA",
        "stateName": "California",
        "id": 1146837,
        "latitude": 33.61889,
        "longitude": -117.92806
      },
      {
        "numJobs": 44,
        "name": "Springfield, IL",
        "stateAbbreviation": "IL",
        "stateName": "Illinois",
        "id": 1129562,
        "latitude": 39.80167,
        "longitude": -89.64361
      },
      {
        "numJobs": 44,
        "name": "Grapevine, TX",
        "stateAbbreviation": "TX",
        "stateName": "Texas",
        "id": 1139999,
        "latitude": 32.93417,
        "longitude": -97.07778
      },
      {
        "numJobs": 44,
        "name": "Tyler, TX",
        "stateAbbreviation": "TX",
        "stateName": "Texas",
        "id": 1140559,
        "latitude": 32.35111,
        "longitude": -95.30083
      },
      {
        "numJobs": 44,
        "name": "Southfield, MI",
        "stateAbbreviation": "MI",
        "stateName": "Michigan",
        "id": 1134732,
        "latitude": 42.47333,
        "longitude": -83.22194
      },
      {
        "numJobs": 44,
        "name": "Winter Park, FL",
        "stateAbbreviation": "FL",
        "stateName": "Florida",
        "id": 1154259,
        "latitude": 28.59972,
        "longitude": -81.33944
      },
      {
        "numJobs": 44,
        "name": "Indian Springs, Clark, NV",
        "stateAbbreviation": "NV",
        "stateName": "Nevada",
        "id": 1149601,
        "latitude": 36.56972,
        "longitude": -115.66972
      },
      {
        "numJobs": 44,
        "name": "San Luis Obispo, CA",
        "stateAbbreviation": "CA",
        "stateName": "California",
        "id": 1147458,
        "latitude": 35.28278,
        "longitude": -120.65861
      },
      {
        "numJobs": 43,
        "name": "Bentonville, AR",
        "stateAbbreviation": "AR",
        "stateName": "Arkansas",
        "id": 1143031,
        "latitude": 36.37278,
        "longitude": -94.20861
      },
      {
        "numJobs": 43,
        "name": "Bloomington, IL",
        "stateAbbreviation": "IL",
        "stateName": "Illinois",
        "id": 1128636,
        "latitude": 40.48417,
        "longitude": -88.99361
      },
      {
        "numJobs": 43,
        "name": "Columbus, IN",
        "stateAbbreviation": "IN",
        "stateName": "Indiana",
        "id": 1144872,
        "latitude": 39.20139,
        "longitude": -85.92139
      },
      {
        "numJobs": 43,
        "name": "Newport News, VA",
        "stateAbbreviation": "VA",
        "stateName": "Virginia",
        "id": 1130305,
        "latitude": 36.97861,
        "longitude": -76.42833
      },
      {
        "numJobs": 43,
        "name": "San Marcos, TX",
        "stateAbbreviation": "TX",
        "stateName": "Texas",
        "id": 1139795,
        "latitude": 29.88306,
        "longitude": -97.94111
      },
      {
        "numJobs": 43,
        "name": "Framingham, MA",
        "stateAbbreviation": "MA",
        "stateName": "Massachusetts",
        "id": 1154571,
        "latitude": 42.27917,
        "longitude": -71.41667
      },
      {
        "numJobs": 43,
        "name": "Flint, MI",
        "stateAbbreviation": "MI",
        "stateName": "Michigan",
        "id": 1134766,
        "latitude": 43.0125,
        "longitude": -83.6875
      },
      {
        "numJobs": 43,
        "name": "Florence, KY",
        "stateAbbreviation": "KY",
        "stateName": "Kentucky",
        "id": 1137567,
        "latitude": 38.99889,
        "longitude": -84.62667
      },
      {
        "numJobs": 43,
        "name": "Danbury, CT",
        "stateAbbreviation": "CT",
        "stateName": "Connecticut",
        "id": 1148332,
        "latitude": 41.39472,
        "longitude": -73.45444
      },
      {
        "numJobs": 42,
        "name": "Freehold, NJ",
        "stateAbbreviation": "NJ",
        "stateName": "New Jersey",
        "id": 1126774,
        "latitude": 40.26,
        "longitude": -74.27417
      },
      {
        "numJobs": 42,
        "name": "Princeton, NJ",
        "stateAbbreviation": "NJ",
        "stateName": "New Jersey",
        "id": 1127179,
        "latitude": 40.34861,
        "longitude": -74.65944
      },
      {
        "numJobs": 42,
        "name": "Carson, CA",
        "stateAbbreviation": "CA",
        "stateName": "California",
        "id": 1146761,
        "latitude": 33.83139,
        "longitude": -118.28111
      },
      {
        "numJobs": 42,
        "name": "Winchester, VA",
        "stateAbbreviation": "VA",
        "stateName": "Virginia",
        "id": 1130431,
        "latitude": 39.18556,
        "longitude": -78.16361
      },
      {
        "numJobs": 42,
        "name": "Billings, MT",
        "stateAbbreviation": "MT",
        "stateName": "Montana",
        "id": 1135402,
        "latitude": 45.78333,
        "longitude": -108.5
      },
      {
        "numJobs": 42,
        "name": "Pembroke Pines, FL",
        "stateAbbreviation": "FL",
        "stateName": "Florida",
        "id": 1154179,
        "latitude": 26.00278,
        "longitude": -80.22417
      },
      {
        "numJobs": 42,
        "name": "Garden City, NY",
        "stateAbbreviation": "NY",
        "stateName": "New York",
        "id": 1132254,
        "latitude": 40.72667,
        "longitude": -73.63472
      },
      {
        "numJobs": 42,
        "name": "Houma, LA",
        "stateAbbreviation": "LA",
        "stateName": "Louisiana",
        "id": 1149904,
        "latitude": 29.59556,
        "longitude": -90.71944
      },
      {
        "numJobs": 42,
        "name": "Council Bluffs, IA",
        "stateAbbreviation": "IA",
        "stateName": "Iowa",
        "id": 1149408,
        "latitude": 41.26194,
        "longitude": -95.86083
      },
      {
        "numJobs": 42,
        "name": "Palm Desert, CA",
        "stateAbbreviation": "CA",
        "stateName": "California",
        "id": 1147124,
        "latitude": 33.72222,
        "longitude": -116.37361
      },
      {
        "numJobs": 42,
        "name": "Jamul, CA",
        "stateAbbreviation": "CA",
        "stateName": "California",
        "id": 1147292,
        "latitude": 32.71694,
        "longitude": -116.87528
      },
      {
        "numJobs": 41,
        "name": "Sterling Heights, MI",
        "stateAbbreviation": "MI",
        "stateName": "Michigan",
        "id": 1159809,
        "latitude": 42.58028,
        "longitude": -83.03028
      },
      {
        "numJobs": 41,
        "name": "Humble, TX",
        "stateAbbreviation": "TX",
        "stateName": "Texas",
        "id": 1140175,
        "latitude": 29.99999,
        "longitude": -95.26125
      },
      {
        "numJobs": 41,
        "name": "Beaumont, TX",
        "stateAbbreviation": "TX",
        "stateName": "Texas",
        "id": 1139817,
        "latitude": 30.08583,
        "longitude": -94.10167
      },
      {
        "numJobs": 41,
        "name": "Glen Burnie, MD",
        "stateAbbreviation": "MD",
        "stateName": "Maryland",
        "id": 1153575,
        "latitude": 39.1625,
        "longitude": -76.625
      },
      {
        "numJobs": 41,
        "name": "Melbourne, FL",
        "stateAbbreviation": "FL",
        "stateName": "Florida",
        "id": 1154286,
        "latitude": 28.08333,
        "longitude": -80.60833
      },
      {
        "numJobs": 41,
        "name": "Beaverton, OR",
        "stateAbbreviation": "OR",
        "stateName": "Oregon",
        "id": 1151576,
        "latitude": 45.48722,
        "longitude": -122.8025
      },
      {
        "numJobs": 41,
        "name": "Eugene, OR",
        "stateAbbreviation": "OR",
        "stateName": "Oregon",
        "id": 1151469,
        "latitude": 44.05222,
        "longitude": -123.08556
      },
      {
        "numJobs": 41,
        "name": "Jean, NV",
        "stateAbbreviation": "NV",
        "stateName": "Nevada",
        "id": 1149602,
        "latitude": 35.77889,
        "longitude": -115.32306
      },
      {
        "numJobs": 41,
        "name": "Sioux City, IA",
        "stateAbbreviation": "IA",
        "stateName": "Iowa",
        "id": 1149480,
        "latitude": 42.5,
        "longitude": -96.4
      },
      {
        "numJobs": 41,
        "name": "Chesterfield, MO",
        "stateAbbreviation": "MO",
        "stateName": "Missouri",
        "id": 1131207,
        "latitude": 38.66306,
        "longitude": -90.57694
      },
      {
        "numJobs": 41,
        "name": "Jefferson City, MO",
        "stateAbbreviation": "MO",
        "stateName": "Missouri",
        "id": 1130954,
        "latitude": 38.57667,
        "longitude": -92.17333
      },
      {
        "numJobs": 41,
        "name": "Santa Maria, CA",
        "stateAbbreviation": "CA",
        "stateName": "California",
        "id": 1147474,
        "latitude": 34.95306,
        "longitude": -120.43472
      },
      {
        "numJobs": 41,
        "name": "Rancho Cucamonga, CA",
        "stateAbbreviation": "CA",
        "stateName": "California",
        "id": 1147132,
        "latitude": 34.10639,
        "longitude": -117.59222
      },
      {
        "numJobs": 40,
        "name": "Denville, NJ",
        "stateAbbreviation": "NJ",
        "stateName": "New Jersey",
        "id": 1126738,
        "latitude": 40.89222,
        "longitude": -74.47778
      },
      {
        "numJobs": 40,
        "name": "Ogden, UT",
        "stateAbbreviation": "UT",
        "stateName": "Utah",
        "id": 1128221,
        "latitude": 41.22306,
        "longitude": -111.97306
      },
      {
        "numJobs": 40,
        "name": "Mission Viejo, CA",
        "stateAbbreviation": "CA",
        "stateName": "California",
        "id": 1146829,
        "latitude": 33.6,
        "longitude": -117.67111
      },
      {
        "numJobs": 40,
        "name": "Fort Belvoir, VA",
        "stateAbbreviation": "VA",
        "stateName": "Virginia",
        "id": 1130362,
        "latitude": 38.712147,
        "longitude": -77.158615
      },
      {
        "numJobs": 40,
        "name": "Carrollton, TX",
        "stateAbbreviation": "TX",
        "stateName": "Texas",
        "id": 1139964,
        "latitude": 32.95361,
        "longitude": -96.89
      },
      {
        "numJobs": 40,
        "name": "Lawrenceville, GA",
        "stateAbbreviation": "GA",
        "stateName": "Georgia",
        "id": 1155641,
        "latitude": 33.95611,
        "longitude": -83.98806
      },
      {
        "numJobs": 40,
        "name": "Daytona Beach, FL",
        "stateAbbreviation": "FL",
        "stateName": "Florida",
        "id": 1154028,
        "latitude": 29.21056,
        "longitude": -81.02306
      },
      {
        "numJobs": 40,
        "name": "Yakima, WA",
        "stateAbbreviation": "WA",
        "stateName": "Washington",
        "id": 1150604,
        "latitude": 46.60222,
        "longitude": -120.50472
      },
      {
        "numJobs": 40,
        "name": "Fort Meade, MD",
        "stateAbbreviation": "MD",
        "stateName": "Maryland",
        "id": 1165756,
        "latitude": 39.10815,
        "longitude": -76.74323
      },
      {
        "numJobs": 40,
        "name": "Napa, CA",
        "stateAbbreviation": "CA",
        "stateName": "California",
        "id": 1146966,
        "latitude": 38.29722,
        "longitude": -122.28444
      },
      {
        "numJobs": 39,
        "name": "Parsippany, NJ",
        "stateAbbreviation": "NJ",
        "stateName": "New Jersey",
        "id": 1126931,
        "latitude": 40.85778,
        "longitude": -74.42639
      },
      {
        "numJobs": 39,
        "name": "Tuscaloosa, AL",
        "stateAbbreviation": "AL",
        "stateName": "Alabama",
        "id": 1127776,
        "latitude": 33.20972,
        "longitude": -87.56917
      },
      {
        "numJobs": 39,
        "name": "Plainfield, IN",
        "stateAbbreviation": "IN",
        "stateName": "Indiana",
        "id": 1145032,
        "latitude": 39.70417,
        "longitude": -86.39944
      },
      {
        "numJobs": 39,
        "name": "Sterling, VA",
        "stateAbbreviation": "VA",
        "stateName": "Virginia",
        "id": 1130411,
        "latitude": 39.00611,
        "longitude": -77.42889
      },
      {
        "numJobs": 39,
        "name": "Hamilton, OH",
        "stateAbbreviation": "OH",
        "stateName": "Ohio",
        "id": 1145718,
        "latitude": 39.39944,
        "longitude": -84.56139
      },
      {
        "numJobs": 39,
        "name": "Kennesaw, GA",
        "stateAbbreviation": "GA",
        "stateName": "Georgia",
        "id": 1155639,
        "latitude": 34.02333,
        "longitude": -84.61556
      },