{
  "success": true,
  "status": "OK",
  "jsessionid": "B4B832BF2EFE2B5F1F5731CDDF617775",
  "response": {
    "attributionURL": "http://www.glassdoor.com/Job/jobs.htm",
    "countReturned": 58,
    "states": {
      "South Carolina": {
        "numJobs": 1747,
        "name": "South Carolina",
        "id": 3411,
        "score": 0.6542613918449339,
        "latitude": 33.985115,
        "longitude": -80.96936
      },
      "Rhode Island": {
        "numJobs": 796,
        "name": "Rhode Island",
        "id": 3156,
        "score": 0.6111450063422857,
        "latitude": 41.675617,
        "longitude": -71.503815
      },
      "Federated s of Micronesia": {
        "numJobs": 1,
        "name": "Federated s of Micronesia",
        "id": 1229,
        "score": 0.12775763021181027,
        "latitude": "",
        "longitude": ""
      },
      "New Mexico": {
        "numJobs": 862,
        "name": "New Mexico",
        "id": 1181,
        "score": 0.5964259495077419,
        "latitude": 34.695763,
        "longitude": -106.22367
      },
      "Florida": {
        "numJobs": 10280,
        "name": "Florida",
        "id": 3318,
        "score": 0.8205384248984604,
        "latitude": 28.63532,
        "longitude": -82.39836
      },
      "Alabama": {
        "numJobs": 2554,
        "name": "Alabama",
        "id": 105,
        "score": 0.696990621441347,
        "latitude": 33.074646,
        "longitude": -86.72501
      },
      "California": {
        "numJobs": 53007,
        "name": "California",
        "id": 2280,
        "score": 1,
        "latitude": 37.016674,
        "longitude": -120.15913
      },
      "New Hampshire": {
        "numJobs": 1203,
        "name": "New Hampshire",
        "id": 2403,
        "score": 0.6444377589327211,
        "latitude": 43.409595,
        "longitude": -71.541885
      },
      "Puerto Rico": {
        "numJobs": 115,
        "name": "Puerto Rico",
        "id": 1618,
        "score": 0.5086692391129126,
        "latitude": 18.250437,
        "longitude": -66.402916
      },
      "Massachusetts": {
        "numJobs": 12388,
        "name": "Massachusetts",
        "id": 3399,
        "score": 0.8695077348593023,
        "latitude": 42.204845,
        "longitude": -71.496826
      },
      "Remote": {
        "numJobs": 297,
        "name": "Remote",
        "id": 11047,
        "score": 0.668465978150447,
        "latitude": "",
        "longitude": ""
      },
      "Tennessee": {
        "numJobs": 2997,
        "name": "Tennessee",
        "id": 1968,
        "score": 0.7013888758468202,
        "latitude": 35.869774,
        "longitude": -85.69873
      },
      "Maryland": {
        "numJobs": 13997,
        "name": "Maryland",
        "id": 3201,
        "score": 0.8999110843514084,
        "latitude": 39.13058,
        "longitude": -76.71935
      },
      "Louisiana": {
        "numJobs": 1204,
        "name": "Louisiana",
        "id": 2792,
        "score": 0.6201960136015916,
        "latitude": 31.05971,
        "longitude": -91.839554
      },
      "Ohio": {
        "numJobs": 7596,
        "name": "Ohio",
        "id": 2235,
        "score": 0.7873261823458,
        "latitude": 40.20804,
        "longitude": -82.68456
      },
      "West Virginia": {
        "numJobs": 576,
        "name": "West Virginia",
        "id": 1939,
        "score": 0.5530962676549518,
        "latitude": 38.646973,
        "longitude": -80.79809
      },
      "Idaho": {
        "numJobs": 564,
        "name": "Idaho",
        "id": 132,
        "score": 0.5597116292331924,
        "latitude": 44.72104,
        "longitude": -114.83413
      },
      "Virginia": {
        "numJobs": 20674,
        "name": "Virginia",
        "id": 323,
        "score": 0.9338060029251464,
        "latitude": 37.71112,
        "longitude": -78.51438
      },
      "Mississippi": {
        "numJobs": 654,
        "name": "Mississippi",
        "id": 1553,
        "score": 0.5626916199132586,
        "latitude": 32.81446,
        "longitude": -89.712814
      },
      "Texas": {
        "numJobs": 20751,
        "name": "Texas",
        "id": 1347,
        "score": 0.8881166184672232,
        "latitude": 30.541521,
        "longitude": -97.844345
      },
      "Vermont": {
        "numJobs": 295,
        "name": "Vermont",
        "id": 1765,
        "score": 0.51014722335689,
        "latitude": 44.01336,
        "longitude": -72.68488
      },
      "Wyoming": {
        "numJobs": 194,
        "name": "Wyoming",
        "id": 1258,
        "score": 0.46204549887942153,
        "latitude": 42.800774,
        "longitude": -107.330284
      },
      "New York": {
        "numJobs": 16441,
        "name": "New York",
        "id": 428,
        "score": 0.8785157567673149,
        "latitude": 42.56897,
        "longitude": -75.477
      },
      "Kansas": {
        "numJobs": 1595,
        "name": "Kansas",
        "id": 3107,
        "score": 0.6504941624945468,
        "latitude": 38.453106,
        "longitude": -97.173775
      },
      "Guam": {
        "numJobs": 2,
        "name": "Guam",
        "id": 566,
        "score": 0.13335700487218302,
        "latitude": 13.442065,
        "longitude": 144.7609
      },
      "Michigan": {
        "numJobs": 7406,
        "name": "Michigan",
        "id": 527,
        "score": 0.8053228211133292,
        "latitude": 43.92309,
        "longitude": -85.22649
      },
      "New Jersey": {
        "numJobs": 8070,
        "name": "New Jersey",
        "id": 39,
        "score": 0.8094843585015061,
        "latitude": 40.219467,
        "longitude": -74.63167
      },
      "Pennsylvania": {
        "numJobs": 9335,
        "name": "Pennsylvania",
        "id": 3185,
        "score": 0.8078036995082198,
        "latitude": 40.60347,
        "longitude": -77.41482
      },
      "Colorado": {
        "numJobs": 8175,
        "name": "Colorado",
        "id": 2519,
        "score": 0.8246821051302758,
        "latitude": 39.152225,
        "longitude": -105.41113
      },
      "Maine": {
        "numJobs": 490,
        "name": "Maine",
        "id": 758,
        "score": 0.5483146985525724,
        "latitude": 44.6072,
        "longitude": -69.434845
      },
      "Arkansas": {
        "numJobs": 960,
        "name": "Arkansas",
        "id": 1892,
        "score": 0.5969846930139443,
        "latitude": 34.997967,
        "longitude": -92.32213
      },
      "Missouri": {
        "numJobs": 4178,
        "name": "Missouri",
        "id": 386,
        "score": 0.7351143211054378,
        "latitude": 38.196053,
        "longitude": -92.25109
      },
      "Iowa": {
        "numJobs": 1431,
        "name": "Iowa",
        "id": 2733,
        "score": 0.6322963659232135,
        "latitude": 42.001587,
        "longitude": -93.15462
      },
      "Oregon": {
        "numJobs": 3765,
        "name": "Oregon",
        "id": 3163,
        "score": 0.7508692578215157,
        "latitude": 44.54903,
        "longitude": -122.14273
      },
      "North Dakota": {
        "numJobs": 314,
        "name": "North Dakota",
        "id": 3517,
        "score": 0.506818795705478,
        "latitude": 47.52474,
        "longitude": -99.81501
      },
      "Indiana": {
        "numJobs": 2694,
        "name": "Indiana",
        "id": 2124,
        "score": 0.6847649944516355,
        "latitude": 39.853703,
        "longitude": -86.26825
      },
      "Northern Mariana Islands": {
        "numJobs": 1,
        "name": "Northern Mariana Islands",
        "id": 50,
        "score": 0.08408703981015755,
        "latitude": 14.803838,
        "longitude": 145.55148
      },
      "Wisconsin": {
        "numJobs": 3280,
        "name": "Wisconsin",
        "id": 481,
        "score": 0.7171433535138155,
        "latitude": 44.22958,
        "longitude": -89.65535
      },
      "Virgin Islands": {
        "numJobs": 4,
        "name": "Virgin Islands",
        "id": 2564,
        "score": 0.21545832914515575,
        "latitude": 17.97962,
        "longitude": -64.825584
      },
      "Nevada": {
        "numJobs": 1442,
        "name": "Nevada",
        "id": 2756,
        "score": 0.6492972201441743,
        "latitude": 39.09225,
        "longitude": -116.94037
      },
      "Minnesota": {
        "numJobs": 5426,
        "name": "Minnesota",
        "id": 1775,
        "score": 0.7791690762403768,
        "latitude": 45.81953,
        "longitude": -93.99869
      },
      "Washington": {
        "numJobs": 13970,
        "name": "Washington",
        "id": 3020,
        "score": 0.8966743591019157,
        "latitude": 47.318367,
        "longitude": -121.16399
      },
      "Delaware": {
        "numJobs": 650,
        "name": "Delaware",
        "id": 3523,
        "score": 0.5865345992927935,
        "latitude": 39.267464,
        "longitude": -75.50684
      },
      "Illinois": {
        "numJobs": 11394,
        "name": "Illinois",
        "id": 302,
        "score": 0.8285791623041474,
        "latitude": 40.22442,
        "longitude": -89.00813
      },
      "Hawaii": {
        "numJobs": 448,
        "name": "Hawaii",
        "id": 1385,
        "score": 0.5562667479418333,
        "latitude": 20.773073,
        "longitude": -156.91919
      },
      "American Samoa": {
        "numJobs": 1,
        "name": "American Samoa",
        "id": 1559,
        "score": 0.21071703401893754,
        "latitude": 14.2412,
        "longitude": -170.71957
      },
      "Connecticut": {
        "numJobs": 3267,
        "name": "Connecticut",
        "id": 2697,
        "score": 0.7342489401970395,
        "latitude": 41.5664,
        "longitude": -72.77289
      },
      "Montana": {
        "numJobs": 380,
        "name": "Montana",
        "id": 669,
        "score": 0.5258228875421095,
        "latitude": 46.91542,
        "longitude": -110.718666
      },
      "District of Columbia": {
        "numJobs": 5235,
        "name": "District of Columbia",
        "id": 1211,
        "score": 0.8490351922910994,
        "latitude": 38.895,
        "longitude": -77.03667
      },
      "Oklahoma": {
        "numJobs": 1328,
        "name": "Oklahoma",
        "id": 847,
        "score": 0.6294007532914687,
        "latitude": 35.427067,
        "longitude": -96.773994
      },
      "Arizona": {
        "numJobs": 5417,
        "name": "Arizona",
        "id": 483,
        "score": 0.7791018833006016,
        "latitude": 33.67677,
        "longitude": -111.58828
      },
      "North Carolina": {
        "numJobs": 7417,
        "name": "North Carolina",
        "id": 1282,
        "score": 0.8001784609437709,
        "latitude": 35.576843,
        "longitude": -79.53007
      },
      "Kentucky": {
        "numJobs": 1504,
        "name": "Kentucky",
        "id": 1141,
        "score": 0.6347113469863298,
        "latitude": 37.58137,
        "longitude": -84.888466
      },
      "Alaska": {
        "numJobs": 192,
        "name": "Alaska",
        "id": 496,
        "score": 0.46578206151614066,
        "latitude": 61.27834,
        "longitude": -150.32988
      },
      "Georgia": {
        "numJobs": 9128,
        "name": "Georgia",
        "id": 3426,
        "score": 0.8218893584770843,
        "latitude": 33.18301,
        "longitude": -83.751396
      },
      "Utah": {
        "numJobs": 2586,
        "name": "Utah",
        "id": 255,
        "score": 0.720056433978198,
        "latitude": 40.30287,
        "longitude": -111.84235
      },
      "Nebraska": {
        "numJobs": 1269,
        "name": "Nebraska",
        "id": 792,
        "score": 0.6418212550789542,
        "latitude": 41.321033,
        "longitude": -98.7876
      },
      "South Dakota": {
        "numJobs": 294,
        "name": "South Dakota",
        "id": 1502,
        "score": 0.4991150163536493,
        "latitude": 44.289787,
        "longitude": -99.61724
      }
    },
    "cities": [
      {
        "numJobs": 10166,
        "name": "New York, NY",
        "stateAbbreviation": "NY",
        "stateName": "New York",
        "id": 1132348,
        "latitude": 40.71417,
        "longitude": -74.00639
      },
      {
        "numJobs": 8627,
        "name": "San Francisco, CA",
        "stateAbbreviation": "CA",
        "stateName": "California",
        "id": 1147401,
        "latitude": 37.775,
        "longitude": -122.41833
      },
      {
        "numJobs": 8287,
        "name": "Seattle, WA",
        "stateAbbreviation": "WA",
        "stateName": "Washington",
        "id": 1150505,
        "latitude": 47.60639,
        "longitude": -122.33083
      },
      {
        "numJobs": 5378,
        "name": "Chicago, IL",
        "stateAbbreviation": "IL",
        "stateName": "Illinois",
        "id": 1128808,
        "latitude": 41.85,
        "longitude": -87.65
      },
      {
        "numJobs": 5235,
        "name": "Washington, DC",
        "stateAbbreviation": "DC",
        "stateName": "District of Columbia",
        "id": 1138213,
        "latitude": 38.895,
        "longitude": -77.03667
      },
      {
        "numJobs": 4734,
        "name": "Atlanta, GA",
        "stateAbbreviation": "GA",
        "stateName": "Georgia",
        "id": 1155583,
        "latitude": 33.74889,
        "longitude": -84.38806
      },
      {
        "numJobs": 4308,
        "name": "Austin, TX",
        "stateAbbreviation": "TX",
        "stateName": "Texas",
        "id": 1139761,
        "latitude": 30.26694,
        "longitude": -97.74278
      },
      {
        "numJobs": 4017,
        "name": "San Jose, CA",
        "stateAbbreviation": "CA",
        "stateName": "California",
        "id": 1147436,
        "latitude": 37.33944,
        "longitude": -121.89389
      },
      {
        "numJobs": 3846,
        "name": "Santa Clara, CA",
        "stateAbbreviation": "CA",
        "stateName": "California",
        "id": 1147439,
        "latitude": 37.35417,
        "longitude": -121.95417
      },
      {
        "numJobs": 3799,
        "name": "Boston, MA",
        "stateAbbreviation": "MA",
        "stateName": "Massachusetts",
        "id": 1154532,
        "latitude": 42.35833,
        "longitude": -71.06028
      },
      {
        "numJobs": 3747,
        "name": "Sunnyvale, CA",
        "stateAbbreviation": "CA",
        "stateName": "California",
        "id": 1147442,
        "latitude": 37.36889,
        "longitude": -122.03528
      },
      {
        "numJobs": 3737,
        "name": "San Diego, CA",
        "stateAbbreviation": "CA",
        "stateName": "California",
        "id": 1147311,
        "latitude": 32.71528,
        "longitude": -117.15639
      },
      {
        "numJobs": 3217,
        "name": "Annapolis Junction, MD",
        "stateAbbreviation": "MD",
        "stateName": "Maryland",
        "id": 1153524,
        "latitude": 39.121613,
        "longitude": -76.79043
      },
      {
        "numJobs": 3119,
        "name": "Dallas, TX",
        "stateAbbreviation": "TX",
        "stateName": "Texas",
        "id": 1139977,
        "latitude": 32.78333,
        "longitude": -96.8
      },
      {
        "numJobs": 2757,
        "name": "Houston, TX",
        "stateAbbreviation": "TX",
        "stateName": "Texas",
        "id": 1140171,
        "latitude": 29.76306,
        "longitude": -95.36306
      },
      {
        "numJobs": 2633,
        "name": "Los Angeles, CA",
        "stateAbbreviation": "CA",
        "stateName": "California",
        "id": 1146821,
        "latitude": 34.05222,
        "longitude": -118.24278
      },
      {
        "numJobs": 2353,
        "name": "Denver, CO",
        "stateAbbreviation": "CO",
        "stateName": "Colorado",
        "id": 1148170,
        "latitude": 39.73917,
        "longitude": -104.98417
      },
      {
        "numJobs": 2211,
        "name": "Phoenix, AZ",
        "stateAbbreviation": "AZ",
        "stateName": "Arizona",
        "id": 1133904,
        "latitude": 33.44833,
        "longitude": -112.07333
      },
      {
        "numJobs": 2189,
        "name": "Redwood City, CA",
        "stateAbbreviation": "CA",
        "stateName": "California",
        "id": 1147394,
        "latitude": 37.48528,
        "longitude": -122.23528
      },
      {
        "numJobs": 2175,
        "name": "Arlington, VA",
        "stateAbbreviation": "VA",
        "stateName": "Virginia",
        "id": 1130337,
        "latitude": 38.89028,
        "longitude": -77.08444
      },
      {
        "numJobs": 2148,
        "name": "Herndon, VA",
        "stateAbbreviation": "VA",
        "stateName": "Virginia",
        "id": 1130374,
        "latitude": 38.96944,
        "longitude": -77.38639
      },
      {
        "numJobs": 2085,
        "name": "Pittsburgh, PA",
        "stateAbbreviation": "PA",
        "stateName": "Pennsylvania",
        "id": 1152990,
        "latitude": 40.44056,
        "longitude": -79.99611
      },
      {
        "numJobs": 2067,
        "name": "Reston, VA",
        "stateAbbreviation": "VA",
        "stateName": "Virginia",
        "id": 1130404,
        "latitude": 38.96861,
        "longitude": -77.34139
      },
      {
        "numJobs": 1977,
        "name": "Philadelphia, PA",
        "stateAbbreviation": "PA",
        "stateName": "Pennsylvania",
        "id": 1152672,
        "latitude": 39.95222,
        "longitude": -75.16417
      },
      {
        "numJobs": 1867,
        "name": "Palo Alto, CA",
        "stateAbbreviation": "CA",
        "stateName": "California",
        "id": 1147434,
        "latitude": 37.44194,
        "longitude": -122.14194
      },
      {
        "numJobs": 1859,
        "name": "Redmond, WA",
        "stateAbbreviation": "WA",
        "stateName": "Washington",
        "id": 1150499,
        "latitude": 47.67417,
        "longitude": -122.12028
      },
      {
        "numJobs": 1790,
        "name": "Irvine, CA",
        "stateAbbreviation": "CA",
        "stateName": "California",
        "id": 1146798,
        "latitude": 33.66944,
        "longitude": -117.82222
      },
      {
        "numJobs": 1720,
        "name": "Minneapolis, MN",
        "stateAbbreviation": "MN",
        "stateName": "Minnesota",
        "id": 1142551,
        "latitude": 44.98,
        "longitude": -93.26361
      },
      {
        "numJobs": 1701,
        "name": "Charlotte, NC",
        "stateAbbreviation": "NC",
        "stateName": "North Carolina",
        "id": 1138644,
        "latitude": 35.22694,
        "longitude": -80.84333
      },
      {
        "numJobs": 1699,
        "name": "Saint Louis, MO",
        "stateAbbreviation": "MO",
        "stateName": "Missouri",
        "id": 1131270,
        "latitude": 38.636864,
        "longitude": -90.28388
      },
      {
        "numJobs": 1687,
        "name": "San Antonio, TX",
        "stateAbbreviation": "TX",
        "stateName": "Texas",
        "id": 1140494,
        "latitude": 29.42389,
        "longitude": -98.49333
      },
      {
        "numJobs": 1657,
        "name": "McLean, VA",
        "stateAbbreviation": "VA",
        "stateName": "Virginia",
        "id": 1158535,
        "latitude": 38.93417,
        "longitude": -77.17778
      },
      {
        "numJobs": 1638,
        "name": "Chantilly, VA",
        "stateAbbreviation": "VA",
        "stateName": "Virginia",
        "id": 1130353,
        "latitude": 38.89417,
        "longitude": -77.43139
      },
      {
        "numJobs": 1610,
        "name": "Bellevue, WA",
        "stateAbbreviation": "WA",
        "stateName": "Washington",
        "id": 1150442,
        "latitude": 47.61056,
        "longitude": -122.19944
      },
      {
        "numJobs": 1583,
        "name": "Orlando, FL",
        "stateAbbreviation": "FL",
        "stateName": "Florida",
        "id": 1154247,
        "latitude": 28.53806,
        "longitude": -81.37944
      },
      {
        "numJobs": 1573,
        "name": "Raleigh, NC",
        "stateAbbreviation": "NC",
        "stateName": "North Carolina",
        "id": 1138960,
        "latitude": 35.77194,
        "longitude": -78.63889
      },
      {
        "numJobs": 1490,
        "name": "Irving, TX",
        "stateAbbreviation": "TX",
        "stateName": "Texas",
        "id": 1140006,
        "latitude": 32.81389,
        "longitude": -96.94861
      },
      {
        "numJobs": 1401,
        "name": "Tampa, FL",
        "stateAbbreviation": "FL",
        "stateName": "Florida",
        "id": 1154429,
        "latitude": 27.94722,
        "longitude": -82.45861
      },
      {
        "numJobs": 1375,
        "name": "Mountain View, CA",
        "stateAbbreviation": "CA",
        "stateName": "California",
        "id": 1147431,
        "latitude": 37.38611,
        "longitude": -122.08278
      },
      {
        "numJobs": 1349,
        "name": "Columbus, OH",
        "stateAbbreviation": "OH",
        "stateName": "Ohio",
        "id": 1145845,
        "latitude": 39.96111,
        "longitude": -82.99889
      },
      {
        "numJobs": 1296,
        "name": "Portland, OR",
        "stateAbbreviation": "OR",
        "stateName": "Oregon",
        "id": 1151614,
        "latitude": 45.52361,
        "longitude": -122.675
      },
      {
        "numJobs": 1266,
        "name": "Cambridge, MA",
        "stateAbbreviation": "MA",
        "stateName": "Massachusetts",
        "id": 1154545,
        "latitude": 42.375,
        "longitude": -71.10611
      },
      {
        "numJobs": 1252,
        "name": "Indianapolis, IN",
        "stateAbbreviation": "IN",
        "stateName": "Indiana",
        "id": 1145013,
        "latitude": 39.76833,
        "longitude": -86.15806
      },
      {
        "numJobs": 1242,
        "name": "Alpharetta, GA",
        "stateAbbreviation": "GA",
        "stateName": "Georgia",
        "id": 1155582,
        "latitude": 34.07528,
        "longitude": -84.29417
      },
      {
        "numJobs": 1234,
        "name": "Baltimore, MD",
        "stateAbbreviation": "MD",
        "stateName": "Maryland",
        "id": 1153527,
        "latitude": 39.29028,
        "longitude": -76.6125
      },
      {
        "numJobs": 1219,
        "name": "Fort Meade, MD",
        "stateAbbreviation": "MD",
        "stateName": "Maryland",
        "id": 1165756,
        "latitude": 39.10815,
        "longitude": -76.74323
      },
      {
        "numJobs": 1136,
        "name": "Alexandria, VA",
        "stateAbbreviation": "VA",
        "stateName": "Virginia",
        "id": 1130334,
        "latitude": 38.79755,
        "longitude": -77.08908
      },
      {
        "numJobs": 1076,
        "name": "Cincinnati, OH",
        "stateAbbreviation": "OH",
        "stateName": "Ohio",
        "id": 1145705,
        "latitude": 39.16194,
        "longitude": -84.45694
      },
      {
        "numJobs": 1073,
        "name": "Plano, TX",
        "stateAbbreviation": "TX",
        "stateName": "Texas",
        "id": 1140045,
        "latitude": 33.01972,
        "longitude": -96.69861
      },
      {
        "numJobs": 1063,
        "name": "Fairfax, VA",
        "stateAbbreviation": "VA",
        "stateName": "Virginia",
        "id": 1130359,
        "latitude": 38.84611,
        "longitude": -77.30667
      },
      {
        "numJobs": 1057,
        "name": "Colorado Springs, CO",
        "stateAbbreviation": "CO",
        "stateName": "Colorado",
        "id": 1148136,
        "latitude": 38.83389,
        "longitude": -104.82083
      },
      {
        "numJobs": 990,
        "name": "Salt Lake City, UT",
        "stateAbbreviation": "UT",
        "stateName": "Utah",
        "id": 1128289,
        "latitude": 40.76083,
        "longitude": -111.89028
      },
      {
        "numJobs": 980,
        "name": "Huntsville, AL",
        "stateAbbreviation": "AL",
        "stateName": "Alabama",
        "id": 1127653,
        "latitude": 34.73028,
        "longitude": -86.58611
      },
      {
        "numJobs": 979,
        "name": "Fort Worth, TX",
        "stateAbbreviation": "TX",
        "stateName": "Texas",
        "id": 1139993,
        "latitude": 32.72528,
        "longitude": -97.32056
      },
      {
        "numJobs": 978,
        "name": "Detroit, MI",
        "stateAbbreviation": "MI",
        "stateName": "Michigan",
        "id": 1134644,
        "latitude": 42.33139,
        "longitude": -83.04583
      },
      {
        "numJobs": 974,
        "name": "Columbia, MD",
        "stateAbbreviation": "MD",
        "stateName": "Maryland",
        "id": 1153546,
        "latitude": 39.24028,
        "longitude": -76.83972
      },
      {
        "numJobs": 953,
        "name": "Cleveland, OH",
        "stateAbbreviation": "OH",
        "stateName": "Ohio",
        "id": 1145778,
        "latitude": 41.49944,
        "longitude": -81.69556
      },
      {
        "numJobs": 951,
        "name": "Jersey City, NJ",
        "stateAbbreviation": "NJ",
        "stateName": "New Jersey",
        "id": 1126819,
        "latitude": 40.72806,
        "longitude": -74.07806
      },
      {
        "numJobs": 926,
        "name": "Nashville, TN",
        "stateAbbreviation": "TN",
        "stateName": "Tennessee",
        "id": 1144541,
        "latitude": 36.16583,
        "longitude": -86.78444
      },
      {
        "numJobs": 909,
        "name": "Hillsboro, OR",
        "stateAbbreviation": "OR",
        "stateName": "Oregon",
        "id": 1151603,
        "latitude": 45.52306,
        "longitude": -122.98861
      },
      {
        "numJobs": 865,
        "name": "Richmond, VA",
        "stateAbbreviation": "VA",
        "stateName": "Virginia",
        "id": 1130198,
        "latitude": 37.55361,
        "longitude": -77.46056
      },
      {
        "numJobs": 838,
        "name": "Milwaukee, WI",
        "stateAbbreviation": "WI",
        "stateName": "Wisconsin",
        "id": 1133579,
        "latitude": 43.03889,
        "longitude": -87.90639
      },
      {
        "numJobs": 810,
        "name": "Durham, NC",
        "stateAbbreviation": "NC",
        "stateName": "North Carolina",
        "id": 1138697,
        "latitude": 35.99389,
        "longitude": -78.89889
      },
      {
        "numJobs": 785,
        "name": "Hanover, MD",
        "stateAbbreviation": "MD",
        "stateName": "Maryland",
        "id": 1153584,
        "latitude": 39.19278,
        "longitude": -76.72444
      },
      {
        "numJobs": 783,
        "name": "Rockville, MD",
        "stateAbbreviation": "MD",
        "stateName": "Maryland",
        "id": 1153899,
        "latitude": 39.08389,
        "longitude": -77.15306
      },
      {
        "numJobs": 771,
        "name": "Springfield, VA",
        "stateAbbreviation": "VA",
        "stateName": "Virginia",
        "id": 1130409,
        "latitude": 38.791557,
        "longitude": -77.18702
      },
      {
        "numJobs": 764,
        "name": "Kansas City, MO",
        "stateAbbreviation": "MO",
        "stateName": "Missouri",
        "id": 1131040,
        "latitude": 39.09972,
        "longitude": -94.57833
      },
      {
        "numJobs": 747,
        "name": "Pleasanton, CA",
        "stateAbbreviation": "CA",
        "stateName": "California",
        "id": 1147390,
        "latitude": 37.6625,
        "longitude": -121.87361
      },
      {
        "numJobs": 736,
        "name": "El Segundo, CA",
        "stateAbbreviation": "CA",
        "stateName": "California",
        "id": 1146779,
        "latitude": 33.91917,
        "longitude": -118.41556
      },
      {
        "numJobs": 722,
        "name": "Jacksonville, FL",
        "stateAbbreviation": "FL",
        "stateName": "Florida",
        "id": 1154093,
        "latitude": 30.33194,
        "longitude": -81.65583
      },
      {
        "numJobs": 700,
        "name": "Omaha, NE",
        "stateAbbreviation": "NE",
        "stateName": "Nebraska",
        "id": 1136440,
        "latitude": 41.25861,
        "longitude": -95.9375
      },
      {
        "numJobs": 691,
        "name": "Las Vegas, NV",
        "stateAbbreviation": "NV",
        "stateName": "Nevada",
        "id": 1149603,
        "latitude": 36.175,
        "longitude": -115.13639
      },
      {
        "numJobs": 676,
        "name": "Waltham, MA",
        "stateAbbreviation": "MA",
        "stateName": "Massachusetts",
        "id": 1154703,
        "latitude": 42.37639,
        "longitude": -71.23611
      },
      {
        "numJobs": 666,
        "name": "Englewood, CO",
        "stateAbbreviation": "CO",
        "stateName": "Colorado",
        "id": 1148176,
        "latitude": 39.64778,
        "longitude": -104.98722
      },
      {
        "numJobs": 665,
        "name": "Boulder, CO",
        "stateAbbreviation": "CO",
        "stateName": "Colorado",
        "id": 1148112,
        "latitude": 40.015,
        "longitude": -105.27
      },
      {
        "numJobs": 629,
        "name": "San Mateo, CA",
        "stateAbbreviation": "CA",
        "stateName": "California",
        "id": 1147406,
        "latitude": 37.56306,
        "longitude": -122.32444
      },
      {
        "numJobs": 622,
        "name": "Louisville, KY",
        "stateAbbreviation": "KY",
        "stateName": "Kentucky",
        "id": 1137724,
        "latitude": 38.25417,
        "longitude": -85.75944
      },
      {
        "numJobs": 622,
        "name": "Scottsdale, AZ",
        "stateAbbreviation": "AZ",
        "stateName": "Arizona",
        "id": 1133911,
        "latitude": 33.50917,
        "longitude": -111.89833
      },
      {
        "numJobs": 618,
        "name": "Fort Lauderdale, FL",
        "stateAbbreviation": "FL",
        "stateName": "Florida",
        "id": 1154160,
        "latitude": 26.12194,
        "longitude": -80.14361
      },
      {
        "numJobs": 612,
        "name": "Birmingham, AL",
        "stateAbbreviation": "AL",
        "stateName": "Alabama",
        "id": 1127429,
        "latitude": 33.52056,
        "longitude": -86.8025
      },
      {
        "numJobs": 605,
        "name": "Melbourne, FL",
        "stateAbbreviation": "FL",
        "stateName": "Florida",
        "id": 1154286,
        "latitude": 28.08333,
        "longitude": -80.60833
      },
      {
        "numJobs": 604,
        "name": "Dayton, OH",
        "stateAbbreviation": "OH",
        "stateName": "Ohio",
        "id": 1145937,
        "latitude": 39.75889,
        "longitude": -84.19167
      },
      {
        "numJobs": 595,
        "name": "Miami, FL",
        "stateAbbreviation": "FL",
        "stateName": "Florida",
        "id": 1154170,
        "latitude": 25.77389,
        "longitude": -80.19389
      },
      {
        "numJobs": 587,
        "name": "Bethesda, MD",
        "stateAbbreviation": "MD",
        "stateName": "Maryland",
        "id": 1153817,
        "latitude": 38.98056,
        "longitude": -77.10056
      },
      {
        "numJobs": 576,
        "name": "Dearborn, MI",
        "stateAbbreviation": "MI",
        "stateName": "Michigan",
        "id": 1134642,
        "latitude": 42.32222,
        "longitude": -83.17639
      },
      {
        "numJobs": 575,
        "name": "Cary, NC",
        "stateAbbreviation": "NC",
        "stateName": "North Carolina",
        "id": 1138945,
        "latitude": 35.79139,
        "longitude": -78.78139
      },
      {
        "numJobs": 568,
        "name": "Broomfield, CO",
        "stateAbbreviation": "CO",
        "stateName": "Colorado",
        "id": 1148161,
        "latitude": 39.92056,
        "longitude": -105.08611
      },
      {
        "numJobs": 560,
        "name": "Richardson, TX",
        "stateAbbreviation": "TX",
        "stateName": "Texas",
        "id": 1140053,
        "latitude": 32.94806,
        "longitude": -96.72944
      },
      {
        "numJobs": 556,
        "name": "Eden Prairie, MN",
        "stateAbbreviation": "MN",
        "stateName": "Minnesota",
        "id": 1142521,
        "latitude": 44.85472,
        "longitude": -93.47056
      },
      {
        "numJobs": 554,
        "name": "Santa Monica, CA",
        "stateAbbreviation": "CA",
        "stateName": "California",
        "id": 1146873,
        "latitude": 34.01944,
        "longitude": -118.49028
      },
      {
        "numJobs": 549,
        "name": "Burlington, MA",
        "stateAbbreviation": "MA",
        "stateName": "Massachusetts",
        "id": 1154543,
        "latitude": 42.50472,
        "longitude": -71.19611
      },
      {
        "numJobs": 544,
        "name": "Lexington, MA",
        "stateAbbreviation": "MA",
        "stateName": "Massachusetts",
        "id": 1154599,
        "latitude": 42.44722,
        "longitude": -71.225
      },
      {
        "numJobs": 539,
        "name": "New Haven, CT",
        "stateAbbreviation": "CT",
        "stateName": "Connecticut",
        "id": 1148466,
        "latitude": 41.30806,
        "longitude": -72.92861
      },
      {
        "numJobs": 536,
        "name": "Memphis, TN",
        "stateAbbreviation": "TN",
        "stateName": "Tennessee",
        "id": 1144463,
        "latitude": 35.14944,
        "longitude": -90.04889
      },
      {
        "numJobs": 529,
        "name": "Auburn Hills, MI",
        "stateAbbreviation": "MI",
        "stateName": "Michigan",
        "id": 1134622,
        "latitude": 42.6875,
        "longitude": -83.23417
      },
      {
        "numJobs": 528,
        "name": "Albany, NY",
        "stateAbbreviation": "NY",
        "stateName": "New York",
        "id": 1131650,
        "latitude": 42.6525,
        "longitude": -73.75667
      },
      {
        "numJobs": 515,
        "name": "Madison, WI",
        "stateAbbreviation": "WI",
        "stateName": "Wisconsin",
        "id": 1133470,
        "latitude": 43.07306,
        "longitude": -89.40111
      },
      {
        "numJobs": 506,
        "name": "Remote, OR",
        "stateAbbreviation": "OR",
        "stateName": "Oregon",
        "id": 1165008,
        "latitude": 43.00611,
        "longitude": -123.89139
      },
      {
        "numJobs": 493,
        "name": "Menlo Park, CA",
        "stateAbbreviation": "CA",
        "stateName": "California",
        "id": 1147371,
        "latitude": 37.45389,
        "longitude": -122.18111
      },
      {
        "numJobs": 483,
        "name": "Rochester, NY",
        "stateAbbreviation": "NY",
        "stateName": "New York",
        "id": 1132765,
        "latitude": 43.15472,
        "longitude": -77.61583
      },
      {
        "numJobs": 470,
        "name": "Norfolk, VA",
        "stateAbbreviation": "VA",
        "stateName": "Virginia",
        "id": 1130306,
        "latitude": 36.84667,
        "longitude": -76.28556
      },
      {
        "numJobs": 457,
        "name": "Sacramento, CA",
        "stateAbbreviation": "CA",
        "stateName": "California",
        "id": 1147229,
        "latitude": 38.58167,
        "longitude": -121.49333
      },
      {
        "numJobs": 449,
        "name": "Vienna, VA",
        "stateAbbreviation": "VA",
        "stateName": "Virginia",
        "id": 1130417,
        "latitude": 38.90111,
        "longitude": -77.26556
      },
      {
        "numJobs": 447,
        "name": "Albuquerque, NM",
        "stateAbbreviation": "NM",
        "stateName": "New Mexico",
        "id": 1137959,
        "latitude": 35.08444,
        "longitude": -106.65056
      },
      {
        "numJobs": 444,
        "name": "Hartford, CT",
        "stateAbbreviation": "CT",
        "stateName": "Connecticut",
        "id": 1148399,
        "latitude": 41.76361,
        "longitude": -72.68556
      },
      {
        "numJobs": 441,
        "name": "Costa Mesa, CA",
        "stateAbbreviation": "CA",
        "stateName": "California",
        "id": 1146769,
        "latitude": 33.64111,
        "longitude": -117.91778
      },
      {
        "numJobs": 437,
        "name": "Littleton, CO",
        "stateAbbreviation": "CO",
        "stateName": "Colorado",
        "id": 1148194,
        "latitude": 39.61333,
        "longitude": -105.01611
      },
      {
        "numJobs": 436,
        "name": "Pasadena, CA",
        "stateAbbreviation": "CA",
        "stateName": "California",
        "id": 1146850,
        "latitude": 34.14778,
        "longitude": -118.14361
      },
      {
        "numJobs": 419,
        "name": "Southfield, MI",
        "stateAbbreviation": "MI",
        "stateName": "Michigan",
        "id": 1134732,
        "latitude": 42.47333,
        "longitude": -83.22194
      },
      {
        "numJobs": 417,
        "name": "Overland Park, KS",
        "stateAbbreviation": "KS",
        "stateName": "Kansas",
        "id": 1151049,
        "latitude": 38.98222,
        "longitude": -94.67056
      },
      {
        "numJobs": 417,
        "name": "Oklahoma City, OK",
        "stateAbbreviation": "OK",
        "stateName": "Oklahoma",
        "id": 1136950,
        "latitude": 35.4675,
        "longitude": -97.51611
      },
      {
        "numJobs": 408,
        "name": "Fort Belvoir, VA",
        "stateAbbreviation": "VA",
        "stateName": "Virginia",
        "id": 1130362,
        "latitude": 38.712147,
        "longitude": -77.158615
      },
      {
        "numJobs": 403,
        "name": "Tempe, AZ",
        "stateAbbreviation": "AZ",
        "stateName": "Arizona",
        "id": 1133917,
        "latitude": 33.41472,
        "longitude": -111.90861
      },
      {
        "numJobs": 401,
        "name": "Ann Arbor, MI",
        "stateAbbreviation": "MI",
        "stateName": "Michigan",
        "id": 1134560,
        "latitude": 42.27083,
        "longitude": -83.72639
      },
      {
        "numJobs": 400,
        "name": "San Bruno, CA",
        "stateAbbreviation": "CA",
        "stateName": "California",
        "id": 1147399,
        "latitude": 37.63056,
        "longitude": -122.41
      },
      {
        "numJobs": 393,
        "name": "Warren, MI",
        "stateAbbreviation": "MI",
        "stateName": "Michigan",
        "id": 1134741,
        "latitude": 42.4775,
        "longitude": -83.02778
      },
      {
        "numJobs": 389,
        "name": "Brooklyn, NY",
        "stateAbbreviation": "NY",
        "stateName": "New York",
        "id": 1132200,
        "latitude": 40.65,
        "longitude": -73.95
      },
      {
        "numJobs": 387,
        "name": "Princeton, NJ",
        "stateAbbreviation": "NJ",
        "stateName": "New Jersey",
        "id": 1127179,
        "latitude": 40.34861,
        "longitude": -74.65944
      },
      {
        "numJobs": 385,
        "name": "Saint Paul, MN",
        "stateAbbreviation": "MN",
        "stateName": "Minnesota",
        "id": 1142575,
        "latitude": 44.94444,
        "longitude": -93.09306
      },
      {
        "numJobs": 385,
        "name": "San Ramon, CA",
        "stateAbbreviation": "CA",
        "stateName": "California",
        "id": 1147410,
        "latitude": 37.78,
        "longitude": -121.97694
      },
      {
        "numJobs": 381,
        "name": "Troy, MI",
        "stateAbbreviation": "MI",
        "stateName": "Michigan",
        "id": 1134737,
        "latitude": 42.60556,
        "longitude": -83.15
      },
      {
        "numJobs": 380,
        "name": "Aurora, CO",
        "stateAbbreviation": "CO",
        "stateName": "Colorado",
        "id": 1148156,
        "latitude": 39.72944,
        "longitude": -104.83139
      },
      {
        "numJobs": 378,
        "name": "Fremont, CA",
        "stateAbbreviation": "CA",
        "stateName": "California",
        "id": 1147355,
        "latitude": 37.54833,
        "longitude": -121.9875
      },
      {
        "numJobs": 376,
        "name": "Natick, MA",
        "stateAbbreviation": "MA",
        "stateName": "Massachusetts",
        "id": 1154630,
        "latitude": 42.28333,
        "longitude": -71.35
      },
      {
        "numJobs": 372,
        "name": "Sterling, VA",
        "stateAbbreviation": "VA",
        "stateName": "Virginia",
        "id": 1130411,
        "latitude": 39.00611,
        "longitude": -77.42889
      },
      {
        "numJobs": 367,
        "name": "Quantico, VA",
        "stateAbbreviation": "VA",
        "stateName": "Virginia",
        "id": 1130401,
        "latitude": 38.52222,
        "longitude": -77.29389
      },
      {
        "numJobs": 364,
        "name": "Milpitas, CA",
        "stateAbbreviation": "CA",
        "stateName": "California",
        "id": 1147428,
        "latitude": 37.42833,
        "longitude": -121.90556
      },
      {
        "numJobs": 361,
        "name": "Farmington Hills, MI",
        "stateAbbreviation": "MI",
        "stateName": "Michigan",
        "id": 1159753,
        "latitude": 42.48528,
        "longitude": -83.37722
      },
      {
        "numJobs": 360,
        "name": "Dulles, VA",
        "stateAbbreviation": "VA",
        "stateName": "Virginia",
        "id": 1130356,
        "latitude": 39.073128,
        "longitude": -77.4685
      },
      {
        "numJobs": 358,
        "name": "Columbia, SC",
        "stateAbbreviation": "SC",
        "stateName": "South Carolina",
        "id": 1155132,
        "latitude": 34.00056,
        "longitude": -81.035
      },
      {
        "numJobs": 351,
        "name": "King of Prussia, PA",
        "stateAbbreviation": "PA",
        "stateName": "Pennsylvania",
        "id": 1152620,
        "latitude": 40.08917,
        "longitude": -75.39639
      },
      {
        "numJobs": 347,
        "name": "Des Moines, IA",
        "stateAbbreviation": "IA",
        "stateName": "Iowa",
        "id": 1149246,
        "latitude": 41.60056,
        "longitude": -93.60889
      },
      {
        "numJobs": 344,
        "name": "Chandler, AZ",
        "stateAbbreviation": "AZ",
        "stateName": "Arizona",
        "id": 1133878,
        "latitude": 33.30611,
        "longitude": -111.84056
      },
      {
        "numJobs": 329,
        "name": "Wilmington, DE",
        "stateAbbreviation": "DE",
        "stateName": "Delaware",
        "id": 1156375,
        "latitude": 39.74583,
        "longitude": -75.54694
      },
      {
        "numJobs": 328,
        "name": "Charleston, SC",
        "stateAbbreviation": "SC",
        "stateName": "South Carolina",
        "id": 1155074,
        "latitude": 32.77639,
        "longitude": -79.93111
      },
      {
        "numJobs": 321,
        "name": "Tucson, AZ",
        "stateAbbreviation": "AZ",
        "stateName": "Arizona",
        "id": 1133996,
        "latitude": 32.22167,
        "longitude": -110.92583
      },
      {
        "numJobs": 318,
        "name": "Ashburn, VA",
        "stateAbbreviation": "VA",
        "stateName": "Virginia",
        "id": 1130338,
        "latitude": 39.04361,
        "longitude": -77.48778
      },
      {
        "numJobs": 318,
        "name": "Tulsa, OK",
        "stateAbbreviation": "OK",
        "stateName": "Oklahoma",
        "id": 1137055,
        "latitude": 36.15389,
        "longitude": -95.9925
      },
      {
        "numJobs": 310,
        "name": "Buffalo, NY",
        "stateAbbreviation": "NY",
        "stateName": "New York",
        "id": 1131850,
        "latitude": 42.88639,
        "longitude": -78.87861
      },
      {
        "numJobs": 306,
        "name": "Grand Rapids, MI",
        "stateAbbreviation": "MI",
        "stateName": "Michigan",
        "id": 1134796,
        "latitude": 42.96333,
        "longitude": -85.66806
      },
      {
        "numJobs": 304,
        "name": "Boise, ID",
        "stateAbbreviation": "ID",
        "stateName": "Idaho",
        "id": 1127927,
        "latitude": 43.61361,
        "longitude": -116.2025
      },
      {
        "numJobs": 303,
        "name": "New Orleans, LA",
        "stateAbbreviation": "LA",
        "stateName": "Louisiana",
        "id": 1150035,
        "latitude": 29.95444,
        "longitude": -90.075
      },
      {
        "numJobs": 302,
        "name": "Boca Raton, FL",
        "stateAbbreviation": "FL",
        "stateName": "Florida",
        "id": 1154153,
        "latitude": 26.35833,
        "longitude": -80.08333
      },
      {
        "numJobs": 298,
        "name": "Stamford, CT",
        "stateAbbreviation": "CT",
        "stateName": "Connecticut",
        "id": 1148355,
        "latitude": 41.05333,
        "longitude": -73.53917
      },
      {
        "numJobs": 294,
        "name": "Edison, NJ",
        "stateAbbreviation": "NJ",
        "stateName": "New Jersey",
        "id": 1126748,
        "latitude": 40.52424,
        "longitude": -74.41246
      },
      {
        "numJobs": 291,
        "name": "Schaumburg, IL",
        "stateAbbreviation": "IL",
        "stateName": "Illinois",
        "id": 1128969,
        "latitude": 42.03333,
        "longitude": -88.08333
      },
      {
        "numJobs": 290,
        "name": "Harrisburg, PA",
        "stateAbbreviation": "PA",
        "stateName": "Pennsylvania",
        "id": 1152185,
        "latitude": 40.27361,
        "longitude": -76.88472
      },
      {
        "numJobs": 288,
        "name": "Deerfield, IL",
        "stateAbbreviation": "IL",
        "stateName": "Illinois",
        "id": 1128821,
        "latitude": 42.17111,
        "longitude": -87.84444
      },
      {
        "numJobs": 288,
        "name": "Aberdeen, MD",
        "stateAbbreviation": "MD",
        "stateName": "Maryland",
        "id": 1153520,
        "latitude": 39.50944,
        "longitude": -76.16444
      },
      {
        "numJobs": 283,
        "name": "Newark, NJ",
        "stateAbbreviation": "NJ",
        "stateName": "New Jersey",
        "id": 1126906,
        "latitude": 40.73556,
        "longitude": -74.17278
      },
      {
        "numJobs": 275,
        "name": "Warren, NJ",
        "stateAbbreviation": "NJ",
        "stateName": "New Jersey",
        "id": 1127032,
        "latitude": 40.631565,
        "longitude": -74.508064
      },
      {
        "numJobs": 275,
        "name": "Oakland, CA",
        "stateAbbreviation": "CA",
        "stateName": "California",
        "id": 1147380,
        "latitude": 37.80444,
        "longitude": -122.26972
      },
      {
        "numJobs": 274,
        "name": "Anaheim, CA",
        "stateAbbreviation": "CA",
        "stateName": "California",
        "id": 1146743,
        "latitude": 33.83528,
        "longitude": -117.91361
      },
      {
        "numJobs": 274,
        "name": "Aberdeen Proving Ground, MD",
        "stateAbbreviation": "MD",
        "stateName": "Maryland",
        "id": 1153521,
        "latitude": 39.430157,
        "longitude": -76.2193
      },
      {
        "numJobs": 273,
        "name": "Gaithersburg, MD",
        "stateAbbreviation": "MD",
        "stateName": "Maryland",
        "id": 1153852,
        "latitude": 39.14333,
        "longitude": -77.20167
      },
      {
        "numJobs": 271,
        "name": "Lansing, MI",
        "stateAbbreviation": "MI",
        "stateName": "Michigan",
        "id": 1134930,
        "latitude": 42.7325,
        "longitude": -84.55556
      },
      {
        "numJobs": 269,
        "name": "Greensboro, NC",
        "stateAbbreviation": "NC",
        "stateName": "North Carolina",
        "id": 1138755,
        "latitude": 36.0725,
        "longitude": -79.79222
      },
      {
        "numJobs": 267,
        "name": "Greenbelt, MD",
        "stateAbbreviation": "MD",
        "stateName": "Maryland",
        "id": 1153857,
        "latitude": 39.00444,
        "longitude": -76.87583
      },
      {
        "numJobs": 266,
        "name": "Virginia Beach, VA",
        "stateAbbreviation": "VA",
        "stateName": "Virginia",
        "id": 1130324,
        "latitude": 36.85278,
        "longitude": -75.97833
      },
      {
        "numJobs": 266,
        "name": "Morrisville, NC",
        "stateAbbreviation": "NC",
        "stateName": "North Carolina",
        "id": 1138956,
        "latitude": 35.82333,
        "longitude": -78.82583
      },
      {
        "numJobs": 265,
        "name": "Falls Church, VA",
        "stateAbbreviation": "VA",
        "stateName": "Virginia",
        "id": 1130361,
        "latitude": 38.88222,
        "longitude": -77.17139
      },
      {
        "numJobs": 264,
        "name": "Vancouver, WA",
        "stateAbbreviation": "WA",
        "stateName": "Washington",
        "id": 1150413,
        "latitude": 45.63889,
        "longitude": -122.66028
      },
      {
        "numJobs": 263,
        "name": "Burbank, CA",
        "stateAbbreviation": "CA",
        "stateName": "California",
        "id": 1146756,
        "latitude": 34.18083,
        "longitude": -118.30806
      },
      {
        "numJobs": 263,
        "name": "Foster City, CA",
        "stateAbbreviation": "CA",
        "stateName": "California",
        "id": 1163997,
        "latitude": 37.55861,
        "longitude": -122.27
      },
      {
        "numJobs": 260,
        "name": "Andover, MA",
        "stateAbbreviation": "MA",
        "stateName": "Massachusetts",
        "id": 1154518,
        "latitude": 42.65833,
        "longitude": -71.1375
      },
      {
        "numJobs": 258,
        "name": "Torrance, CA",
        "stateAbbreviation": "CA",
        "stateName": "California",
        "id": 1146894,
        "latitude": 33.83583,
        "longitude": -118.33972
      },
      {
        "numJobs": 257,
        "name": "Reno, NV",
        "stateAbbreviation": "NV",
        "stateName": "Nevada",
        "id": 1149627,
        "latitude": 39.52972,
        "longitude": -119.81278
      },
      {
        "numJobs": 254,
        "name": "Novi, MI",
        "stateAbbreviation": "MI",
        "stateName": "Michigan",
        "id": 1134704,
        "latitude": 42.48056,
        "longitude": -83.47556
      },
      {
        "numJobs": 252,
        "name": "Beaverton, OR",
        "stateAbbreviation": "OR",
        "stateName": "Oregon",
        "id": 1151576,
        "latitude": 45.48722,
        "longitude": -122.8025
      },
      {
        "numJobs": 251,
        "name": "Basking Ridge, NJ",
        "stateAbbreviation": "NJ",
        "stateName": "New Jersey",
        "id": 1126687,
        "latitude": 40.70611,
        "longitude": -74.54972
      },
      {
        "numJobs": 250,
        "name": "Norcross, GA",
        "stateAbbreviation": "GA",
        "stateName": "Georgia",
        "id": 1155667,
        "latitude": 33.94111,
        "longitude": -84.21361
      },
      {
        "numJobs": 250,
        "name": "Framingham, MA",
        "stateAbbreviation": "MA",
        "stateName": "Massachusetts",
        "id": 1154571,
        "latitude": 42.27917,
        "longitude": -71.41667
      },
      {
        "numJobs": 250,
        "name": "Livonia, MI",
        "stateAbbreviation": "MI",
        "stateName": "Michigan",
        "id": 1134687,
        "latitude": 42.36833,
        "longitude": -83.35278
      },
      {
        "numJobs": 249,
        "name": "Bloomington, MN",
        "stateAbbreviation": "MN",
        "stateName": "Minnesota",
        "id": 1162257,
        "latitude": 44.84083,
        "longitude": -93.29806
      },
      {
        "numJobs": 249,
        "name": "East Hartford, CT",
        "stateAbbreviation": "CT",
        "stateName": "Connecticut",
        "id": 1148388,
        "latitude": 41.78222,
        "longitude": -72.6125
      },
      {
        "numJobs": 248,
        "name": "Culver City, CA",
        "stateAbbreviation": "CA",
        "stateName": "California",
        "id": 1146771,
        "latitude": 34.02111,
        "longitude": -118.39556
      },
      {
        "numJobs": 245,
        "name": "Annapolis, MD",
        "stateAbbreviation": "MD",
        "stateName": "Maryland",
        "id": 1153523,
        "latitude": 38.97833,
        "longitude": -76.4925
      },
      {
        "numJobs": 245,
        "name": "Linthicum, MD",
        "stateAbbreviation": "MD",
        "stateName": "Maryland",
        "id": 1165775,
        "latitude": 39.205,
        "longitude": -76.65306
      },
      {
        "numJobs": 242,
        "name": "Bothell, WA",
        "stateAbbreviation": "WA",
        "stateName": "Washington",
        "id": 1150445,
        "latitude": 47.7625,
        "longitude": -122.20417
      },
      {
        "numJobs": 241,
        "name": "Parsippany, NJ",
        "stateAbbreviation": "NJ",
        "stateName": "New Jersey",
        "id": 1126931,
        "latitude": 40.85778,
        "longitude": -74.42639
      },
      {
        "numJobs": 241,
        "name": "Dublin, OH",
        "stateAbbreviation": "OH",
        "stateName": "Ohio",
        "id": 1145850,
        "latitude": 40.102497,
        "longitude": -83.11432
      },
      {
        "numJobs": 240,
        "name": "Knoxville, TN",
        "stateAbbreviation": "TN",
        "stateName": "Tennessee",
        "id": 1144394,
        "latitude": 35.96056,
        "longitude": -83.92083
      },
      {
        "numJobs": 239,
        "name": "Bedford, MA",
        "stateAbbreviation": "MA",
        "stateName": "Massachusetts",
        "id": 1154527,
        "latitude": 42.49056,
        "longitude": -71.27667
      },
      {
        "numJobs": 238,
        "name": "Santa Barbara, CA",
        "stateAbbreviation": "CA",
        "stateName": "California",
        "id": 1147473,
        "latitude": 34.42083,
        "longitude": -119.69722
      },
      {
        "numJobs": 237,
        "name": "Emeryville, CA",
        "stateAbbreviation": "CA",
        "stateName": "California",
        "id": 1147352,
        "latitude": 37.83139,
        "longitude": -122.28417
      },
      {
        "numJobs": 236,
        "name": "Charlottesville, VA",
        "stateAbbreviation": "VA",
        "stateName": "Virginia",
        "id": 1130001,
        "latitude": 38.02917,
        "longitude": -78.47694
      },
      {
        "numJobs": 235,
        "name": "Bentonville, AR",
        "stateAbbreviation": "AR",
        "stateName": "Arkansas",
        "id": 1143031,
        "latitude": 36.37278,
        "longitude": -94.20861
      },
      {
        "numJobs": 235,
        "name": "Silver Spring, MD",
        "stateAbbreviation": "MD",
        "stateName": "Maryland",
        "id": 1153904,
        "latitude": 38.99056,
        "longitude": -77.02639
      },
      {
        "numJobs": 235,
        "name": "Carlsbad, CA",
        "stateAbbreviation": "CA",
        "stateName": "California",
        "id": 1147279,
        "latitude": 33.15806,
        "longitude": -117.34972
      },
      {
        "numJobs": 234,
        "name": "Syracuse, NY",
        "stateAbbreviation": "NY",
        "stateName": "New York",
        "id": 1132872,
        "latitude": 43.04806,
        "longitude": -76.14778
      },
      {
        "numJobs": 230,
        "name": "Glendale, CA",
        "stateAbbreviation": "CA",
        "stateName": "California",
        "id": 1146787,
        "latitude": 34.1425,
        "longitude": -118.25417
      },
      {
        "numJobs": 226,
        "name": "Richfield, MN",
        "stateAbbreviation": "MN",
        "stateName": "Minnesota",
        "id": 1162332,
        "latitude": 44.88333,
        "longitude": -93.28278
      },
      {
        "numJobs": 224,
        "name": "Cupertino, CA",
        "stateAbbreviation": "CA",
        "stateName": "California",
        "id": 1147422,
        "latitude": 37.32306,
        "longitude": -122.03111
      },
      {
        "numJobs": 222,
        "name": "Mount Laurel, NJ",
        "stateAbbreviation": "NJ",
        "stateName": "New Jersey",
        "id": 1127131,
        "latitude": 39.93389,
        "longitude": -74.89139
      },
      {
        "numJobs": 222,
        "name": "Lehi, UT",
        "stateAbbreviation": "UT",
        "stateName": "Utah",
        "id": 1128238,
        "latitude": 40.39167,
        "longitude": -111.85
      },
      {
        "numJobs": 222,
        "name": "Malvern, PA",
        "stateAbbreviation": "PA",
        "stateName": "Pennsylvania",
        "id": 1152639,
        "latitude": 40.03611,
        "longitude": -75.51417
      },
      {
        "numJobs": 222,
        "name": "Kirkland, WA",
        "stateAbbreviation": "WA",
        "stateName": "Washington",
        "id": 1150472,
        "latitude": 47.68167,
        "longitude": -122.2075
      },
      {
        "numJobs": 221,
        "name": "Suitland, MD",
        "stateAbbreviation": "MD",
        "stateName": "Maryland",
        "id": 1153909,
        "latitude": 38.84861,
        "longitude": -76.92417
      },
      {
        "numJobs": 220,
        "name": "Saint Petersburg, FL",
        "stateAbbreviation": "FL",
        "stateName": "Florida",
        "id": 1154421,
        "latitude": 27.77056,
        "longitude": -82.67944
      },
      {
        "numJobs": 218,
        "name": "Los Gatos, CA",
        "stateAbbreviation": "CA",
        "stateName": "California",
        "id": 1147427,
        "latitude": 37.22667,
        "longitude": -121.97361
      },
      {
        "numJobs": 215,
        "name": "Nashua, NH",
        "stateAbbreviation": "NH",
        "stateName": "New Hampshire",
        "id": 1147911,
        "latitude": 42.76528,
        "longitude": -71.46806
      },
      {
        "numJobs": 214,
        "name": "Manassas, VA",
        "stateAbbreviation": "VA",
        "stateName": "Virginia",
        "id": 1130381,
        "latitude": 38.75083,
        "longitude": -77.47556
      },
      {
        "numJobs": 214,
        "name": "Carrollton, TX",
        "stateAbbreviation": "TX",
        "stateName": "Texas",
        "id": 1139964,
        "latitude": 32.95361,
        "longitude": -96.89
      },
      {
        "numJobs": 214,
        "name": "Duluth, GA",
        "stateAbbreviation": "GA",
        "stateName": "Georgia",
        "id": 1155612,
        "latitude": 34.00278,
        "longitude": -84.14472
      },
      {
        "numJobs": 211,
        "name": "Naperville, IL",
        "stateAbbreviation": "IL",
        "stateName": "Illinois",
        "id": 1128928,
        "latitude": 41.78583,
        "longitude": -88.14722
      },
      {
        "numJobs": 211,
        "name": "Centennial, CO",
        "stateAbbreviation": "CO",
        "stateName": "Colorado",
        "id": 1164284,
        "latitude": 39.57917,
        "longitude": -104.87639
      },
      {
        "numJobs": 210,
        "name": "Pensacola, FL",
        "stateAbbreviation": "FL",
        "stateName": "Florida",
        "id": 1154318,
        "latitude": 30.42111,
        "longitude": -87.21694
      },
      {
        "numJobs": 210,
        "name": "Fort Huachuca, AZ",
        "stateAbbreviation": "AZ",
        "stateName": "Arizona",
        "id": 1133970,
        "latitude": 31.550892,
        "longitude": -110.34862
      },
      {
        "numJobs": 207,
        "name": "Plymouth, MN",
        "stateAbbreviation": "MN",
        "stateName": "Minnesota",
        "id": 1162329,
        "latitude": 45.01056,
        "longitude": -93.45528
      },
      {
        "numJobs": 207,
        "name": "Baton Rouge, LA",
        "stateAbbreviation": "LA",
        "stateName": "Louisiana",
        "id": 1149789,
        "latitude": 30.45056,
        "longitude": -91.15444
      },
      {
        "numJobs": 206,
        "name": "Honolulu, HI",
        "stateAbbreviation": "HI",
        "stateName": "Hawaii",
        "id": 1140656,
        "latitude": 21.30694,
        "longitude": -157.85834
      },
      {
        "numJobs": 204,
        "name": "Chattanooga, TN",
        "stateAbbreviation": "TN",
        "stateName": "Tennessee",
        "id": 1144251,
        "latitude": 35.04556,
        "longitude": -85.30972
      },
      {
        "numJobs": 204,
        "name": "Moorestown, NJ",
        "stateAbbreviation": "NJ",
        "stateName": "New Jersey",
        "id": 1127128,
        "latitude": 39.96694,
        "longitude": -74.94306
      },
      {
        "numJobs": 204,
        "name": "Greenville, SC",
        "stateAbbreviation": "SC",
        "stateName": "South Carolina",
        "id": 1155193,
        "latitude": 34.8525,
        "longitude": -82.39417
      },
      {
        "numJobs": 204,
        "name": "Folsom, CA",
        "stateAbbreviation": "CA",
        "stateName": "California",
        "id": 1147188,
        "latitude": 38.67806,
        "longitude": -121.175
      },
      {
        "numJobs": 201,
        "name": "Wichita, KS",
        "stateAbbreviation": "KS",
        "stateName": "Kansas",
        "id": 1151230,
        "latitude": 37.69222,
        "longitude": -97.33722
      },
      {
        "numJobs": 199,
        "name": "Westlake, TX",
        "stateAbbreviation": "TX",
        "stateName": "Texas",
        "id": 1161600,
        "latitude": 32.99111,
        "longitude": -97.19472
      },
      {
        "numJobs": 199,
        "name": "Round Rock, TX",
        "stateAbbreviation": "TX",
        "stateName": "Texas",
        "id": 1139794,
        "latitude": 30.50806,
        "longitude": -97.67861
      },
      {
        "numJobs": 198,
        "name": "Allentown, PA",
        "stateAbbreviation": "PA",
        "stateName": "Pennsylvania",
        "id": 1151916,
        "latitude": 40.60833,
        "longitude": -75.49056
      },
      {
        "numJobs": 196,
        "name": "Greenwood Village, Arapahoe, CO",
        "stateAbbreviation": "CO",
        "stateName": "Colorado",
        "id": 1164301,
        "latitude": 39.61722,
        "longitude": -104.95028
      },
      {
        "numJobs": 195,
        "name": "Bridgewater, NJ",
        "stateAbbreviation": "NJ",
        "stateName": "New Jersey",
        "id": 1126710,
        "latitude": 40.593163,
        "longitude": -74.619514
      },
      {
        "numJobs": 193,
        "name": "Buffalo Grove, IL",
        "stateAbbreviation": "IL",
        "stateName": "Illinois",
        "id": 1128800,
        "latitude": 42.15139,
        "longitude": -87.95972
      },
      {
        "numJobs": 192,
        "name": "Hopkinton, MA",
        "stateAbbreviation": "MA",
        "stateName": "Massachusetts",
        "id": 1154589,
        "latitude": 42.22861,
        "longitude": -71.52306
      },
      {
        "numJobs": 191,
        "name": "Cedar Rapids, IA",
        "stateAbbreviation": "IA",
        "stateName": "Iowa",
        "id": 1149160,
        "latitude": 42.00833,
        "longitude": -91.64389
      },
      {
        "numJobs": 191,
        "name": "Oracle, AZ",
        "stateAbbreviation": "AZ",
        "stateName": "Arizona",
        "id": 1133900,
        "latitude": 32.61083,
        "longitude": -110.77028
      },
      {
        "numJobs": 190,
        "name": "Long Island City, NY",
        "stateAbbreviation": "NY",
        "stateName": "New York",
        "id": 1132310,
        "latitude": 40.756947,
        "longitude": -73.928795
      },
      {
        "numJobs": 187,
        "name": "Lincolnshire, IL",
        "stateAbbreviation": "IL",
        "stateName": "Illinois",
        "id": 1128898,
        "latitude": 42.19,
        "longitude": -87.90833
      },
      {
        "numJobs": 187,
        "name": "Long Beach, CA",
        "stateAbbreviation": "CA",
        "stateName": "California",
        "id": 1146819,
        "latitude": 33.76694,
        "longitude": -118.18833
      },
      {
        "numJobs": 186,
        "name": "Columbus, GA",
        "stateAbbreviation": "GA",
        "stateName": "Georgia",
        "id": 1155778,
        "latitude": 32.46083,
        "longitude": -84.98778
      },
      {
        "numJobs": 185,
        "name": "Eagan, MN",
        "stateAbbreviation": "MN",
        "stateName": "Minnesota",
        "id": 1162274,
        "latitude": 44.80417,
        "longitude": -93.16667
      },
      {
        "numJobs": 185,
        "name": "Dahlgren, VA",
        "stateAbbreviation": "VA",
        "stateName": "Virginia",
        "id": 1129678,
        "latitude": 38.33111,
        "longitude": -77.05139
      },
      {
        "numJobs": 184,
        "name": "Draper, UT",
        "stateAbbreviation": "UT",
        "stateName": "Utah",
        "id": 1128274,
        "latitude": 40.52472,
        "longitude": -111.86306
      },
      {
        "numJobs": 184,
        "name": "Winston-Salem, NC",
        "stateAbbreviation": "NC",
        "stateName": "North Carolina",
        "id": 1139151,
        "latitude": 36.09766,
        "longitude": -80.24728
      },
      {
        "numJobs": 183,
        "name": "Minnetonka, MN",
        "stateAbbreviation": "MN",
        "stateName": "Minnesota",
        "id": 1142552,
        "latitude": 44.91333,
        "longitude": -93.50306
      },
      {
        "numJobs": 181,
        "name": "Marlborough, MA",
        "stateAbbreviation": "MA",
        "stateName": "Massachusetts",
        "id": 1154610,
        "latitude": 42.34583,
        "longitude": -71.55278
      },
      {
        "numJobs": 181,
        "name": "West Chester, PA",
        "stateAbbreviation": "PA",
        "stateName": "Pennsylvania",
        "id": 1152733,
        "latitude": 39.96056,
        "longitude": -75.60583
      },
      {
        "numJobs": 180,
        "name": "Little Rock, AR",
        "stateAbbreviation": "AR",
        "stateName": "Arkansas",
        "id": 1143190,
        "latitude": 34.74639,
        "longitude": -92.28944
      },
      {
        "numJobs": 179,
        "name": "Research Triangle Park, NC",
        "stateAbbreviation": "NC",
        "stateName": "North Carolina",
        "id": 1161290,
        "latitude": 35.90657,
        "longitude": -78.8633
      },
      {
        "numJobs": 179,
        "name": "Merrimack, NH",
        "stateAbbreviation": "NH",
        "stateName": "New Hampshire",
        "id": 1147908,
        "latitude": 42.865,
        "longitude": -71.49389
      },
      {
        "numJobs": 179,
        "name": "Fort Collins, CO",
        "stateAbbreviation": "CO",
        "stateName": "Colorado",
        "id": 1148233,
        "latitude": 40.58528,
        "longitude": -105.08389
      },
      {
        "numJobs": 177,
        "name": "Franklin, TN",
        "stateAbbreviation": "TN",
        "stateName": "Tennessee",
        "id": 1144518,
        "latitude": 35.925,
        "longitude": -86.86889
      },
      {
        "numJobs": 176,
        "name": "Santa Ana, CA",
        "stateAbbreviation": "CA",
        "stateName": "California",
        "id": 1146870,
        "latitude": 33.74556,
        "longitude": -117.86694
      },
      {
        "numJobs": 173,
        "name": "Providence, RI",
        "stateAbbreviation": "RI",
        "stateName": "Rhode Island",
        "id": 1151289,
        "latitude": 41.82389,
        "longitude": -71.41333
      },
      {
        "numJobs": 172,
        "name": "Brentwood, TN",
        "stateAbbreviation": "TN",
        "stateName": "Tennessee",
        "id": 1144496,
        "latitude": 36.000107,
        "longitude": -86.78849
      },
      {
        "numJobs": 171,
        "name": "Allen, TX",
        "stateAbbreviation": "TX",
        "stateName": "Texas",
        "id": 1139946,
        "latitude": 33.10306,
        "longitude": -96.67028
      },
      {
        "numJobs": 171,
        "name": "Arlington, TX",
        "stateAbbreviation": "TX",
        "stateName": "Texas",
        "id": 1139951,
        "latitude": 32.73556,
        "longitude": -97.10778
      },
      {
        "numJobs": 167,
        "name": "South San Francisco, CA",
        "stateAbbreviation": "CA",
        "stateName": "California",
        "id": 1147412,
        "latitude": 37.65472,
        "longitude": -122.40667
      },
      {
        "numJobs": 166,
        "name": "Woodlawn, MD",
        "stateAbbreviation": "MD",
        "stateName": "Maryland",
        "id": 1165812,
        "latitude": 39.32278,
        "longitude": -76.72833
      },
      {
        "numJobs": 165,
        "name": "Mobile, AL",
        "stateAbbreviation": "AL",
        "stateName": "Alabama",
        "id": 1127676,
        "latitude": 30.69417,
        "longitude": -88.04306
      },
      {
        "numJobs": 165,
        "name": "Newport News, VA",
        "stateAbbreviation": "VA",
        "stateName": "Virginia",
        "id": 1130305,
        "latitude": 36.97861,
        "longitude": -76.42833
      },
      {
        "numJobs": 165,
        "name": "Woodland Hills, CA",
        "stateAbbreviation": "CA",
        "stateName": "California",
        "id": 1146915,
        "latitude": 34.16833,
        "longitude": -118.605
      },
      {
        "numJobs": 164,
        "name": "Lincoln, NE",
        "stateAbbreviation": "NE",
        "stateName": "Nebraska",
        "id": 1136371,
        "latitude": 40.8,
        "longitude": -96.66667
      },
      {
        "numJobs": 163,
        "name": "Pittsfield, MA",
        "stateAbbreviation": "MA",
        "stateName": "Massachusetts",
        "id": 1154753,
        "latitude": 42.45,
        "longitude": -73.24583
      },
      {
        "numJobs": 162,
        "name": "Hoffman Estates, IL",
        "stateAbbreviation": "IL",
        "stateName": "Illinois",
        "id": 1128872,
        "latitude": 42.086994,
        "longitude": -88.11034
      },
      {
        "numJobs": 161,
        "name": "New Bedford, MA",
        "stateAbbreviation": "MA",
        "stateName": "Massachusetts",
        "id": 1154781,
        "latitude": 41.63611,
        "longitude": -70.93472
      },
      {
        "numJobs": 160,
        "name": "Piscataway, NJ",
        "stateAbbreviation": "NJ",
        "stateName": "New Jersey",
        "id": 1126940,
        "latitude": 40.49917,
        "longitude": -74.39944
      },
      {
        "numJobs": 159,
        "name": "Akron, OH",
        "stateAbbreviation": "OH",
        "stateName": "Ohio",
        "id": 1145529,
        "latitude": 41.08139,
        "longitude": -81.51917
      },
      {
        "numJobs": 158,
        "name": "Chesterfield, MO",
        "stateAbbreviation": "MO",
        "stateName": "Missouri",
        "id": 1131207,
        "latitude": 38.66306,
        "longitude": -90.57694
      },
      {
        "numJobs": 157,
        "name": "Strongsville, OH",
        "stateAbbreviation": "OH",
        "stateName": "Ohio",
        "id": 1145819,
        "latitude": 41.31444,
        "longitude": -81.83583
      },
      {
        "numJobs": 157,
        "name": "Chelmsford, MA",
        "stateAbbreviation": "MA",
        "stateName": "Massachusetts",
        "id": 1154550,
        "latitude": 42.59972,
        "longitude": -71.36778
      },
      {
        "numJobs": 156,
        "name": "Frisco, TX",
        "stateAbbreviation": "TX",
        "stateName": "Texas",
        "id": 1139994,
        "latitude": 33.15056,
        "longitude": -96.82333
      },
      {
        "numJobs": 155,
        "name": "Carmel, IN",
        "stateAbbreviation": "IN",
        "stateName": "Indiana",
        "id": 1144991,
        "latitude": 39.97833,
        "longitude": -86.11806
      },
      {
        "numJobs": 155,
        "name": "Clearwater, FL",
        "stateAbbreviation": "FL",
        "stateName": "Florida",
        "id": 1154388,
        "latitude": 27.96556,
        "longitude": -82.80028
      },
      {
        "numJobs": 155,
        "name": "Thousand Oaks, CA",
        "stateAbbreviation": "CA",
        "stateName": "California",
        "id": 1146988,
        "latitude": 34.17056,
        "longitude": -118.83667
      },
      {
        "numJobs": 154,
        "name": "Northbrook, IL",
        "stateAbbreviation": "IL",
        "stateName": "Illinois",
        "id": 1128934,
        "latitude": 42.1275,
        "longitude": -87.82889
      },
      {
        "numJobs": 154,
        "name": "Redondo Beach, CA",
        "stateAbbreviation": "CA",
        "stateName": "California",
        "id": 1146859,
        "latitude": 33.84917,
        "longitude": -118.3875
      },
      {
        "numJobs": 154,
        "name": "Wilmington, NC",
        "stateAbbreviation": "NC",
        "stateName": "North Carolina",
        "id": 1139117,
        "latitude": 34.22556,
        "longitude": -77.945
      },
      {
        "numJobs": 153,
        "name": "Champaign, IL",
        "stateAbbreviation": "IL",
        "stateName": "Illinois",
        "id": 1128722,
        "latitude": 40.11639,
        "longitude": -88.24333
      },
      {
        "numJobs": 153,
        "name": "Fayetteville, NC",
        "stateAbbreviation": "NC",
        "stateName": "North Carolina",
        "id": 1138720,
        "latitude": 35.0525,
        "longitude": -78.87861
      },
      {
        "numJobs": 153,
        "name": "Springfield, MO",
        "stateAbbreviation": "MO",
        "stateName": "Missouri",
        "id": 1131348,
        "latitude": 37.21528,
        "longitude": -93.29806
      },
      {
        "numJobs": 152,
        "name": "Lexington-Fayette, KY",
        "stateAbbreviation": "KY",
        "stateName": "Kentucky",
        "id": 3749474,
        "latitude": 38.04972,
        "longitude": -84.45861
      },
      {
        "numJobs": 151,
        "name": "Bozeman, MT",
        "stateAbbreviation": "MT",
        "stateName": "Montana",
        "id": 1135421,
        "latitude": 45.67972,
        "longitude": -111.03778
      },
      {
        "numJobs": 151,
        "name": "Farmington, MI",
        "stateAbbreviation": "MI",
        "stateName": "Michigan",
        "id": 1134652,
        "latitude": 42.46444,
        "longitude": -83.37639
      },
      {
        "numJobs": 151,
        "name": "Melville, NY",
        "stateAbbreviation": "NY",
        "stateName": "New York",
        "id": 1132326,
        "latitude": 40.79333,
        "longitude": -73.41556
      },
      {
        "numJobs": 150,
        "name": "East Hanover, NJ",
        "stateAbbreviation": "NJ",
        "stateName": "New Jersey",
        "id": 1126743,
        "latitude": 40.82,
        "longitude": -74.36528
      },
      {
        "numJobs": 149,
        "name": "Montgomery, AL",
        "stateAbbreviation": "AL",
        "stateName": "Alabama",
        "id": 1127704,
        "latitude": 32.36667,
        "longitude": -86.3
      },
      {
        "numJobs": 149,
        "name": "Laurel, MD",
        "stateAbbreviation": "MD",
        "stateName": "Maryland",
        "id": 1153871,
        "latitude": 39.09917,
        "longitude": -76.84861
      },
      {
        "numJobs": 148,
        "name": "Tallahassee, FL",
        "stateAbbreviation": "FL",
        "stateName": "Florida",
        "id": 1154378,
        "latitude": 30.43806,
        "longitude": -84.28083
      },
      {
        "numJobs": 148,
        "name": "Na Ah Tee, AZ",
        "stateAbbreviation": "AZ",
        "stateName": "Arizona",
        "id": 3741308,
        "latitude": 35.49028,
        "longitude": -110.14389
      },
      {
        "numJobs": 147,
        "name": "Augusta, GA",
        "stateAbbreviation": "GA",
        "stateName": "Georgia",
        "id": 1155718,
        "latitude": 33.47083,
        "longitude": -81.975
      },
      {
        "numJobs": 147,
        "name": "Fort George G Meade, MD",
        "stateAbbreviation": "MD",
        "stateName": "Maryland",
        "id": 1153566,
        "latitude": 39.10968,
        "longitude": -76.73694
      },
      {
        "numJobs": 147,
        "name": "San Carlos, CA",
        "stateAbbreviation": "CA",
        "stateName": "California",
        "id": 1147400,
        "latitude": 37.50722,
        "longitude": -122.25944
      },
      {
        "numJobs": 147,
        "name": "Campbell, CA",
        "stateAbbreviation": "CA",
        "stateName": "California",
        "id": 1147420,
        "latitude": 37.28722,
        "longitude": -121.94889
      },
      {
        "numJobs": 146,
        "name": "Marietta, GA",
        "stateAbbreviation": "GA",
        "stateName": "Georgia",
        "id": 1155654,
        "latitude": 33.9525,
        "longitude": -84.55
      },
      {
        "numJobs": 146,
        "name": "Lanham, MD",
        "stateAbbreviation": "MD",
        "stateName": "Maryland",
        "id": 1153870,
        "latitude": 38.96694,
        "longitude": -76.86222
      },
      {
        "numJobs": 146,
        "name": "Berkeley, CA",
        "stateAbbreviation": "CA",
        "stateName": "California",
        "id": 1147330,
        "latitude": 37.87167,
        "longitude": -122.27167
      },
      {
        "numJobs": 145,
        "name": "Wayne, PA",
        "stateAbbreviation": "PA",
        "stateName": "Pennsylvania",
        "id": 1152732,
        "latitude": 40.04389,
        "longitude": -75.38806
      },
      {
        "numJobs": 143,
        "name": "Fresno, CA",
        "stateAbbreviation": "CA",
        "stateName": "California",
        "id": 1146705,
        "latitude": 36.74778,
        "longitude": -119.77139
      },
      {
        "numJobs": 143,
        "name": "Redlands, CA",
        "stateAbbreviation": "CA",
        "stateName": "California",
        "id": 1147135,
        "latitude": 34.05556,
        "longitude": -117.18167
      },
      {
        "numJobs": 142,
        "name": "Roseland, NJ",
        "stateAbbreviation": "NJ",
        "stateName": "New Jersey",
        "id": 1126969,
        "latitude": 40.82056,
        "longitude": -74.29417
      },
      {
        "numJobs": 141,
        "name": "Orange, CA",
        "stateAbbreviation": "CA",
        "stateName": "California",
        "id": 1146843,
        "latitude": 33.78778,
        "longitude": -117.85222
      },
      {
        "numJobs": 141,
        "name": "Westford, MA",
        "stateAbbreviation": "MA",
        "stateName": "Massachusetts",
        "id": 1154720,
        "latitude": 42.57917,
        "longitude": -71.43833
      },
      {
        "numJobs": 140,
        "name": "Chesapeake, VA",
        "stateAbbreviation": "VA",
        "stateName": "Virginia",
        "id": 1130279,
        "latitude": 36.81889,
        "longitude": -76.27528
      },
      {
        "numJobs": 140,
        "name": "Westborough, MA",
        "stateAbbreviation": "MA",
        "stateName": "Massachusetts",
        "id": 1154956,
        "latitude": 42.26944,
        "longitude": -71.61667
      },
      {
        "numJobs": 138,
        "name": "Sierra Vista, AZ",
        "stateAbbreviation": "AZ",
        "stateName": "Arizona",
        "id": 1133980,
        "latitude": 31.55444,
        "longitude": -110.30306
      },
      {
        "numJobs": 137,
        "name": "Grapevine, TX",
        "stateAbbreviation": "TX",
        "stateName": "Texas",
        "id": 1139999,
        "latitude": 32.93417,
        "longitude": -97.07778
      },
      {
        "numJobs": 137,
        "name": "Southlake, TX",
        "stateAbbreviation": "TX",
        "stateName": "Texas",
        "id": 1140065,
        "latitude": 32.94111,
        "longitude": -97.13389
      },
      {
        "numJobs": 137,
        "name": "Sioux Falls, SD",
        "stateAbbreviation": "SD",
        "stateName": "South Dakota",
        "id": 1141041,
        "latitude": 43.55,
        "longitude": -96.7
      },
      {
        "numJobs": 136,
        "name": "American Fork, UT",
        "stateAbbreviation": "UT",
        "stateName": "Utah",
        "id": 1128232,
        "latitude": 40.37694,
        "longitude": -111.795
      },
      {
        "numJobs": 136,
        "name": "Fort Bragg, NC",
        "stateAbbreviation": "NC",
        "stateName": "North Carolina",
        "id": 1138721,
        "latitude": 35.13975,
        "longitude": -78.99903
      },
      {
        "numJobs": 135,
        "name": "Topeka, KS",
        "stateAbbreviation": "KS",
        "stateName": "Kansas",
        "id": 1151173,
        "latitude": 39.04833,
        "longitude": -95.67778
      },
      {
        "numJobs": 135,
        "name": "Portsmouth, NH",
        "stateAbbreviation": "NH",
        "stateName": "New Hampshire",
        "id": 1147753,
        "latitude": 43.07167,
        "longitude": -70.76306
      },
      {
        "numJobs": 135,
        "name": "Westminster, CO",
        "stateAbbreviation": "CO",
        "stateName": "Colorado",
        "id": 1148207,
        "latitude": 39.83667,
        "longitude": -105.03667
      },
      {
        "numJobs": 134,
        "name": "Newark, DE",
        "stateAbbreviation": "DE",
        "stateName": "Delaware",
        "id": 1156369,
        "latitude": 39.68361,
        "longitude": -75.75
      },
      {
        "numJobs": 134,
        "name": "Woburn, MA",
        "stateAbbreviation": "MA",
        "stateName": "Massachusetts",
        "id": 1154729,
        "latitude": 42.47917,
        "longitude": -71.15278
      },
      {
        "numJobs": 134,
        "name": "Temple Terrace, FL",
        "stateAbbreviation": "FL",
        "stateName": "Florida",
        "id": 1166452,
        "latitude": 28.035,
        "longitude": -82.38944
      },
      {
        "numJobs": 133,
        "name": "Valencia, CA",
        "stateAbbreviation": "CA",
        "stateName": "California",
        "id": 1146899,
        "latitude": 34.44361,
        "longitude": -118.60861
      },
      {
        "numJobs": 132,
        "name": "Downers Grove, IL",
        "stateAbbreviation": "IL",
        "stateName": "Illinois",
        "id": 1128825,
        "latitude": 41.80889,
        "longitude": -88.01111
      },
      {
        "numJobs": 132,
        "name": "Patuxent River, MD",
        "stateAbbreviation": "MD",
        "stateName": "Maryland",
        "id": 1153746,
        "latitude": 38.28111,
        "longitude": -76.420425
      },
      {
        "numJobs": 131,
        "name": "Mechanicsburg, PA",
        "stateAbbreviation": "PA",
        "stateName": "Pennsylvania",
        "id": 1152196,
        "latitude": 40.21506,
        "longitude": -77.00858
      },
      {
        "numJobs": 129,
        "name": "Greenwich, CT",
        "stateAbbreviation": "CT",
        "stateName": "Connecticut",
        "id": 1148338,
        "latitude": 41.02639,
        "longitude": -73.62889
      },
      {
        "numJobs": 127,
        "name": "Lexington Park, MD",
        "stateAbbreviation": "MD",
        "stateName": "Maryland",
        "id": 1165827,
        "latitude": 38.26667,
        "longitude": -76.45417
      },
      {
        "numJobs": 127,
        "name": "Walnut Creek, CA",
        "stateAbbreviation": "CA",
        "stateName": "California",
        "id": 1147417,
        "latitude": 37.90639,
        "longitude": -122.06389
      },
      {
        "numJobs": 127,
        "name": "Kansas City, KS",
        "stateAbbreviation": "KS",
        "stateName": "Kansas",
        "id": 4990210,
        "latitude": 39.11417,
        "longitude": -94.62722
      },
      {
        "numJobs": 126,
        "name": "Lewisville, TX",
        "stateAbbreviation": "TX",
        "stateName": "Texas",
        "id": 1140022,
        "latitude": 33.047523,
        "longitude": -96.99417
      },
      {
        "numJobs": 125,
        "name": "Offutt AFB, NE",
        "stateAbbreviation": "NE",
        "stateName": "Nebraska",
        "id": 1160341,
        "latitude": 0,
        "longitude": 0
      },
      {
        "numJobs": 124,
        "name": "Worcester, MA",
        "stateAbbreviation": "MA",
        "stateName": "Massachusetts",
        "id": 1154962,
        "latitude": 42.2625,
        "longitude": -71.80278
      },
      {
        "numJobs": 124,
        "name": "Norwalk, CT",
        "stateAbbreviation": "CT",
        "stateName": "Connecticut",
        "id": 1148344,
        "latitude": 41.1175,
        "longitude": -73.40833
      },
      {
        "numJobs": 123,
        "name": "Brea, CA",
        "stateAbbreviation": "CA",
        "stateName": "California",
        "id": 1146754,
        "latitude": 33.91667,
        "longitude": -117.89917
      },
      {
        "numJobs": 122,
        "name": "Wien, WI",
        "stateAbbreviation": "WI",
        "stateName": "Wisconsin",
        "id": 3740330,
        "latitude": 44.90194,
        "longitude": -90.02444
      },
      {
        "numJobs": 122,
        "name": "Windsor, CT",
        "stateAbbreviation": "CT",
        "stateName": "Connecticut",
        "id": 1148450,
        "latitude": 41.8525,
        "longitude": -72.64417
      },
      {
        "numJobs": 122,
        "name": "Green Bay, WI",
        "stateAbbreviation": "WI",
        "stateName": "Wisconsin",
        "id": 1133406,
        "latitude": 44.51917,
        "longitude": -88.01972
      },
      {
        "numJobs": 122,
        "name": "Brookfield, WI",
        "stateAbbreviation": "WI",
        "stateName": "Wisconsin",
        "id": 1133554,
        "latitude": 43.06056,
        "longitude": -88.10639
      },
      {
        "numJobs": 121,
        "name": "Brooklyn Park, MN",
        "stateAbbreviation": "MN",
        "stateName": "Minnesota",
        "id": 1162260,
        "latitude": 45.09417,
        "longitude": -93.35611
      },
      {
        "numJobs": 121,
        "name": "Fargo, ND",
        "stateAbbreviation": "ND",
        "stateName": "North Dakota",
        "id": 1156255,
        "latitude": 46.87722,
        "longitude": -96.78944
      },
      {
        "numJobs": 121,
        "name": "Portland, ME",
        "stateAbbreviation": "ME",
        "stateName": "Maine",
        "id": 1135898,
        "latitude": 43.66139,
        "longitude": -70.25583
      },
      {
        "numJobs": 120,
        "name": "El Paso, TX",
        "stateAbbreviation": "TX",
        "stateName": "Texas",
        "id": 1140105,
        "latitude": 31.75861,
        "longitude": -106.48639
      },
      {
        "numJobs": 120,
        "name": "Longmont, CO",
        "stateAbbreviation": "CO",
        "stateName": "Colorado",
        "id": 1148118,
        "latitude": 40.16722,
        "longitude": -105.10139
      },
      {
        "numJobs": 119,
        "name": "Florham Park, NJ",
        "stateAbbreviation": "NJ",
        "stateName": "New Jersey",
        "id": 1126766,
        "latitude": 40.78778,
        "longitude": -74.38861
      },
      {
        "numJobs": 119,
        "name": "Glen Allen, VA",
        "stateAbbreviation": "VA",
        "stateName": "Virginia",
        "id": 1130160,
        "latitude": 37.66583,
        "longitude": -77.50667
      },
      {
        "numJobs": 119,
        "name": "Roswell, GA",
        "stateAbbreviation": "GA",
        "stateName": "Georgia",
        "id": 1155681,
        "latitude": 34.02306,
        "longitude": -84.36167
      },
      {
        "numJobs": 119,
        "name": "Savannah, GA",
        "stateAbbreviation": "GA",
        "stateName": "Georgia",
        "id": 1155906,
        "latitude": 32.08333,
        "longitude": -81.1
      },
      {
        "numJobs": 119,
        "name": "Crystal City, VA",
        "stateAbbreviation": "VA",
        "stateName": "Virginia",
        "id": 4990373,
        "latitude": 38.851402,
        "longitude": -77.05069
      },
      {
        "numJobs": 118,
        "name": "Peoria, IL",
        "stateAbbreviation": "IL",
        "stateName": "Illinois",
        "id": 1129349,
        "latitude": 40.69361,
        "longitude": -89.58889
      },
      {
        "numJobs": 118,
        "name": "Hampton, VA",
        "stateAbbreviation": "VA",
        "stateName": "Virginia",
        "id": 1130294,
        "latitude": 37.02972,
        "longitude": -76.34556
      },
      {
        "numJobs": 117,
        "name": "Renton, WA",
        "stateAbbreviation": "WA",
        "stateName": "Washington",
        "id": 1150501,
        "latitude": 47.48306,
        "longitude": -122.21583
      },
      {
        "numJobs": 117,
        "name": "Schriever AFB, CO",
        "stateAbbreviation": "CO",
        "stateName": "Colorado",
        "id": 1164276,
        "latitude": 0,
        "longitude": 0
      },
      {
        "numJobs": 115,
        "name": "Oak Brook, IL",
        "stateAbbreviation": "IL",
        "stateName": "Illinois",
        "id": 1128935,
        "latitude": 41.83278,
        "longitude": -87.92889
      },
      {
        "numJobs": 114,
        "name": "Stafford, VA",
        "stateAbbreviation": "VA",
        "stateName": "Virginia",
        "id": 1130410,
        "latitude": 38.42194,
        "longitude": -77.40861
      },
      {
        "numJobs": 114,
        "name": "Coppell, TX",
        "stateAbbreviation": "TX",
        "stateName": "Texas",
        "id": 1139974,
        "latitude": 32.95444,
        "longitude": -97.01472
      },
      {
        "numJobs": 114,
        "name": "Newtown Square, PA",
        "stateAbbreviation": "PA",
        "stateName": "Pennsylvania",
        "id": 1152655,
        "latitude": 39.98667,
        "longitude": -75.40139
      },
      {
        "numJobs": 113,
        "name": "Johns Creek, GA",
        "stateAbbreviation": "GA",
        "stateName": "Georgia",
        "id": 3824751,
        "latitude": 34.028927,
        "longitude": -84.19858
      },
      {
        "numJobs": 113,
        "name": "Germantown, MD",
        "stateAbbreviation": "MD",
        "stateName": "Maryland",
        "id": 1153854,
        "latitude": 39.17306,
        "longitude": -77.27194
      },
      {
        "numJobs": 113,
        "name": "Tacoma, WA",
        "stateAbbreviation": "WA",
        "stateName": "Washington",
        "id": 1150517,
        "latitude": 47.25306,
        "longitude": -122.44306
      },
      {
        "numJobs": 113,
        "name": "San Rafael, CA",
        "stateAbbreviation": "CA",
        "stateName": "California",
        "id": 1147409,
        "latitude": 37.97361,
        "longitude": -122.53
      },
      {
        "numJobs": 112,
        "name": "Warner Robins, GA",
        "stateAbbreviation": "GA",
        "stateName": "Georgia",
        "id": 1155961,
        "latitude": 32.62083,
        "longitude": -83.6
      },
      {
        "numJobs": 111,
        "name": "Vernon Hills, IL",
        "stateAbbreviation": "IL",
        "stateName": "Illinois",
        "id": 1128989,
        "latitude": 42.21944,
        "longitude": -87.97944
      },
      {
        "numJobs": 111,
        "name": "Olathe, KS",
        "stateAbbreviation": "KS",
        "stateName": "Kansas",
        "id": 1151046,
        "latitude": 38.88139,
        "longitude": -94.81889
      },
      {
        "numJobs": 111,
        "name": "Lancaster, PA",
        "stateAbbreviation": "PA",
        "stateName": "Pennsylvania",
        "id": 1152360,
        "latitude": 40.03778,
        "longitude": -76.30583
      },
      {
        "numJobs": 111,
        "name": "West Des Moines, IA",
        "stateAbbreviation": "IA",
        "stateName": "Iowa",
        "id": 1149284,
        "latitude": 41.57722,
        "longitude": -93.71111
      },
      {
        "numJobs": 110,
        "name": "Bloomington, IN",
        "stateAbbreviation": "IN",
        "stateName": "Indiana",
        "id": 1144789,
        "latitude": 39.16528,
        "longitude": -86.52639
      },
      {
        "numJobs": 110,
        "name": "Fort Myers, FL",
        "stateAbbreviation": "FL",
        "stateName": "Florida",
        "id": 1154016,
        "latitude": 26.64028,
        "longitude": -81.8725
      },
      {
        "numJobs": 110,
        "name": "Frederick, MD",
        "stateAbbreviation": "MD",
        "stateName": "Maryland",
        "id": 1153851,
        "latitude": 39.41417,
        "longitude": -77.41083
      },
      {
        "numJobs": 110,
        "name": "Hunt Valley, MD",
        "stateAbbreviation": "MD",
        "stateName": "Maryland",
        "id": 1153589,
        "latitude": 39.49972,
        "longitude": -76.64139
      },
      {
        "numJobs": 110,
        "name": "Wilmington, MA",
        "stateAbbreviation": "MA",
        "stateName": "Massachusetts",
        "id": 1154726,
        "latitude": 42.54639,
        "longitude": -71.17417
      },
      {
        "numJobs": 110,
        "name": "Manchester, NH",
        "stateAbbreviation": "NH",
        "stateName": "New Hampshire",
        "id": 1147907,
        "latitude": 42.99556,
        "longitude": -71.45528
      },
      {
        "numJobs": 109,
        "name": "Middletown, NJ",
        "stateAbbreviation": "NJ",
        "stateName": "New Jersey",
        "id": 1126872,
        "latitude": 40.397354,
        "longitude": -74.0915
      },
      {
        "numJobs": 109,
        "name": "University Park, PA",
        "stateAbbreviation": "PA",
        "stateName": "Pennsylvania",
        "id": 1165673,
        "latitude": 40.80194,
        "longitude": -77.85667
      },
      {
        "numJobs": 108,
        "name": "Clarksburg, WV",
        "stateAbbreviation": "WV",
        "stateName": "West Virginia",
        "id": 1143841,
        "latitude": 39.28056,
        "longitude": -80.34472
      },
      {
        "numJobs": 108,
        "name": "Fort Wayne, IN",
        "stateAbbreviation": "IN",
        "stateName": "Indiana",
        "id": 1144939,
        "latitude": 41.13056,
        "longitude": -85.12889
      },
      {
        "numJobs": 108,
        "name": "North Charleston, SC",
        "stateAbbreviation": "SC",
        "stateName": "South Carolina",
        "id": 1155093,
        "latitude": 32.85444,
        "longitude": -79.975
      },
      {
        "numJobs": 108,
        "name": "College Park, MD",
        "stateAbbreviation": "MD",
        "stateName": "Maryland",
        "id": 1153841,
        "latitude": 38.98056,
        "longitude": -76.93722
      },
      {
        "numJobs": 108,
        "name": "Naples, FL",
        "stateAbbreviation": "FL",
        "stateName": "Florida",
        "id": 1154189,
        "latitude": 26.14167,
        "longitude": -81.795
      },
      {
        "numJobs": 107,
        "name": "Sterling Heights, MI",
        "stateAbbreviation": "MI",
        "stateName": "Michigan",
        "id": 1159809,
        "latitude": 42.58028,
        "longitude": -83.03028
      },
      {
        "numJobs": 107,
        "name": "Anchorage, AK",
        "stateAbbreviation": "AK",
        "stateName": "Alaska",
        "id": 1134201,
        "latitude": 61.21806,
        "longitude": -149.90028
      },
      {
        "numJobs": 107,
        "name": "Bristol, CT",
        "stateAbbreviation": "CT",
        "stateName": "Connecticut",
        "id": 1148368,
        "latitude": 41.67167,
        "longitude": -72.94972
      },
      {
        "numJobs": 106,
        "name": "Itasca, IL",
        "stateAbbreviation": "IL",
        "stateName": "Illinois",
        "id": 1128879,
        "latitude": 41.975,
        "longitude": -88.00722
      },
      {
        "numJobs": 106,
        "name": "Quincy, MA",
        "stateAbbreviation": "MA",
        "stateName": "Massachusetts",
        "id": 1154667,
        "latitude": 42.25278,
        "longitude": -71.00278
      },
      {
        "numJobs": 106,
        "name": "Plymouth, MI",
        "stateAbbreviation": "MI",
        "stateName": "Michigan",
        "id": 1134713,
        "latitude": 42.37139,
        "longitude": -83.47028
      },
      {
        "numJobs": 106,
        "name": "Mesa, AZ",
        "stateAbbreviation": "AZ",
        "stateName": "Arizona",
        "id": 1133897,
        "latitude": 33.42222,
        "longitude": -111.82194
      },
      {
        "numJobs": 106,
        "name": "Roseville, CA",
        "stateAbbreviation": "CA",
        "stateName": "California",
        "id": 1147226,
        "latitude": 38.75222,
        "longitude": -121.28694
      },
      {
        "numJobs": 105,
        "name": "Newport Beach, CA",
        "stateAbbreviation": "CA",
        "stateName": "California",
        "id": 1146837,
        "latitude": 33.61889,
        "longitude": -117.92806
      },
      {
        "numJobs": 105,
        "name": "Lake Mary, FL",
        "stateAbbreviation": "FL",
        "stateName": "Florida",
        "id": 1154234,
        "latitude": 28.75861,
        "longitude": -81.31806
      },
      {
        "numJobs": 104,
        "name": "Aliso Viejo, CA",
        "stateAbbreviation": "CA",
        "stateName": "California",
        "id": 1146741,
        "latitude": 33.60833,
        "longitude": -117.74444
      },
      {
        "numJobs": 104,
        "name": "Lake Forest, CA",
        "stateAbbreviation": "CA",
        "stateName": "California",
        "id": 1146811,
        "latitude": 33.64694,
        "longitude": -117.68833
      },
      {
        "numJobs": 104,
        "name": "Mason, OH",
        "stateAbbreviation": "OH",
        "stateName": "Ohio",
        "id": 1145728,
        "latitude": 39.36,
        "longitude": -84.31
      },
      {
        "numJobs": 104,
        "name": "Scott AFB, IL",
        "stateAbbreviation": "IL",
        "stateName": "Illinois",
        "id": 1158229,
        "latitude": 0,
        "longitude": 0
      },
      {
        "numJobs": 104,
        "name": "Tyson&#039;s Corner, Fairfax, VA",
        "stateAbbreviation": "VA",
        "stateName": "Virginia",
        "id": 4990385,
        "latitude": 38.9186,
        "longitude": -77.2297
      },
      {
        "numJobs": 103,
        "name": "Addison, TX",
        "stateAbbreviation": "TX",
        "stateName": "Texas",
        "id": 1139944,
        "latitude": 32.96167,
        "longitude": -96.82889
      },
      {
        "numJobs": 103,
        "name": "Livermore, CA",
        "stateAbbreviation": "CA",
        "stateName": "California",
        "id": 1147367,
        "latitude": 37.68194,
        "longitude": -121.76694
      },
      {
        "numJobs": 102,
        "name": "Roanoke, VA",
        "stateAbbreviation": "VA",
        "stateName": "Virginia",
        "id": 1130242,
        "latitude": 37.27083,
        "longitude": -79.94167
      },
      {
        "numJobs": 102,
        "name": "Newark, CA",
        "stateAbbreviation": "CA",
        "stateName": "California",
        "id": 1147377,
        "latitude": 37.52972,
        "longitude": -122.03917
      },
      {
        "numJobs": 101,
        "name": "Athens, GA",
        "stateAbbreviation": "GA",
        "stateName": "Georgia",
        "id": 1155564,
        "latitude": 33.96083,
        "longitude": -83.37806
      },
      {
        "numJobs": 100,
        "name": "Round Lake, IL",
        "stateAbbreviation": "IL",
        "stateName": "Illinois",
        "id": 1128965,
        "latitude": 42.35333,
        "longitude": -88.09333
      },
      {
        "numJobs": 100,
        "name": "Greenville, NC",
        "stateAbbreviation": "NC",
        "stateName": "North Carolina",
        "id": 1138785,
        "latitude": 35.6125,
        "longitude": -77.36667
      },
      {
        "numJobs": 100,
        "name": "Newton, MA",
        "stateAbbreviation": "MA",
        "stateName": "Massachusetts",
        "id": 1154636,
        "latitude": 42.33694,
        "longitude": -71.20972
      },
      {
        "numJobs": 100,
        "name": "Smithfield, RI",
        "stateAbbreviation": "RI",
        "stateName": "Rhode Island",
        "id": 1151298,
        "latitude": 41.92194,
        "longitude": -71.55
      },