{
  "success": true,
  "status": "OK",
  "jsessionid": "BBADE601291796B1AB5F8664CCE88AEC",
  "response": {
    "attributionURL": "http://www.glassdoor.com/Job/jobs.htm",
    "countReturned": 55,
    "states": {
      "South Carolina": {
        "numJobs": 3334,
        "name": "South Carolina",
        "id": 3411,
        "score": 0.8397077097590724,
        "latitude": 33.985115,
        "longitude": -80.96936
      },
      "Rhode Island": {
        "numJobs": 648,
        "name": "Rhode Island",
        "id": 3156,
        "score": 0.6769287897906724,
        "latitude": 41.675617,
        "longitude": -71.503815
      },
      "New Mexico": {
        "numJobs": 2590,
        "name": "New Mexico",
        "id": 1181,
        "score": 0.846289322006758,
        "latitude": 34.695763,
        "longitude": -106.22367
      },
      "Florida": {
        "numJobs": 8507,
        "name": "Florida",
        "id": 3318,
        "score": 0.9164225493474176,
        "latitude": 28.63532,
        "longitude": -82.39836
      },
      "Alabama": {
        "numJobs": 2211,
        "name": "Alabama",
        "id": 105,
        "score": 0.7815702849567928,
        "latitude": 33.074646,
        "longitude": -86.72501
      },
      "California": {
        "numJobs": 19708,
        "name": "California",
        "id": 2280,
        "score": 1,
        "latitude": 37.016674,
        "longitude": -120.15913
      },
      "New Hampshire": {
        "numJobs": 895,
        "name": "New Hampshire",
        "id": 2403,
        "score": 0.701783328516129,
        "latitude": 43.409595,
        "longitude": -71.541885
      },
      "Puerto Rico": {
        "numJobs": 86,
        "name": "Puerto Rico",
        "id": 1618,
        "score": 0.5500749010645686,
        "latitude": 18.250437,
        "longitude": -66.402916
      },
      "Remote": {
        "numJobs": 85,
        "name": "Remote",
        "id": 11047,
        "score": 0.576218812035722,
        "latitude": "",
        "longitude": ""
      },
      "Massachusetts": {
        "numJobs": 5252,
        "name": "Massachusetts",
        "id": 3399,
        "score": 0.8729148588784666,
        "latitude": 42.204845,
        "longitude": -71.496826
      },
      "Tennessee": {
        "numJobs": 4480,
        "name": "Tennessee",
        "id": 1968,
        "score": 0.8595059233168112,
        "latitude": 35.869774,
        "longitude": -85.69873
      },
      "Maryland": {
        "numJobs": 4413,
        "name": "Maryland",
        "id": 3201,
        "score": 0.8591449036887526,
        "latitude": 39.13058,
        "longitude": -76.71935
      },
      "Louisiana": {
        "numJobs": 1528,
        "name": "Louisiana",
        "id": 2792,
        "score": 0.7419297374592309,
        "latitude": 31.05971,
        "longitude": -91.839554
      },
      "Ohio": {
        "numJobs": 5097,
        "name": "Ohio",
        "id": 2235,
        "score": 0.8498095520868669,
        "latitude": 40.20804,
        "longitude": -82.68456
      },
      "West Virginia": {
        "numJobs": 1884,
        "name": "West Virginia",
        "id": 1939,
        "score": 0.7949423572201901,
        "latitude": 38.646973,
        "longitude": -80.79809
      },
      "Idaho": {
        "numJobs": 881,
        "name": "Idaho",
        "id": 132,
        "score": 0.7040401496743449,
        "latitude": 44.72104,
        "longitude": -114.83413
      },
      "Virginia": {
        "numJobs": 6586,
        "name": "Virginia",
        "id": 323,
        "score": 0.8974021812351064,
        "latitude": 37.71112,
        "longitude": -78.51438
      },
      "Mississippi": {
        "numJobs": 1278,
        "name": "Mississippi",
        "id": 1553,
        "score": 0.7299923739865538,
        "latitude": 32.81446,
        "longitude": -89.712814
      },
      "Texas": {
        "numJobs": 16551,
        "name": "Texas",
        "id": 1347,
        "score": 0.9882526682690023,
        "latitude": 30.541521,
        "longitude": -97.844345
      },
      "Vermont": {
        "numJobs": 408,
        "name": "Vermont",
        "id": 1765,
        "score": 0.6322018580357148,
        "latitude": 44.01336,
        "longitude": -72.68488
      },
      "Wyoming": {
        "numJobs": 799,
        "name": "Wyoming",
        "id": 1258,
        "score": 0.7265775257581814,
        "latitude": 42.800774,
        "longitude": -107.330284
      },
      "New York": {
        "numJobs": 9885,
        "name": "New York",
        "id": 428,
        "score": 0.9364218330850961,
        "latitude": 42.56897,
        "longitude": -75.477
      },
      "Kansas": {
        "numJobs": 1597,
        "name": "Kansas",
        "id": 3107,
        "score": 0.7480341560988685,
        "latitude": 38.453106,
        "longitude": -97.173775
      },
      "Guam": {
        "numJobs": 3,
        "name": "Guam",
        "id": 566,
        "score": 0.2046924045863036,
        "latitude": 13.442065,
        "longitude": 144.7609
      },
      "Michigan": {
        "numJobs": 5135,
        "name": "Michigan",
        "id": 527,
        "score": 0.8742289250522431,
        "latitude": 43.92309,
        "longitude": -85.22649
      },
      "New Jersey": {
        "numJobs": 5513,
        "name": "New Jersey",
        "id": 39,
        "score": 0.8769859736053781,
        "latitude": 40.219467,
        "longitude": -74.63167
      },
      "Colorado": {
        "numJobs": 5011,
        "name": "Colorado",
        "id": 2519,
        "score": 0.8774002151586078,
        "latitude": 39.152225,
        "longitude": -105.41113
      },
      "Pennsylvania": {
        "numJobs": 9370,
        "name": "Pennsylvania",
        "id": 3185,
        "score": 0.9292027710871583,
        "latitude": 40.60347,
        "longitude": -77.41482
      },
      "Maine": {
        "numJobs": 2310,
        "name": "Maine",
        "id": 758,
        "score": 0.8633079305832996,
        "latitude": 44.6072,
        "longitude": -69.434845
      },
      "Arkansas": {
        "numJobs": 2177,
        "name": "Arkansas",
        "id": 1892,
        "score": 0.7931191423257461,
        "latitude": 34.997967,
        "longitude": -92.32213
      },
      "Missouri": {
        "numJobs": 5536,
        "name": "Missouri",
        "id": 386,
        "score": 0.8837322279772999,
        "latitude": 38.196053,
        "longitude": -92.25109
      },
      "Iowa": {
        "numJobs": 2716,
        "name": "Iowa",
        "id": 2733,
        "score": 0.8102151601353604,
        "latitude": 42.001587,
        "longitude": -93.15462
      },
      "Oregon": {
        "numJobs": 2235,
        "name": "Oregon",
        "id": 3163,
        "score": 0.7903303366774527,
        "latitude": 44.54903,
        "longitude": -122.14273
      },
      "North Dakota": {
        "numJobs": 1275,
        "name": "North Dakota",
        "id": 3517,
        "score": 0.7847280237008437,
        "latitude": 47.52474,
        "longitude": -99.81501
      },
      "Indiana": {
        "numJobs": 6802,
        "name": "Indiana",
        "id": 2124,
        "score": 0.9102064356625008,
        "latitude": 39.853703,
        "longitude": -86.26825
      },
      "Northern Mariana Islands": {
        "numJobs": 1,
        "name": "Northern Mariana Islands",
        "id": 50,
        "score": 0.10463058169147867,
        "latitude": 14.803838,
        "longitude": 145.55148
      },
      "Wisconsin": {
        "numJobs": 3233,
        "name": "Wisconsin",
        "id": 481,
        "score": 0.8218370943315326,
        "latitude": 44.22958,
        "longitude": -89.65535
      },
      "Nevada": {
        "numJobs": 1669,
        "name": "Nevada",
        "id": 2756,
        "score": 0.768423269180938,
        "latitude": 39.09225,
        "longitude": -116.94037
      },
      "Minnesota": {
        "numJobs": 5959,
        "name": "Minnesota",
        "id": 1775,
        "score": 0.9125134537917754,
        "latitude": 45.81953,
        "longitude": -93.99869
      },
      "Washington": {
        "numJobs": 4399,
        "name": "Washington",
        "id": 3020,
        "score": 0.8561658951648312,
        "latitude": 47.318367,
        "longitude": -121.16399
      },
      "Delaware": {
        "numJobs": 969,
        "name": "Delaware",
        "id": 3523,
        "score": 0.736014410702565,
        "latitude": 39.267464,
        "longitude": -75.50684
      },
      "Illinois": {
        "numJobs": 8849,
        "name": "Illinois",
        "id": 302,
        "score": 0.9161443782685956,
        "latitude": 40.22442,
        "longitude": -89.00813
      },
      "Hawaii": {
        "numJobs": 417,
        "name": "Hawaii",
        "id": 1385,
        "score": 0.6336038199863463,
        "latitude": 20.773073,
        "longitude": -156.91919
      },
      "Connecticut": {
        "numJobs": 2886,
        "name": "Connecticut",
        "id": 2697,
        "score": 0.8287447621076296,
        "latitude": 41.5664,
        "longitude": -72.77289
      },
      "Montana": {
        "numJobs": 869,
        "name": "Montana",
        "id": 669,
        "score": 0.7206789996671069,
        "latitude": 46.91542,
        "longitude": -110.718666
      },
      "District of Columbia": {
        "numJobs": 1579,
        "name": "District of Columbia",
        "id": 1211,
        "score": 0.7810806236242753,
        "latitude": 38.895,
        "longitude": -77.03667
      },
      "Oklahoma": {
        "numJobs": 3384,
        "name": "Oklahoma",
        "id": 847,
        "score": 0.853954470566374,
        "latitude": 35.427067,
        "longitude": -96.773994
      },
      "Arizona": {
        "numJobs": 4321,
        "name": "Arizona",
        "id": 483,
        "score": 0.8644403032915474,
        "latitude": 33.67677,
        "longitude": -111.58828
      },
      "North Carolina": {
        "numJobs": 7722,
        "name": "North Carolina",
        "id": 1282,
        "score": 0.9269283825866852,
        "latitude": 35.576843,
        "longitude": -79.53007
      },
      "Kentucky": {
        "numJobs": 2184,
        "name": "Kentucky",
        "id": 1141,
        "score": 0.7744584470800998,
        "latitude": 37.58137,
        "longitude": -84.888466
      },
      "Alaska": {
        "numJobs": 308,
        "name": "Alaska",
        "id": 496,
        "score": 0.5994632429714805,
        "latitude": 61.27834,
        "longitude": -150.32988
      },
      "Georgia": {
        "numJobs": 8932,
        "name": "Georgia",
        "id": 3426,
        "score": 0.9431614883739977,
        "latitude": 33.18301,
        "longitude": -83.751396
      },
      "Utah": {
        "numJobs": 2361,
        "name": "Utah",
        "id": 255,
        "score": 0.8169485367707728,
        "latitude": 40.30287,
        "longitude": -111.84235
      },
      "Nebraska": {
        "numJobs": 1974,
        "name": "Nebraska",
        "id": 792,
        "score": 0.804806169911586,
        "latitude": 41.321033,
        "longitude": -98.7876
      },
      "South Dakota": {
        "numJobs": 315,
        "name": "South Dakota",
        "id": 1502,
        "score": 0.5815410470256422,
        "latitude": 44.289787,
        "longitude": -99.61724
      }
    },
    "cities": [
      {
        "numJobs": 4282,
        "name": "New York, NY",
        "stateAbbreviation": "NY",
        "stateName": "New York",
        "id": 1132348,
        "latitude": 40.71417,
        "longitude": -74.00639
      },
      {
        "numJobs": 2708,
        "name": "Chicago, IL",
        "stateAbbreviation": "IL",
        "stateName": "Illinois",
        "id": 1128808,
        "latitude": 41.85,
        "longitude": -87.65
      },
      {
        "numJobs": 1885,
        "name": "San Francisco, CA",
        "stateAbbreviation": "CA",
        "stateName": "California",
        "id": 1147401,
        "latitude": 37.775,
        "longitude": -122.41833
      },
      {
        "numJobs": 1646,
        "name": "Houston, TX",
        "stateAbbreviation": "TX",
        "stateName": "Texas",
        "id": 1140171,
        "latitude": 29.76306,
        "longitude": -95.36306
      },
      {
        "numJobs": 1627,
        "name": "Atlanta, GA",
        "stateAbbreviation": "GA",
        "stateName": "Georgia",
        "id": 1155583,
        "latitude": 33.74889,
        "longitude": -84.38806
      },
      {
        "numJobs": 1583,
        "name": "Dallas, TX",
        "stateAbbreviation": "TX",
        "stateName": "Texas",
        "id": 1139977,
        "latitude": 32.78333,
        "longitude": -96.8
      },
      {
        "numJobs": 1579,
        "name": "Washington, DC",
        "stateAbbreviation": "DC",
        "stateName": "District of Columbia",
        "id": 1138213,
        "latitude": 38.895,
        "longitude": -77.03667
      },
      {
        "numJobs": 1525,
        "name": "Los Angeles, CA",
        "stateAbbreviation": "CA",
        "stateName": "California",
        "id": 1146821,
        "latitude": 34.05222,
        "longitude": -118.24278
      },
      {
        "numJobs": 1413,
        "name": "Boston, MA",
        "stateAbbreviation": "MA",
        "stateName": "Massachusetts",
        "id": 1154532,
        "latitude": 42.35833,
        "longitude": -71.06028
      },
      {
        "numJobs": 1405,
        "name": "Seattle, WA",
        "stateAbbreviation": "WA",
        "stateName": "Washington",
        "id": 1150505,
        "latitude": 47.60639,
        "longitude": -122.33083
      },
      {
        "numJobs": 1133,
        "name": "Phoenix, AZ",
        "stateAbbreviation": "AZ",
        "stateName": "Arizona",
        "id": 1133904,
        "latitude": 33.44833,
        "longitude": -112.07333
      },
      {
        "numJobs": 1058,
        "name": "Austin, TX",
        "stateAbbreviation": "TX",
        "stateName": "Texas",
        "id": 1139761,
        "latitude": 30.26694,
        "longitude": -97.74278
      },
      {
        "numJobs": 968,
        "name": "Philadelphia, PA",
        "stateAbbreviation": "PA",
        "stateName": "Pennsylvania",
        "id": 1152672,
        "latitude": 39.95222,
        "longitude": -75.16417
      },
      {
        "numJobs": 957,
        "name": "San Diego, CA",
        "stateAbbreviation": "CA",
        "stateName": "California",
        "id": 1147311,
        "latitude": 32.71528,
        "longitude": -117.15639
      },
      {
        "numJobs": 891,
        "name": "San Antonio, TX",
        "stateAbbreviation": "TX",
        "stateName": "Texas",
        "id": 1140494,
        "latitude": 29.42389,
        "longitude": -98.49333
      },
      {
        "numJobs": 878,
        "name": "Indianapolis, IN",
        "stateAbbreviation": "IN",
        "stateName": "Indiana",
        "id": 1145013,
        "latitude": 39.76833,
        "longitude": -86.15806
      },
      {
        "numJobs": 875,
        "name": "Charlotte, NC",
        "stateAbbreviation": "NC",
        "stateName": "North Carolina",
        "id": 1138644,
        "latitude": 35.22694,
        "longitude": -80.84333
      },
      {
        "numJobs": 847,
        "name": "Denver, CO",
        "stateAbbreviation": "CO",
        "stateName": "Colorado",
        "id": 1148170,
        "latitude": 39.73917,
        "longitude": -104.98417
      },
      {
        "numJobs": 791,
        "name": "Pittsburgh, PA",
        "stateAbbreviation": "PA",
        "stateName": "Pennsylvania",
        "id": 1152990,
        "latitude": 40.44056,
        "longitude": -79.99611
      },
      {
        "numJobs": 753,
        "name": "Tampa, FL",
        "stateAbbreviation": "FL",
        "stateName": "Florida",
        "id": 1154429,
        "latitude": 27.94722,
        "longitude": -82.45861
      },
      {
        "numJobs": 745,
        "name": "Saint Louis, MO",
        "stateAbbreviation": "MO",
        "stateName": "Missouri",
        "id": 1131270,
        "latitude": 38.636864,
        "longitude": -90.28388
      },
      {
        "numJobs": 727,
        "name": "Orlando, FL",
        "stateAbbreviation": "FL",
        "stateName": "Florida",
        "id": 1154247,
        "latitude": 28.53806,
        "longitude": -81.37944
      },
      {
        "numJobs": 722,
        "name": "Portland, OR",
        "stateAbbreviation": "OR",
        "stateName": "Oregon",
        "id": 1151614,
        "latitude": 45.52361,
        "longitude": -122.675
      },
      {
        "numJobs": 722,
        "name": "Las Vegas, NV",
        "stateAbbreviation": "NV",
        "stateName": "Nevada",
        "id": 1149603,
        "latitude": 36.175,
        "longitude": -115.13639
      },
      {
        "numJobs": 701,
        "name": "Columbus, OH",
        "stateAbbreviation": "OH",
        "stateName": "Ohio",
        "id": 1145845,
        "latitude": 39.96111,
        "longitude": -82.99889
      },
      {
        "numJobs": 699,
        "name": "San Jose, CA",
        "stateAbbreviation": "CA",
        "stateName": "California",
        "id": 1147436,
        "latitude": 37.33944,
        "longitude": -121.89389
      },
      {
        "numJobs": 689,
        "name": "Minneapolis, MN",
        "stateAbbreviation": "MN",
        "stateName": "Minnesota",
        "id": 1142551,
        "latitude": 44.98,
        "longitude": -93.26361
      },
      {
        "numJobs": 663,
        "name": "Cincinnati, OH",
        "stateAbbreviation": "OH",
        "stateName": "Ohio",
        "id": 1145705,
        "latitude": 39.16194,
        "longitude": -84.45694
      },
      {
        "numJobs": 617,
        "name": "Nashville, TN",
        "stateAbbreviation": "TN",
        "stateName": "Tennessee",
        "id": 1144541,
        "latitude": 36.16583,
        "longitude": -86.78444
      },
      {
        "numJobs": 600,
        "name": "Miami, FL",
        "stateAbbreviation": "FL",
        "stateName": "Florida",
        "id": 1154170,
        "latitude": 25.77389,
        "longitude": -80.19389
      },
      {
        "numJobs": 579,
        "name": "Jacksonville, FL",
        "stateAbbreviation": "FL",
        "stateName": "Florida",
        "id": 1154093,
        "latitude": 30.33194,
        "longitude": -81.65583
      },
      {
        "numJobs": 578,
        "name": "Baltimore, MD",
        "stateAbbreviation": "MD",
        "stateName": "Maryland",
        "id": 1153527,
        "latitude": 39.29028,
        "longitude": -76.6125
      },
      {
        "numJobs": 558,
        "name": "Arlington, VA",
        "stateAbbreviation": "VA",
        "stateName": "Virginia",
        "id": 1130337,
        "latitude": 38.89028,
        "longitude": -77.08444
      },
      {
        "numJobs": 553,
        "name": "Raleigh, NC",
        "stateAbbreviation": "NC",
        "stateName": "North Carolina",
        "id": 1138960,
        "latitude": 35.77194,
        "longitude": -78.63889
      },
      {
        "numJobs": 550,
        "name": "Milwaukee, WI",
        "stateAbbreviation": "WI",
        "stateName": "Wisconsin",
        "id": 1133579,
        "latitude": 43.03889,
        "longitude": -87.90639
      },
      {
        "numJobs": 538,
        "name": "Memphis, TN",
        "stateAbbreviation": "TN",
        "stateName": "Tennessee",
        "id": 1144463,
        "latitude": 35.14944,
        "longitude": -90.04889
      },
      {
        "numJobs": 515,
        "name": "Louisville, KY",
        "stateAbbreviation": "KY",
        "stateName": "Kentucky",
        "id": 1137724,
        "latitude": 38.25417,
        "longitude": -85.75944
      },
      {
        "numJobs": 513,
        "name": "Irvine, CA",
        "stateAbbreviation": "CA",
        "stateName": "California",
        "id": 1146798,
        "latitude": 33.66944,
        "longitude": -117.82222
      },
      {
        "numJobs": 495,
        "name": "Salt Lake City, UT",
        "stateAbbreviation": "UT",
        "stateName": "Utah",
        "id": 1128289,
        "latitude": 40.76083,
        "longitude": -111.89028
      },
      {
        "numJobs": 479,
        "name": "Fort Worth, TX",
        "stateAbbreviation": "TX",
        "stateName": "Texas",
        "id": 1139993,
        "latitude": 32.72528,
        "longitude": -97.32056
      },
      {
        "numJobs": 459,
        "name": "Sacramento, CA",
        "stateAbbreviation": "CA",
        "stateName": "California",
        "id": 1147229,
        "latitude": 38.58167,
        "longitude": -121.49333
      },
      {
        "numJobs": 447,
        "name": "Kansas City, MO",
        "stateAbbreviation": "MO",
        "stateName": "Missouri",
        "id": 1131040,
        "latitude": 39.09972,
        "longitude": -94.57833
      },
      {
        "numJobs": 423,
        "name": "Cleveland, OH",
        "stateAbbreviation": "OH",
        "stateName": "Ohio",
        "id": 1145778,
        "latitude": 41.49944,
        "longitude": -81.69556
      },
      {
        "numJobs": 409,
        "name": "Tucson, AZ",
        "stateAbbreviation": "AZ",
        "stateName": "Arizona",
        "id": 1133996,
        "latitude": 32.22167,
        "longitude": -110.92583
      },
      {
        "numJobs": 408,
        "name": "Detroit, MI",
        "stateAbbreviation": "MI",
        "stateName": "Michigan",
        "id": 1134644,
        "latitude": 42.33139,
        "longitude": -83.04583
      },
      {
        "numJobs": 393,
        "name": "Oklahoma City, OK",
        "stateAbbreviation": "OK",
        "stateName": "Oklahoma",
        "id": 1136950,
        "latitude": 35.4675,
        "longitude": -97.51611
      },
      {
        "numJobs": 388,
        "name": "Irving, TX",
        "stateAbbreviation": "TX",
        "stateName": "Texas",
        "id": 1140006,
        "latitude": 32.81389,
        "longitude": -96.94861
      },
      {
        "numJobs": 377,
        "name": "Plano, TX",
        "stateAbbreviation": "TX",
        "stateName": "Texas",
        "id": 1140045,
        "latitude": 33.01972,
        "longitude": -96.69861
      },
      {
        "numJobs": 376,
        "name": "Richmond, VA",
        "stateAbbreviation": "VA",
        "stateName": "Virginia",
        "id": 1130198,
        "latitude": 37.55361,
        "longitude": -77.46056
      },
      {
        "numJobs": 350,
        "name": "Birmingham, AL",
        "stateAbbreviation": "AL",
        "stateName": "Alabama",
        "id": 1127429,
        "latitude": 33.52056,
        "longitude": -86.8025
      },
      {
        "numJobs": 342,
        "name": "Omaha, NE",
        "stateAbbreviation": "NE",
        "stateName": "Nebraska",
        "id": 1136440,
        "latitude": 41.25861,
        "longitude": -95.9375
      },
      {
        "numJobs": 341,
        "name": "Madison, WI",
        "stateAbbreviation": "WI",
        "stateName": "Wisconsin",
        "id": 1133470,
        "latitude": 43.07306,
        "longitude": -89.40111
      },
      {
        "numJobs": 333,
        "name": "Albuquerque, NM",
        "stateAbbreviation": "NM",
        "stateName": "New Mexico",
        "id": 1137959,
        "latitude": 35.08444,
        "longitude": -106.65056
      },
      {
        "numJobs": 327,
        "name": "Fort Lauderdale, FL",
        "stateAbbreviation": "FL",
        "stateName": "Florida",
        "id": 1154160,
        "latitude": 26.12194,
        "longitude": -80.14361
      },
      {
        "numJobs": 326,
        "name": "Bellevue, WA",
        "stateAbbreviation": "WA",
        "stateName": "Washington",
        "id": 1150442,
        "latitude": 47.61056,
        "longitude": -122.19944
      },
      {
        "numJobs": 316,
        "name": "McLean, VA",
        "stateAbbreviation": "VA",
        "stateName": "Virginia",
        "id": 1158535,
        "latitude": 38.93417,
        "longitude": -77.17778
      },
      {
        "numJobs": 310,
        "name": "Albany, NY",
        "stateAbbreviation": "NY",
        "stateName": "New York",
        "id": 1131650,
        "latitude": 42.6525,
        "longitude": -73.75667
      },
      {
        "numJobs": 309,
        "name": "Greensboro, NC",
        "stateAbbreviation": "NC",
        "stateName": "North Carolina",
        "id": 1138755,
        "latitude": 36.0725,
        "longitude": -79.79222
      },
      {
        "numJobs": 307,
        "name": "Grand Rapids, MI",
        "stateAbbreviation": "MI",
        "stateName": "Michigan",
        "id": 1134796,
        "latitude": 42.96333,
        "longitude": -85.66806
      },
      {
        "numJobs": 306,
        "name": "Tulsa, OK",
        "stateAbbreviation": "OK",
        "stateName": "Oklahoma",
        "id": 1137055,
        "latitude": 36.15389,
        "longitude": -95.9925
      },
      {
        "numJobs": 289,
        "name": "Colorado Springs, CO",
        "stateAbbreviation": "CO",
        "stateName": "Colorado",
        "id": 1148136,
        "latitude": 38.83389,
        "longitude": -104.82083
      },
      {
        "numJobs": 288,
        "name": "Scottsdale, AZ",
        "stateAbbreviation": "AZ",
        "stateName": "Arizona",
        "id": 1133911,
        "latitude": 33.50917,
        "longitude": -111.89833
      },
      {
        "numJobs": 285,
        "name": "Englewood, CO",
        "stateAbbreviation": "CO",
        "stateName": "Colorado",
        "id": 1148176,
        "latitude": 39.64778,
        "longitude": -104.98722
      },
      {
        "numJobs": 277,
        "name": "El Paso, TX",
        "stateAbbreviation": "TX",
        "stateName": "Texas",
        "id": 1140105,
        "latitude": 31.75861,
        "longitude": -106.48639
      },
      {
        "numJobs": 276,
        "name": "Santa Clara, CA",
        "stateAbbreviation": "CA",
        "stateName": "California",
        "id": 1147439,
        "latitude": 37.35417,
        "longitude": -121.95417
      },
      {
        "numJobs": 273,
        "name": "Lincoln, NE",
        "stateAbbreviation": "NE",
        "stateName": "Nebraska",
        "id": 1136371,
        "latitude": 40.8,
        "longitude": -96.66667
      },
      {
        "numJobs": 269,
        "name": "Knoxville, TN",
        "stateAbbreviation": "TN",
        "stateName": "Tennessee",
        "id": 1144394,
        "latitude": 35.96056,
        "longitude": -83.92083
      },
      {
        "numJobs": 269,
        "name": "Fort Wayne, IN",
        "stateAbbreviation": "IN",
        "stateName": "Indiana",
        "id": 1144939,
        "latitude": 41.13056,
        "longitude": -85.12889
      },
      {
        "numJobs": 269,
        "name": "Cambridge, MA",
        "stateAbbreviation": "MA",
        "stateName": "Massachusetts",
        "id": 1154545,
        "latitude": 42.375,
        "longitude": -71.10611
      },
      {
        "numJobs": 265,
        "name": "Columbia, SC",
        "stateAbbreviation": "SC",
        "stateName": "South Carolina",
        "id": 1155132,
        "latitude": 34.00056,
        "longitude": -81.035
      },
      {
        "numJobs": 264,
        "name": "Alexandria, VA",
        "stateAbbreviation": "VA",
        "stateName": "Virginia",
        "id": 1130334,
        "latitude": 38.79755,
        "longitude": -77.08908
      },
      {
        "numJobs": 264,
        "name": "Saint Paul, MN",
        "stateAbbreviation": "MN",
        "stateName": "Minnesota",
        "id": 1142575,
        "latitude": 44.94444,
        "longitude": -93.09306
      },
      {
        "numJobs": 263,
        "name": "Rochester, NY",
        "stateAbbreviation": "NY",
        "stateName": "New York",
        "id": 1132765,
        "latitude": 43.15472,
        "longitude": -77.61583
      },
      {
        "numJobs": 260,
        "name": "New Orleans, LA",
        "stateAbbreviation": "LA",
        "stateName": "Louisiana",
        "id": 1150035,
        "latitude": 29.95444,
        "longitude": -90.075
      },
      {
        "numJobs": 260,
        "name": "Ann Arbor, MI",
        "stateAbbreviation": "MI",
        "stateName": "Michigan",
        "id": 1134560,
        "latitude": 42.27083,
        "longitude": -83.72639
      },
      {
        "numJobs": 258,
        "name": "Boise, ID",
        "stateAbbreviation": "ID",
        "stateName": "Idaho",
        "id": 1127927,
        "latitude": 43.61361,
        "longitude": -116.2025
      },
      {
        "numJobs": 258,
        "name": "Alpharetta, GA",
        "stateAbbreviation": "GA",
        "stateName": "Georgia",
        "id": 1155582,
        "latitude": 34.07528,
        "longitude": -84.29417
      },
      {
        "numJobs": 258,
        "name": "Brooklyn, NY",
        "stateAbbreviation": "NY",
        "stateName": "New York",
        "id": 1132200,
        "latitude": 40.65,
        "longitude": -73.95
      },
      {
        "numJobs": 255,
        "name": "Oakland, CA",
        "stateAbbreviation": "CA",
        "stateName": "California",
        "id": 1147380,
        "latitude": 37.80444,
        "longitude": -122.26972
      },
      {
        "numJobs": 254,
        "name": "Stamford, CT",
        "stateAbbreviation": "CT",
        "stateName": "Connecticut",
        "id": 1148355,
        "latitude": 41.05333,
        "longitude": -73.53917
      },
      {
        "numJobs": 245,
        "name": "Charleston, SC",
        "stateAbbreviation": "SC",
        "stateName": "South Carolina",
        "id": 1155074,
        "latitude": 32.77639,
        "longitude": -79.93111
      },
      {
        "numJobs": 244,
        "name": "Hartford, CT",
        "stateAbbreviation": "CT",
        "stateName": "Connecticut",
        "id": 1148399,
        "latitude": 41.76361,
        "longitude": -72.68556
      },
      {
        "numJobs": 237,
        "name": "Baton Rouge, LA",
        "stateAbbreviation": "LA",
        "stateName": "Louisiana",
        "id": 1149789,
        "latitude": 30.45056,
        "longitude": -91.15444
      },
      {
        "numJobs": 235,
        "name": "Palo Alto, CA",
        "stateAbbreviation": "CA",
        "stateName": "California",
        "id": 1147434,
        "latitude": 37.44194,
        "longitude": -122.14194
      },
      {
        "numJobs": 229,
        "name": "Marietta, GA",
        "stateAbbreviation": "GA",
        "stateName": "Georgia",
        "id": 1155654,
        "latitude": 33.9525,
        "longitude": -84.55
      },
      {
        "numJobs": 226,
        "name": "Virginia Beach, VA",
        "stateAbbreviation": "VA",
        "stateName": "Virginia",
        "id": 1130324,
        "latitude": 36.85278,
        "longitude": -75.97833
      },
      {
        "numJobs": 226,
        "name": "Tempe, AZ",
        "stateAbbreviation": "AZ",
        "stateName": "Arizona",
        "id": 1133917,
        "latitude": 33.41472,
        "longitude": -111.90861
      },
      {
        "numJobs": 225,
        "name": "Springfield, MO",
        "stateAbbreviation": "MO",
        "stateName": "Missouri",
        "id": 1131348,
        "latitude": 37.21528,
        "longitude": -93.29806
      },
      {
        "numJobs": 223,
        "name": "Overland Park, KS",
        "stateAbbreviation": "KS",
        "stateName": "Kansas",
        "id": 1151049,
        "latitude": 38.98222,
        "longitude": -94.67056
      },
      {
        "numJobs": 220,
        "name": "Buffalo, NY",
        "stateAbbreviation": "NY",
        "stateName": "New York",
        "id": 1131850,
        "latitude": 42.88639,
        "longitude": -78.87861
      },
      {
        "numJobs": 219,
        "name": "Schaumburg, IL",
        "stateAbbreviation": "IL",
        "stateName": "Illinois",
        "id": 1128969,
        "latitude": 42.03333,
        "longitude": -88.08333
      },
      {
        "numJobs": 217,
        "name": "Chattanooga, TN",
        "stateAbbreviation": "TN",
        "stateName": "Tennessee",
        "id": 1144251,
        "latitude": 35.04556,
        "longitude": -85.30972
      },
      {
        "numJobs": 217,
        "name": "Durham, NC",
        "stateAbbreviation": "NC",
        "stateName": "North Carolina",
        "id": 1138697,
        "latitude": 35.99389,
        "longitude": -78.89889
      },
      {
        "numJobs": 217,
        "name": "King of Prussia, PA",
        "stateAbbreviation": "PA",
        "stateName": "Pennsylvania",
        "id": 1152620,
        "latitude": 40.08917,
        "longitude": -75.39639
      },
      {
        "numJobs": 215,
        "name": "Wilmington, NC",
        "stateAbbreviation": "NC",
        "stateName": "North Carolina",
        "id": 1139117,
        "latitude": 34.22556,
        "longitude": -77.945
      },
      {
        "numJobs": 213,
        "name": "Harrisburg, PA",
        "stateAbbreviation": "PA",
        "stateName": "Pennsylvania",
        "id": 1152185,
        "latitude": 40.27361,
        "longitude": -76.88472
      },
      {
        "numJobs": 210,
        "name": "Newark, NJ",
        "stateAbbreviation": "NJ",
        "stateName": "New Jersey",
        "id": 1126906,
        "latitude": 40.73556,
        "longitude": -74.17278
      },
      {
        "numJobs": 208,
        "name": "Winston-Salem, NC",
        "stateAbbreviation": "NC",
        "stateName": "North Carolina",
        "id": 1139151,
        "latitude": 36.09766,
        "longitude": -80.24728
      },
      {
        "numJobs": 207,
        "name": "Anaheim, CA",
        "stateAbbreviation": "CA",
        "stateName": "California",
        "id": 1146743,
        "latitude": 33.83528,
        "longitude": -117.91361
      },
      {
        "numJobs": 207,
        "name": "Redwood City, CA",
        "stateAbbreviation": "CA",
        "stateName": "California",
        "id": 1147394,
        "latitude": 37.48528,
        "longitude": -122.23528
      },
      {
        "numJobs": 206,
        "name": "Aurora, CO",
        "stateAbbreviation": "CO",
        "stateName": "Colorado",
        "id": 1148156,
        "latitude": 39.72944,
        "longitude": -104.83139
      },
      {
        "numJobs": 205,
        "name": "Des Moines, IA",
        "stateAbbreviation": "IA",
        "stateName": "Iowa",
        "id": 1149246,
        "latitude": 41.60056,
        "longitude": -93.60889
      },
      {
        "numJobs": 199,
        "name": "Dayton, OH",
        "stateAbbreviation": "OH",
        "stateName": "Ohio",
        "id": 1145937,
        "latitude": 39.75889,
        "longitude": -84.19167
      },
      {
        "numJobs": 199,
        "name": "Falls Church, VA",
        "stateAbbreviation": "VA",
        "stateName": "Virginia",
        "id": 1130361,
        "latitude": 38.88222,
        "longitude": -77.17139
      },
      {
        "numJobs": 199,
        "name": "Fairfax, VA",
        "stateAbbreviation": "VA",
        "stateName": "Virginia",
        "id": 1130359,
        "latitude": 38.84611,
        "longitude": -77.30667
      },
      {
        "numJobs": 199,
        "name": "Savannah, GA",
        "stateAbbreviation": "GA",
        "stateName": "Georgia",
        "id": 1155906,
        "latitude": 32.08333,
        "longitude": -81.1
      },
      {
        "numJobs": 196,
        "name": "Long Beach, CA",
        "stateAbbreviation": "CA",
        "stateName": "California",
        "id": 1146819,
        "latitude": 33.76694,
        "longitude": -118.18833
      },
      {
        "numJobs": 196,
        "name": "Reston, VA",
        "stateAbbreviation": "VA",
        "stateName": "Virginia",
        "id": 1130404,
        "latitude": 38.96861,
        "longitude": -77.34139
      },
      {
        "numJobs": 196,
        "name": "Richardson, TX",
        "stateAbbreviation": "TX",
        "stateName": "Texas",
        "id": 1140053,
        "latitude": 32.94806,
        "longitude": -96.72944
      },
      {
        "numJobs": 196,
        "name": "Riverside, CA",
        "stateAbbreviation": "CA",
        "stateName": "California",
        "id": 1147138,
        "latitude": 33.95333,
        "longitude": -117.39528
      },
      {
        "numJobs": 194,
        "name": "Honolulu, HI",
        "stateAbbreviation": "HI",
        "stateName": "Hawaii",
        "id": 1140656,
        "latitude": 21.30694,
        "longitude": -157.85834
      },
      {
        "numJobs": 194,
        "name": "Wilmington, DE",
        "stateAbbreviation": "DE",
        "stateName": "Delaware",
        "id": 1156375,
        "latitude": 39.74583,
        "longitude": -75.54694
      },
      {
        "numJobs": 193,
        "name": "Bismarck, ND",
        "stateAbbreviation": "ND",
        "stateName": "North Dakota",
        "id": 1156224,
        "latitude": 46.80833,
        "longitude": -100.78333
      },
      {
        "numJobs": 193,
        "name": "Sunnyvale, CA",
        "stateAbbreviation": "CA",
        "stateName": "California",
        "id": 1147442,
        "latitude": 37.36889,
        "longitude": -122.03528
      },
      {
        "numJobs": 193,
        "name": "Mesa, AZ",
        "stateAbbreviation": "AZ",
        "stateName": "Arizona",
        "id": 1133897,
        "latitude": 33.42222,
        "longitude": -111.82194
      },
      {
        "numJobs": 192,
        "name": "Little Rock, AR",
        "stateAbbreviation": "AR",
        "stateName": "Arkansas",
        "id": 1143190,
        "latitude": 34.74639,
        "longitude": -92.28944
      },
      {
        "numJobs": 191,
        "name": "Menlo Park, CA",
        "stateAbbreviation": "CA",
        "stateName": "California",
        "id": 1147371,
        "latitude": 37.45389,
        "longitude": -122.18111
      },
      {
        "numJobs": 188,
        "name": "Reno, NV",
        "stateAbbreviation": "NV",
        "stateName": "Nevada",
        "id": 1149627,
        "latitude": 39.52972,
        "longitude": -119.81278
      },
      {
        "numJobs": 187,
        "name": "Jersey City, NJ",
        "stateAbbreviation": "NJ",
        "stateName": "New Jersey",
        "id": 1126819,
        "latitude": 40.72806,
        "longitude": -74.07806
      },
      {
        "numJobs": 186,
        "name": "Tallahassee, FL",
        "stateAbbreviation": "FL",
        "stateName": "Florida",
        "id": 1154378,
        "latitude": 30.43806,
        "longitude": -84.28083
      },
      {
        "numJobs": 185,
        "name": "Naperville, IL",
        "stateAbbreviation": "IL",
        "stateName": "Illinois",
        "id": 1128928,
        "latitude": 41.78583,
        "longitude": -88.14722
      },
      {
        "numJobs": 184,
        "name": "Fresno, CA",
        "stateAbbreviation": "CA",
        "stateName": "California",
        "id": 1146705,
        "latitude": 36.74778,
        "longitude": -119.77139
      },
      {
        "numJobs": 183,
        "name": "Greenville, SC",
        "stateAbbreviation": "SC",
        "stateName": "South Carolina",
        "id": 1155193,
        "latitude": 34.8525,
        "longitude": -82.39417
      },
      {
        "numJobs": 181,
        "name": "Silver Spring, MD",
        "stateAbbreviation": "MD",
        "stateName": "Maryland",
        "id": 1153904,
        "latitude": 38.99056,
        "longitude": -77.02639
      },
      {
        "numJobs": 180,
        "name": "Montgomery, AL",
        "stateAbbreviation": "AL",
        "stateName": "Alabama",
        "id": 1127704,
        "latitude": 32.36667,
        "longitude": -86.3
      },
      {
        "numJobs": 180,
        "name": "Lansing, MI",
        "stateAbbreviation": "MI",
        "stateName": "Michigan",
        "id": 1134930,
        "latitude": 42.7325,
        "longitude": -84.55556
      },
      {
        "numJobs": 177,
        "name": "Herndon, VA",
        "stateAbbreviation": "VA",
        "stateName": "Virginia",
        "id": 1130374,
        "latitude": 38.96944,
        "longitude": -77.38639
      },
      {
        "numJobs": 176,
        "name": "Syracuse, NY",
        "stateAbbreviation": "NY",
        "stateName": "New York",
        "id": 1132872,
        "latitude": 43.04806,
        "longitude": -76.14778
      },
      {
        "numJobs": 175,
        "name": "Mountain View, CA",
        "stateAbbreviation": "CA",
        "stateName": "California",
        "id": 1147431,
        "latitude": 37.38611,
        "longitude": -122.08278
      },
      {
        "numJobs": 174,
        "name": "Mobile, AL",
        "stateAbbreviation": "AL",
        "stateName": "Alabama",
        "id": 1127676,
        "latitude": 30.69417,
        "longitude": -88.04306
      },
      {
        "numJobs": 174,
        "name": "Wichita, KS",
        "stateAbbreviation": "KS",
        "stateName": "Kansas",
        "id": 1151230,
        "latitude": 37.69222,
        "longitude": -97.33722
      },
      {
        "numJobs": 173,
        "name": "Evansville, IN",
        "stateAbbreviation": "IN",
        "stateName": "Indiana",
        "id": 1144913,
        "latitude": 37.97472,
        "longitude": -87.55583
      },
      {
        "numJobs": 173,
        "name": "Augusta, GA",
        "stateAbbreviation": "GA",
        "stateName": "Georgia",
        "id": 1155718,
        "latitude": 33.47083,
        "longitude": -81.975
      },
      {
        "numJobs": 173,
        "name": "Rockville, MD",
        "stateAbbreviation": "MD",
        "stateName": "Maryland",
        "id": 1153899,
        "latitude": 39.08389,
        "longitude": -77.15306
      },
      {
        "numJobs": 173,
        "name": "Pleasanton, CA",
        "stateAbbreviation": "CA",
        "stateName": "California",
        "id": 1147390,
        "latitude": 37.6625,
        "longitude": -121.87361
      },
      {
        "numJobs": 172,
        "name": "Huntsville, AL",
        "stateAbbreviation": "AL",
        "stateName": "Alabama",
        "id": 1127653,
        "latitude": 34.73028,
        "longitude": -86.58611
      },
      {
        "numJobs": 170,
        "name": "Boca Raton, FL",
        "stateAbbreviation": "FL",
        "stateName": "Florida",
        "id": 1154153,
        "latitude": 26.35833,
        "longitude": -80.08333
      },
      {
        "numJobs": 169,
        "name": "Columbus, GA",
        "stateAbbreviation": "GA",
        "stateName": "Georgia",
        "id": 1155778,
        "latitude": 32.46083,
        "longitude": -84.98778
      },
      {
        "numJobs": 168,
        "name": "Troy, MI",
        "stateAbbreviation": "MI",
        "stateName": "Michigan",
        "id": 1134737,
        "latitude": 42.60556,
        "longitude": -83.15
      },
      {
        "numJobs": 168,
        "name": "Saint Petersburg, FL",
        "stateAbbreviation": "FL",
        "stateName": "Florida",
        "id": 1154421,
        "latitude": 27.77056,
        "longitude": -82.67944
      },
      {
        "numJobs": 167,
        "name": "Amarillo, TX",
        "stateAbbreviation": "TX",
        "stateName": "Texas",
        "id": 1139740,
        "latitude": 35.22194,
        "longitude": -101.83083
      },
      {
        "numJobs": 166,
        "name": "Waltham, MA",
        "stateAbbreviation": "MA",
        "stateName": "Massachusetts",
        "id": 1154703,
        "latitude": 42.37639,
        "longitude": -71.23611
      },
      {
        "numJobs": 163,
        "name": "Norfolk, VA",
        "stateAbbreviation": "VA",
        "stateName": "Virginia",
        "id": 1130306,
        "latitude": 36.84667,
        "longitude": -76.28556
      },
      {
        "numJobs": 162,
        "name": "Toledo, OH",
        "stateAbbreviation": "OH",
        "stateName": "Ohio",
        "id": 1146248,
        "latitude": 41.66389,
        "longitude": -83.55528
      },
      {
        "numJobs": 162,
        "name": "Arlington, TX",
        "stateAbbreviation": "TX",
        "stateName": "Texas",
        "id": 1139951,
        "latitude": 32.73556,
        "longitude": -97.10778
      },
      {
        "numJobs": 162,
        "name": "Auburn Hills, MI",
        "stateAbbreviation": "MI",
        "stateName": "Michigan",
        "id": 1134622,
        "latitude": 42.6875,
        "longitude": -83.23417
      },
      {
        "numJobs": 161,
        "name": "Southfield, MI",
        "stateAbbreviation": "MI",
        "stateName": "Michigan",
        "id": 1134732,
        "latitude": 42.47333,
        "longitude": -83.22194
      },
      {
        "numJobs": 160,
        "name": "Bethesda, MD",
        "stateAbbreviation": "MD",
        "stateName": "Maryland",
        "id": 1153817,
        "latitude": 38.98056,
        "longitude": -77.10056
      },
      {
        "numJobs": 159,
        "name": "West Palm Beach, FL",
        "stateAbbreviation": "FL",
        "stateName": "Florida",
        "id": 1154182,
        "latitude": 26.715,
        "longitude": -80.05361
      },
      {
        "numJobs": 159,
        "name": "Bronx, NY",
        "stateAbbreviation": "NY",
        "stateName": "New York",
        "id": 1132197,
        "latitude": 40.85,
        "longitude": -73.86667
      },
      {
        "numJobs": 158,
        "name": "Santa Ana, CA",
        "stateAbbreviation": "CA",
        "stateName": "California",
        "id": 1146870,
        "latitude": 33.74556,
        "longitude": -117.86694
      },
      {
        "numJobs": 157,
        "name": "Akron, OH",
        "stateAbbreviation": "OH",
        "stateName": "Ohio",
        "id": 1145529,
        "latitude": 41.08139,
        "longitude": -81.51917
      },
      {
        "numJobs": 156,
        "name": "South Bend, IN",
        "stateAbbreviation": "IN",
        "stateName": "Indiana",
        "id": 1145268,
        "latitude": 41.68333,
        "longitude": -86.25
      },
      {
        "numJobs": 154,
        "name": "Cary, NC",
        "stateAbbreviation": "NC",
        "stateName": "North Carolina",
        "id": 1138945,
        "latitude": 35.79139,
        "longitude": -78.78139
      },
      {
        "numJobs": 154,
        "name": "Greenville, NC",
        "stateAbbreviation": "NC",
        "stateName": "North Carolina",
        "id": 1138785,
        "latitude": 35.6125,
        "longitude": -77.36667
      },
      {
        "numJobs": 154,
        "name": "Jackson, MS",
        "stateAbbreviation": "MS",
        "stateName": "Mississippi",
        "id": 1141371,
        "latitude": 32.29861,
        "longitude": -90.18472
      },
      {
        "numJobs": 149,
        "name": "Henderson, NV",
        "stateAbbreviation": "NV",
        "stateName": "Nevada",
        "id": 1149600,
        "latitude": 36.03972,
        "longitude": -114.98111
      },
      {
        "numJobs": 149,
        "name": "Anchorage, AK",
        "stateAbbreviation": "AK",
        "stateName": "Alaska",
        "id": 1134201,
        "latitude": 61.21806,
        "longitude": -149.90028
      },
      {
        "numJobs": 147,
        "name": "Fayetteville, NC",
        "stateAbbreviation": "NC",
        "stateName": "North Carolina",
        "id": 1138720,
        "latitude": 35.0525,
        "longitude": -78.87861
      },
      {
        "numJobs": 147,
        "name": "Fort Myers, FL",
        "stateAbbreviation": "FL",
        "stateName": "Florida",
        "id": 1154016,
        "latitude": 26.64028,
        "longitude": -81.8725
      },
      {
        "numJobs": 147,
        "name": "Vancouver, WA",
        "stateAbbreviation": "WA",
        "stateName": "Washington",
        "id": 1150413,
        "latitude": 45.63889,
        "longitude": -122.66028
      },
      {
        "numJobs": 146,
        "name": "Salem, OR",
        "stateAbbreviation": "OR",
        "stateName": "Oregon",
        "id": 1151682,
        "latitude": 44.94306,
        "longitude": -123.03389
      },
      {
        "numJobs": 146,
        "name": "Topeka, KS",
        "stateAbbreviation": "KS",
        "stateName": "Kansas",
        "id": 1151173,
        "latitude": 39.04833,
        "longitude": -95.67778
      },
      {
        "numJobs": 146,
        "name": "San Mateo, CA",
        "stateAbbreviation": "CA",
        "stateName": "California",
        "id": 1147406,
        "latitude": 37.56306,
        "longitude": -122.32444
      },
      {
        "numJobs": 145,
        "name": "Fremont, CA",
        "stateAbbreviation": "CA",
        "stateName": "California",
        "id": 1147355,
        "latitude": 37.54833,
        "longitude": -121.9875
      },
      {
        "numJobs": 144,
        "name": "Warren, MI",
        "stateAbbreviation": "MI",
        "stateName": "Michigan",
        "id": 1134741,
        "latitude": 42.4775,
        "longitude": -83.02778
      },
      {
        "numJobs": 144,
        "name": "Allentown, PA",
        "stateAbbreviation": "PA",
        "stateName": "Pennsylvania",
        "id": 1151916,
        "latitude": 40.60833,
        "longitude": -75.49056
      },
      {
        "numJobs": 143,
        "name": "Bloomington, IN",
        "stateAbbreviation": "IN",
        "stateName": "Indiana",
        "id": 1144789,
        "latitude": 39.16528,
        "longitude": -86.52639
      },
      {
        "numJobs": 143,
        "name": "Chandler, AZ",
        "stateAbbreviation": "AZ",
        "stateName": "Arizona",
        "id": 1133878,
        "latitude": 33.30611,
        "longitude": -111.84056
      },
      {
        "numJobs": 142,
        "name": "Worcester, MA",
        "stateAbbreviation": "MA",
        "stateName": "Massachusetts",
        "id": 1154962,
        "latitude": 42.2625,
        "longitude": -71.80278
      },
      {
        "numJobs": 141,
        "name": "Santa Monica, CA",
        "stateAbbreviation": "CA",
        "stateName": "California",
        "id": 1146873,
        "latitude": 34.01944,
        "longitude": -118.49028
      },
      {
        "numJobs": 141,
        "name": "Chesapeake, VA",
        "stateAbbreviation": "VA",
        "stateName": "Virginia",
        "id": 1130279,
        "latitude": 36.81889,
        "longitude": -76.27528
      },
      {
        "numJobs": 140,
        "name": "Columbia, MD",
        "stateAbbreviation": "MD",
        "stateName": "Maryland",
        "id": 1153546,
        "latitude": 39.24028,
        "longitude": -76.83972
      },
      {
        "numJobs": 139,
        "name": "Pensacola, FL",
        "stateAbbreviation": "FL",
        "stateName": "Florida",
        "id": 1154318,
        "latitude": 30.42111,
        "longitude": -87.21694
      },
      {
        "numJobs": 139,
        "name": "Coraopolis, PA",
        "stateAbbreviation": "PA",
        "stateName": "Pennsylvania",
        "id": 1152815,
        "latitude": 40.51833,
        "longitude": -80.16694
      },
      {
        "numJobs": 138,
        "name": "Gaithersburg, MD",
        "stateAbbreviation": "MD",
        "stateName": "Maryland",
        "id": 1153852,
        "latitude": 39.14333,
        "longitude": -77.20167
      },
      {
        "numJobs": 138,
        "name": "Asheville, NC",
        "stateAbbreviation": "NC",
        "stateName": "North Carolina",
        "id": 1138579,
        "latitude": 35.60083,
        "longitude": -82.55417
      },
      {
        "numJobs": 137,
        "name": "Livonia, MI",
        "stateAbbreviation": "MI",
        "stateName": "Michigan",
        "id": 1134687,
        "latitude": 42.36833,
        "longitude": -83.35278
      },
      {
        "numJobs": 136,
        "name": "Princeton, NJ",
        "stateAbbreviation": "NJ",
        "stateName": "New Jersey",
        "id": 1127179,
        "latitude": 40.34861,
        "longitude": -74.65944
      },
      {
        "numJobs": 136,
        "name": "Costa Mesa, CA",
        "stateAbbreviation": "CA",
        "stateName": "California",
        "id": 1146769,
        "latitude": 33.64111,
        "longitude": -117.91778
      },
      {
        "numJobs": 136,
        "name": "Pasadena, CA",
        "stateAbbreviation": "CA",
        "stateName": "California",
        "id": 1146850,
        "latitude": 34.14778,
        "longitude": -118.14361
      },
      {
        "numJobs": 136,
        "name": "Lexington-Fayette, KY",
        "stateAbbreviation": "KY",
        "stateName": "Kentucky",
        "id": 3749474,
        "latitude": 38.04972,
        "longitude": -84.45861
      },
      {
        "numJobs": 136,
        "name": "Eden Prairie, MN",
        "stateAbbreviation": "MN",
        "stateName": "Minnesota",
        "id": 1142521,
        "latitude": 44.85472,
        "longitude": -93.47056
      },
      {
        "numJobs": 134,
        "name": "Rosemont, IL",
        "stateAbbreviation": "IL",
        "stateName": "Illinois",
        "id": 1158097,
        "latitude": 38.62694,
        "longitude": -90.09722
      },
      {
        "numJobs": 134,
        "name": "Minnetonka, MN",
        "stateAbbreviation": "MN",
        "stateName": "Minnesota",
        "id": 1142552,
        "latitude": 44.91333,
        "longitude": -93.50306
      },
      {
        "numJobs": 133,
        "name": "Saint Charles, MO",
        "stateAbbreviation": "MO",
        "stateName": "Missouri",
        "id": 1131268,
        "latitude": 38.78389,
        "longitude": -90.48111
      },
      {
        "numJobs": 132,
        "name": "Downers Grove, IL",
        "stateAbbreviation": "IL",
        "stateName": "Illinois",
        "id": 1128825,
        "latitude": 41.80889,
        "longitude": -88.01111
      },
      {
        "numJobs": 132,
        "name": "Bakersfield, CA",
        "stateAbbreviation": "CA",
        "stateName": "California",
        "id": 1146557,
        "latitude": 35.37333,
        "longitude": -119.01778
      },
      {
        "numJobs": 132,
        "name": "Shreveport, LA",
        "stateAbbreviation": "LA",
        "stateName": "Louisiana",
        "id": 1150108,
        "latitude": 32.525,
        "longitude": -93.75
      },
      {
        "numJobs": 132,
        "name": "Kansas City, KS",
        "stateAbbreviation": "KS",
        "stateName": "Kansas",
        "id": 4990210,
        "latitude": 39.11417,
        "longitude": -94.62722
      },
      {
        "numJobs": 131,
        "name": "Clarksville, TN",
        "stateAbbreviation": "TN",
        "stateName": "Tennessee",
        "id": 1144270,
        "latitude": 36.52972,
        "longitude": -87.35944
      },
      {
        "numJobs": 131,
        "name": "McKinney, TX",
        "stateAbbreviation": "TX",
        "stateName": "Texas",
        "id": 1140029,
        "latitude": 33.1975,
        "longitude": -96.615
      },
      {
        "numJobs": 131,
        "name": "Daytona Beach, FL",
        "stateAbbreviation": "FL",
        "stateName": "Florida",
        "id": 1154028,
        "latitude": 29.21056,
        "longitude": -81.02306
      },
      {
        "numJobs": 130,
        "name": "Jonesboro, AR",
        "stateAbbreviation": "AR",
        "stateName": "Arkansas",
        "id": 1143154,
        "latitude": 35.84222,
        "longitude": -90.70417
      },
      {
        "numJobs": 130,
        "name": "Macon, GA",
        "stateAbbreviation": "GA",
        "stateName": "Georgia",
        "id": 1155868,
        "latitude": 32.84056,
        "longitude": -83.6325
      },
      {
        "numJobs": 129,
        "name": "Carmel, IN",
        "stateAbbreviation": "IN",
        "stateName": "Indiana",
        "id": 1144991,
        "latitude": 39.97833,
        "longitude": -86.11806
      },
      {
        "numJobs": 128,
        "name": "Burbank, CA",
        "stateAbbreviation": "CA",
        "stateName": "California",
        "id": 1146756,
        "latitude": 34.18083,
        "longitude": -118.30806
      },
      {
        "numJobs": 128,
        "name": "Roanoke, VA",
        "stateAbbreviation": "VA",
        "stateName": "Virginia",
        "id": 1130242,
        "latitude": 37.27083,
        "longitude": -79.94167
      },
      {
        "numJobs": 127,
        "name": "Orange, CA",
        "stateAbbreviation": "CA",
        "stateName": "California",
        "id": 1146843,
        "latitude": 33.78778,
        "longitude": -117.85222
      },
      {
        "numJobs": 126,
        "name": "Parsippany, NJ",
        "stateAbbreviation": "NJ",
        "stateName": "New Jersey",
        "id": 1126931,
        "latitude": 40.85778,
        "longitude": -74.42639
      },
      {
        "numJobs": 126,
        "name": "Flint, MI",
        "stateAbbreviation": "MI",
        "stateName": "Michigan",
        "id": 1134766,
        "latitude": 43.0125,
        "longitude": -83.6875
      },
      {
        "numJobs": 126,
        "name": "Renton, WA",
        "stateAbbreviation": "WA",
        "stateName": "Washington",
        "id": 1150501,
        "latitude": 47.48306,
        "longitude": -122.21583
      },
      {
        "numJobs": 126,
        "name": "San Bernardino, CA",
        "stateAbbreviation": "CA",
        "stateName": "California",
        "id": 1147140,
        "latitude": 34.10833,
        "longitude": -117.28889
      },
      {
        "numJobs": 125,
        "name": "Torrance, CA",
        "stateAbbreviation": "CA",
        "stateName": "California",
        "id": 1146894,
        "latitude": 33.83583,
        "longitude": -118.33972
      },
      {
        "numJobs": 124,
        "name": "Chantilly, VA",
        "stateAbbreviation": "VA",
        "stateName": "Virginia",
        "id": 1130353,
        "latitude": 38.89417,
        "longitude": -77.43139
      },
      {
        "numJobs": 124,
        "name": "Providence, RI",
        "stateAbbreviation": "RI",
        "stateName": "Rhode Island",
        "id": 1151289,
        "latitude": 41.82389,
        "longitude": -71.41333
      },
      {
        "numJobs": 124,
        "name": "Lexington, KY",
        "stateAbbreviation": "KY",
        "stateName": "Kentucky",
        "id": 1137677,
        "latitude": 37.98861,
        "longitude": -84.47778
      },
      {
        "numJobs": 124,
        "name": "Norman, OK",
        "stateAbbreviation": "OK",
        "stateName": "Oklahoma",
        "id": 1136949,
        "latitude": 35.2225,
        "longitude": -97.43917
      },
      {
        "numJobs": 124,
        "name": "Hayward, CA",
        "stateAbbreviation": "CA",
        "stateName": "California",
        "id": 1147358,
        "latitude": 37.66889,
        "longitude": -122.07972
      },
      {
        "numJobs": 124,
        "name": "Danbury, CT",
        "stateAbbreviation": "CT",
        "stateName": "Connecticut",
        "id": 1148332,
        "latitude": 41.39472,
        "longitude": -73.45444
      },
      {
        "numJobs": 123,
        "name": "Charleston, WV",
        "stateAbbreviation": "WV",
        "stateName": "West Virginia",
        "id": 1143753,
        "latitude": 38.34972,
        "longitude": -81.63278
      },
      {
        "numJobs": 122,
        "name": "Terre Haute, IN",
        "stateAbbreviation": "IN",
        "stateName": "Indiana",
        "id": 1145310,
        "latitude": 39.46667,
        "longitude": -87.41389
      },
      {
        "numJobs": 122,
        "name": "Novi, MI",
        "stateAbbreviation": "MI",
        "stateName": "Michigan",
        "id": 1134704,
        "latitude": 42.48056,
        "longitude": -83.47556
      },
      {
        "numJobs": 122,
        "name": "Appleton, WI",
        "stateAbbreviation": "WI",
        "stateName": "Wisconsin",
        "id": 1133289,
        "latitude": 44.26194,
        "longitude": -88.41528
      },
      {
        "numJobs": 121,
        "name": "Grand Island, NE",
        "stateAbbreviation": "NE",
        "stateName": "Nebraska",
        "id": 1136313,
        "latitude": 40.925,
        "longitude": -98.34167
      },
      {
        "numJobs": 121,
        "name": "Sioux City, IA",
        "stateAbbreviation": "IA",
        "stateName": "Iowa",
        "id": 1149480,
        "latitude": 42.5,
        "longitude": -96.4
      },
      {
        "numJobs": 121,
        "name": "Green Bay, WI",
        "stateAbbreviation": "WI",
        "stateName": "Wisconsin",
        "id": 1133406,
        "latitude": 44.51917,
        "longitude": -88.01972
      },
      {
        "numJobs": 120,
        "name": "Bentonville, AR",
        "stateAbbreviation": "AR",
        "stateName": "Arkansas",
        "id": 1143031,
        "latitude": 36.37278,
        "longitude": -94.20861
      },
      {
        "numJobs": 120,
        "name": "Spokane, WA",
        "stateAbbreviation": "WA",
        "stateName": "Washington",
        "id": 1150554,
        "latitude": 47.65889,
        "longitude": -117.425
      },
      {
        "numJobs": 119,
        "name": "Sioux Falls, SD",
        "stateAbbreviation": "SD",
        "stateName": "South Dakota",
        "id": 1141041,
        "latitude": 43.55,
        "longitude": -96.7
      },
      {
        "numJobs": 119,
        "name": "Columbia, MO",
        "stateAbbreviation": "MO",
        "stateName": "Missouri",
        "id": 1130886,
        "latitude": 38.95167,
        "longitude": -92.33389
      },
      {
        "numJobs": 119,
        "name": "Santa Barbara, CA",
        "stateAbbreviation": "CA",
        "stateName": "California",
        "id": 1147473,
        "latitude": 34.42083,
        "longitude": -119.69722
      },
      {
        "numJobs": 118,
        "name": "Lancaster, PA",
        "stateAbbreviation": "PA",
        "stateName": "Pennsylvania",
        "id": 1152360,
        "latitude": 40.03778,
        "longitude": -76.30583
      },
      {
        "numJobs": 117,
        "name": "Northbrook, IL",
        "stateAbbreviation": "IL",
        "stateName": "Illinois",
        "id": 1128934,
        "latitude": 42.1275,
        "longitude": -87.82889
      },
      {
        "numJobs": 117,
        "name": "Sarasota, FL",
        "stateAbbreviation": "FL",
        "stateName": "Florida",
        "id": 1154350,
        "latitude": 27.33611,
        "longitude": -82.53083
      },
      {
        "numJobs": 117,
        "name": "Bowling Green, KY",
        "stateAbbreviation": "KY",
        "stateName": "Kentucky",
        "id": 1137525,
        "latitude": 36.99028,
        "longitude": -86.44361
      },
      {
        "numJobs": 116,
        "name": "El Segundo, CA",
        "stateAbbreviation": "CA",
        "stateName": "California",
        "id": 1146779,
        "latitude": 33.91917,
        "longitude": -118.41556
      },
      {
        "numJobs": 116,
        "name": "Charlottesville, VA",
        "stateAbbreviation": "VA",
        "stateName": "Virginia",
        "id": 1130001,
        "latitude": 38.02917,
        "longitude": -78.47694
      },
      {
        "numJobs": 116,
        "name": "Clearwater, FL",
        "stateAbbreviation": "FL",
        "stateName": "Florida",
        "id": 1154388,
        "latitude": 27.96556,
        "longitude": -82.80028
      },
      {
        "numJobs": 115,
        "name": "Rockford, IL",
        "stateAbbreviation": "IL",
        "stateName": "Illinois",
        "id": 1129425,
        "latitude": 42.27111,
        "longitude": -89.09389
      },
      {
        "numJobs": 115,
        "name": "Norcross, GA",
        "stateAbbreviation": "GA",
        "stateName": "Georgia",
        "id": 1155667,
        "latitude": 33.94111,
        "longitude": -84.21361
      },
      {
        "numJobs": 115,
        "name": "Bangor, ME",
        "stateAbbreviation": "ME",
        "stateName": "Maine",
        "id": 1135774,
        "latitude": 44.80111,
        "longitude": -68.77833
      },
      {
        "numJobs": 115,
        "name": "Walnut Creek, CA",
        "stateAbbreviation": "CA",
        "stateName": "California",
        "id": 1147417,
        "latitude": 37.90639,
        "longitude": -122.06389
      },
      {
        "numJobs": 114,
        "name": "Cedar Rapids, IA",
        "stateAbbreviation": "IA",
        "stateName": "Iowa",
        "id": 1149160,
        "latitude": 42.00833,
        "longitude": -91.64389
      },
      {
        "numJobs": 114,
        "name": "Tacoma, WA",
        "stateAbbreviation": "WA",
        "stateName": "Washington",
        "id": 1150517,
        "latitude": 47.25306,
        "longitude": -122.44306
      },
      {
        "numJobs": 114,
        "name": "Glendale, AZ",
        "stateAbbreviation": "AZ",
        "stateName": "Arizona",
        "id": 1133888,
        "latitude": 33.53861,
        "longitude": -112.18528
      },
      {
        "numJobs": 114,
        "name": "Loveland, CO",
        "stateAbbreviation": "CO",
        "stateName": "Colorado",
        "id": 1148237,
        "latitude": 40.39778,
        "longitude": -105.07444
      },
      {
        "numJobs": 113,
        "name": "Denton, TX",
        "stateAbbreviation": "TX",
        "stateName": "Texas",
        "id": 1139980,
        "latitude": 33.21472,
        "longitude": -97.13278
      },
      {
        "numJobs": 113,
        "name": "Dover, DE",
        "stateAbbreviation": "DE",
        "stateName": "Delaware",
        "id": 1156347,
        "latitude": 39.15806,
        "longitude": -75.52472
      },
      {
        "numJobs": 113,
        "name": "Altamonte Springs, FL",
        "stateAbbreviation": "FL",
        "stateName": "Florida",
        "id": 1154211,
        "latitude": 28.66083,
        "longitude": -81.36583
      },
      {
        "numJobs": 113,
        "name": "Modesto, CA",
        "stateAbbreviation": "CA",
        "stateName": "California",
        "id": 1146953,
        "latitude": 37.63917,
        "longitude": -120.99583
      },
      {
        "numJobs": 113,
        "name": "Flagstaff, AZ",
        "stateAbbreviation": "AZ",
        "stateName": "Arizona",
        "id": 1133807,
        "latitude": 35.19806,
        "longitude": -111.65056
      },
      {
        "numJobs": 112,
        "name": "Corpus Christi, TX",
        "stateAbbreviation": "TX",
        "stateName": "Texas",
        "id": 1139919,
        "latitude": 27.80028,
        "longitude": -97.39611
      },
      {
        "numJobs": 112,
        "name": "Kent, WA",
        "stateAbbreviation": "WA",
        "stateName": "Washington",
        "id": 1150471,
        "latitude": 47.38111,
        "longitude": -122.23361
      },
      {
        "numJobs": 111,
        "name": "Jackson, TN",
        "stateAbbreviation": "TN",
        "stateName": "Tennessee",
        "id": 1144353,
        "latitude": 35.61444,
        "longitude": -88.81389
      },
      {
        "numJobs": 111,
        "name": "Farmington Hills, MI",
        "stateAbbreviation": "MI",
        "stateName": "Michigan",
        "id": 1159753,
        "latitude": 42.48528,
        "longitude": -83.37722
      },
      {
        "numJobs": 111,
        "name": "Bradenton, FL",
        "stateAbbreviation": "FL",
        "stateName": "Florida",
        "id": 1154335,
        "latitude": 27.49861,
        "longitude": -82.575
      },
      {
        "numJobs": 111,
        "name": "Staten Island, NY",
        "stateAbbreviation": "NY",
        "stateName": "New York",
        "id": 1132430,
        "latitude": 40.58901,
        "longitude": -74.145874
      },
      {
        "numJobs": 111,
        "name": "Storm Lake, IA",
        "stateAbbreviation": "IA",
        "stateName": "Iowa",
        "id": 1149506,
        "latitude": 42.64111,
        "longitude": -95.20944
      },
      {
        "numJobs": 110,
        "name": "Newport News, VA",
        "stateAbbreviation": "VA",
        "stateName": "Virginia",
        "id": 1130305,
        "latitude": 36.97861,
        "longitude": -76.42833
      },
      {
        "numJobs": 110,
        "name": "Towson, MD",
        "stateAbbreviation": "MD",
        "stateName": "Maryland",
        "id": 1153644,
        "latitude": 39.40139,
        "longitude": -76.60222
      },
      {
        "numJobs": 109,
        "name": "Glendale, CA",
        "stateAbbreviation": "CA",
        "stateName": "California",
        "id": 1146787,
        "latitude": 34.1425,
        "longitude": -118.25417
      },
      {
        "numJobs": 109,
        "name": "Albany, GA",
        "stateAbbreviation": "GA",
        "stateName": "Georgia",
        "id": 1155542,
        "latitude": 31.57833,
        "longitude": -84.15583
      },
      {
        "numJobs": 108,
        "name": "Hampton, VA",
        "stateAbbreviation": "VA",
        "stateName": "Virginia",
        "id": 1130294,
        "latitude": 37.02972,
        "longitude": -76.34556
      },
      {
        "numJobs": 108,
        "name": "Lakeland, FL",
        "stateAbbreviation": "FL",
        "stateName": "Florida",
        "id": 1154143,
        "latitude": 28.03917,
        "longitude": -81.95
      },
      {
        "numJobs": 108,
        "name": "Redmond, WA",
        "stateAbbreviation": "WA",
        "stateName": "Washington",
        "id": 1150499,
        "latitude": 47.67417,
        "longitude": -122.12028
      },
      {
        "numJobs": 108,
        "name": "Boulder, CO",
        "stateAbbreviation": "CO",
        "stateName": "Colorado",
        "id": 1148112,
        "latitude": 40.015,
        "longitude": -105.27
      },
      {
        "numJobs": 106,
        "name": "Franklin, TN",
        "stateAbbreviation": "TN",
        "stateName": "Tennessee",
        "id": 1144518,
        "latitude": 35.925,
        "longitude": -86.86889
      },
      {
        "numJobs": 105,
        "name": "The Woodlands, TX",
        "stateAbbreviation": "TX",
        "stateName": "Texas",
        "id": 1161666,
        "latitude": 30.15778,
        "longitude": -95.48917
      },
      {
        "numJobs": 105,
        "name": "Culver City, CA",
        "stateAbbreviation": "CA",
        "stateName": "California",
        "id": 1146771,
        "latitude": 34.02111,
        "longitude": -118.39556
      },
      {
        "numJobs": 105,
        "name": "White Plains, NY",
        "stateAbbreviation": "NY",
        "stateName": "New York",
        "id": 1132464,
        "latitude": 41.03389,
        "longitude": -73.76333
      },
      {
        "numJobs": 105,
        "name": "Melville, NY",
        "stateAbbreviation": "NY",
        "stateName": "New York",
        "id": 1132326,
        "latitude": 40.79333,
        "longitude": -73.41556
      },
      {
        "numJobs": 104,
        "name": "Chapel Hill, NC",
        "stateAbbreviation": "NC",
        "stateName": "North Carolina",
        "id": 1138696,
        "latitude": 35.91306,
        "longitude": -79.05611
      },
      {
        "numJobs": 104,
        "name": "Orangeburg, SC",
        "stateAbbreviation": "SC",
        "stateName": "South Carolina",
        "id": 1155269,
        "latitude": 33.49167,
        "longitude": -80.85583
      },
      {
        "numJobs": 104,
        "name": "Portland, ME",
        "stateAbbreviation": "ME",
        "stateName": "Maine",
        "id": 1135898,
        "latitude": 43.66139,
        "longitude": -70.25583
      },
      {
        "numJobs": 104,
        "name": "Kalamazoo, MI",
        "stateAbbreviation": "MI",
        "stateName": "Michigan",
        "id": 1134900,
        "latitude": 42.29167,
        "longitude": -85.58722
      },
      {
        "numJobs": 104,
        "name": "Eugene, OR",
        "stateAbbreviation": "OR",
        "stateName": "Oregon",
        "id": 1151469,
        "latitude": 44.05222,
        "longitude": -123.08556
      },
      {
        "numJobs": 104,
        "name": "Yonkers, NY",
        "stateAbbreviation": "NY",
        "stateName": "New York",
        "id": 1132473,
        "latitude": 40.93111,
        "longitude": -73.89917
      },
      {
        "numJobs": 104,
        "name": "Manchester, NH",
        "stateAbbreviation": "NH",
        "stateName": "New Hampshire",
        "id": 1147907,
        "latitude": 42.99556,
        "longitude": -71.45528
      },
      {
        "numJobs": 103,
        "name": "Brentwood, TN",
        "stateAbbreviation": "TN",
        "stateName": "Tennessee",
        "id": 1144496,
        "latitude": 36.000107,
        "longitude": -86.78849
      },
      {
        "numJobs": 103,
        "name": "Aurora, IL",
        "stateAbbreviation": "IL",
        "stateName": "Illinois",
        "id": 1128780,
        "latitude": 41.76056,
        "longitude": -88.32
      },
      {
        "numJobs": 103,
        "name": "Salisbury, MD",
        "stateAbbreviation": "MD",
        "stateName": "Maryland",
        "id": 1153799,
        "latitude": 38.36056,
        "longitude": -75.59972
      },
      {
        "numJobs": 102,
        "name": "Roswell, GA",
        "stateAbbreviation": "GA",
        "stateName": "Georgia",
        "id": 1155681,
        "latitude": 34.02306,
        "longitude": -84.36167
      },
      {
        "numJobs": 101,
        "name": "Murfreesboro, TN",
        "stateAbbreviation": "TN",
        "stateName": "Tennessee",
        "id": 1144540,
        "latitude": 35.84556,
        "longitude": -86.39028
      },
      {
        "numJobs": 101,
        "name": "Midvale, UT",
        "stateAbbreviation": "UT",
        "stateName": "Utah",
        "id": 1128283,
        "latitude": 40.61111,
        "longitude": -111.89917
      },
      {
        "numJobs": 101,
        "name": "Elkhart, IN",
        "stateAbbreviation": "IN",
        "stateName": "Indiana",
        "id": 1144901,
        "latitude": 41.68194,
        "longitude": -85.97667
      },
      {
        "numJobs": 101,
        "name": "Carrollton, TX",
        "stateAbbreviation": "TX",
        "stateName": "Texas",
        "id": 1139964,
        "latitude": 32.95361,
        "longitude": -96.89
      },
      {
        "numJobs": 101,
        "name": "Skowhegan, ME",
        "stateAbbreviation": "ME",
        "stateName": "Maine",
        "id": 1135694,
        "latitude": 44.765,
        "longitude": -69.71972
      },
      {
        "numJobs": 101,
        "name": "Springfield, MA",
        "stateAbbreviation": "MA",
        "stateName": "Massachusetts",
        "id": 1154860,
        "latitude": 42.10139,
        "longitude": -72.59028
      },
      {
        "numJobs": 99,
        "name": "Lubbock, TX",
        "stateAbbreviation": "TX",
        "stateName": "Texas",
        "id": 1140320,
        "latitude": 33.57778,
        "longitude": -101.85472
      },
      {
        "numJobs": 99,
        "name": "Fargo, ND",
        "stateAbbreviation": "ND",
        "stateName": "North Dakota",
        "id": 1156255,
        "latitude": 46.87722,
        "longitude": -96.78944
      },
      {
        "numJobs": 98,
        "name": "Springfield, VA",
        "stateAbbreviation": "VA",
        "stateName": "Virginia",
        "id": 1130409,
        "latitude": 38.791557,
        "longitude": -77.18702
      },
      {
        "numJobs": 98,
        "name": "Beaumont, TX",
        "stateAbbreviation": "TX",
        "stateName": "Texas",
        "id": 1139817,
        "latitude": 30.08583,
        "longitude": -94.10167
      },
      {
        "numJobs": 98,
        "name": "Suwanee, GA",
        "stateAbbreviation": "GA",
        "stateName": "Georgia",
        "id": 1155695,
        "latitude": 34.05139,
        "longitude": -84.07139
      },
      {
        "numJobs": 98,
        "name": "Woburn, MA",
        "stateAbbreviation": "MA",
        "stateName": "Massachusetts",
        "id": 1154729,
        "latitude": 42.47917,
        "longitude": -71.15278
      },
      {
        "numJobs": 98,
        "name": "Norwood, MA",
        "stateAbbreviation": "MA",
        "stateName": "Massachusetts",
        "id": 1154655,
        "latitude": 42.19444,
        "longitude": -71.2
      },
      {
        "numJobs": 97,
        "name": "Peoria, IL",
        "stateAbbreviation": "IL",
        "stateName": "Illinois",
        "id": 1129349,
        "latitude": 40.69361,
        "longitude": -89.58889
      },
      {
        "numJobs": 96,
        "name": "Alta, IA",
        "stateAbbreviation": "IA",
        "stateName": "Iowa",
        "id": 1149500,
        "latitude": 42.67361,
        "longitude": -95.29028
      },
      {
        "numJobs": 96,
        "name": "Carson City, NV",
        "stateAbbreviation": "NV",
        "stateName": "Nevada",
        "id": 1149563,
        "latitude": 39.16389,
        "longitude": -119.76639
      },
      {
        "numJobs": 96,
        "name": "Everett, WA",
        "stateAbbreviation": "WA",
        "stateName": "Washington",
        "id": 1150458,
        "latitude": 47.97917,
        "longitude": -122.20083
      },
      {
        "numJobs": 96,
        "name": "Lakewood, CO",
        "stateAbbreviation": "CO",
        "stateName": "Colorado",
        "id": 1164305,
        "latitude": 39.70472,
        "longitude": -105.08083
      },
      {
        "numJobs": 96,
        "name": "Nashua, NH",
        "stateAbbreviation": "NH",
        "stateName": "New Hampshire",
        "id": 1147911,
        "latitude": 42.76528,
        "longitude": -71.46806
      },
      {
        "numJobs": 95,
        "name": "Frederick, MD",
        "stateAbbreviation": "MD",
        "stateName": "Maryland",
        "id": 1153851,
        "latitude": 39.41417,
        "longitude": -77.41083
      },
      {
        "numJobs": 95,
        "name": "Hillsboro, OR",
        "stateAbbreviation": "OR",
        "stateName": "Oregon",
        "id": 1151603,
        "latitude": 45.52306,
        "longitude": -122.98861
      },
      {
        "numJobs": 95,
        "name": "South San Francisco, CA",
        "stateAbbreviation": "CA",
        "stateName": "California",
        "id": 1147412,
        "latitude": 37.65472,
        "longitude": -122.40667
      },
      {
        "numJobs": 94,
        "name": "High Point, NC",
        "stateAbbreviation": "NC",
        "stateName": "North Carolina",
        "id": 1138756,
        "latitude": 35.95556,
        "longitude": -80.00556
      },
      {
        "numJobs": 94,
        "name": "Santa Rosa, CA",
        "stateAbbreviation": "CA",
        "stateName": "California",
        "id": 1147518,
        "latitude": 38.44056,
        "longitude": -122.71333
      },
      {
        "numJobs": 93,
        "name": "Totowa, NJ",
        "stateAbbreviation": "NJ",
        "stateName": "New Jersey",
        "id": 1127017,
        "latitude": 40.905,
        "longitude": -74.21028
      },
      {
        "numJobs": 93,
        "name": "Oakland, ME",
        "stateAbbreviation": "ME",
        "stateName": "Maine",
        "id": 1135763,
        "latitude": 44.54028,
        "longitude": -69.7225
      },
      {
        "numJobs": 93,
        "name": "Gainesville, FL",
        "stateAbbreviation": "FL",
        "stateName": "Florida",
        "id": 1154062,
        "latitude": 29.65139,
        "longitude": -82.325
      },
      {
        "numJobs": 92,
        "name": "Athens, GA",
        "stateAbbreviation": "GA",
        "stateName": "Georgia",
        "id": 1155564,
        "latitude": 33.96083,
        "longitude": -83.37806
      },
      {
        "numJobs": 92,
        "name": "Newark, DE",
        "stateAbbreviation": "DE",
        "stateName": "Delaware",
        "id": 1156369,
        "latitude": 39.68361,
        "longitude": -75.75
      },
      {
        "numJobs": 92,
        "name": "New Haven, CT",
        "stateAbbreviation": "CT",
        "stateName": "Connecticut",
        "id": 1148466,
        "latitude": 41.30806,
        "longitude": -72.92861
      },
      {
        "numJobs": 91,
        "name": "Bedford, IN",
        "stateAbbreviation": "IN",
        "stateName": "Indiana",
        "id": 1144779,
        "latitude": 38.86111,
        "longitude": -86.48722
      },
      {
        "numJobs": 91,
        "name": "Joliet, IL",
        "stateAbbreviation": "IL",
        "stateName": "Illinois",
        "id": 1128880,
        "latitude": 41.525,
        "longitude": -88.08167
      },
      {
        "numJobs": 91,
        "name": "Warsaw, IN",
        "stateAbbreviation": "IN",
        "stateName": "Indiana",
        "id": 1145346,
        "latitude": 41.23806,
        "longitude": -85.85306
      },
      {
        "numJobs": 91,
        "name": "Annapolis, MD",
        "stateAbbreviation": "MD",
        "stateName": "Maryland",
        "id": 1153523,
        "latitude": 38.97833,
        "longitude": -76.4925
      },
      {
        "numJobs": 91,
        "name": "Santa Fe, NM",
        "stateAbbreviation": "NM",
        "stateName": "New Mexico",
        "id": 1138171,
        "latitude": 35.68694,
        "longitude": -105.93722
      },
      {
        "numJobs": 90,
        "name": "Florence, SC",
        "stateAbbreviation": "SC",
        "stateName": "South Carolina",
        "id": 1155168,
        "latitude": 34.19528,
        "longitude": -79.76278
      },
      {
        "numJobs": 90,
        "name": "Spartanburg, SC",
        "stateAbbreviation": "SC",
        "stateName": "South Carolina",
        "id": 1155311,
        "latitude": 34.94944,
        "longitude": -81.93222
      },
      {
        "numJobs": 90,
        "name": "Valdosta, GA",
        "stateAbbreviation": "GA",
        "stateName": "Georgia",
        "id": 1155947,
        "latitude": 30.8325,
        "longitude": -83.27861
      },
      {
        "numJobs": 90,
        "name": "Edmond, OK",
        "stateAbbreviation": "OK",
        "stateName": "Oklahoma",
        "id": 1136930,
        "latitude": 35.65278,
        "longitude": -97.47778
      },
      {
        "numJobs": 90,
        "name": "San Bruno, CA",
        "stateAbbreviation": "CA",
        "stateName": "California",
        "id": 1147399,
        "latitude": 37.63056,
        "longitude": -122.41
      },
      {
        "numJobs": 90,
        "name": "Rancho Cucamonga, CA",
        "stateAbbreviation": "CA",
        "stateName": "California",
        "id": 1147132,
        "latitude": 34.10639,
        "longitude": -117.59222
      },
      {
        "numJobs": 89,
        "name": "Temple, TX",
        "stateAbbreviation": "TX",
        "stateName": "Texas",
        "id": 1140277,
        "latitude": 31.09806,
        "longitude": -97.3425
      },
      {
        "numJobs": 89,
        "name": "North Haven, CT",
        "stateAbbreviation": "CT",
        "stateName": "Connecticut",
        "id": 1148468,
        "latitude": 41.39083,
        "longitude": -72.86
      },
      {
        "numJobs": 88,
        "name": "Waterville, ME",
        "stateAbbreviation": "ME",
        "stateName": "Maine",
        "id": 1135770,
        "latitude": 44.55194,
        "longitude": -69.63222
      },
      {
        "numJobs": 88,
        "name": "Cherokee, IA",
        "stateAbbreviation": "IA",
        "stateName": "Iowa",
        "id": 1148679,
        "latitude": 42.74944,
        "longitude": -95.55139
      },
      {
        "numJobs": 87,
        "name": "Morgantown, WV",
        "stateAbbreviation": "WV",
        "stateName": "West Virginia",
        "id": 1143936,
        "latitude": 39.62944,
        "longitude": -79.95611
      },
      {
        "numJobs": 87,
        "name": "Edison, NJ",
        "stateAbbreviation": "NJ",
        "stateName": "New Jersey",
        "id": 1126748,
        "latitude": 40.52424,
        "longitude": -74.41246
      },
      {
        "numJobs": 87,
        "name": "Champaign, IL",
        "stateAbbreviation": "IL",
        "stateName": "Illinois",
        "id": 1128722,
        "latitude": 40.11639,
        "longitude": -88.24333
      },
      {
        "numJobs": 87,
        "name": "Conroe, TX",
        "stateAbbreviation": "TX",
        "stateName": "Texas",
        "id": 1140144,
        "latitude": 30.31167,
        "longitude": -95.45583
      },
      {
        "numJobs": 87,
        "name": "Davenport, IA",
        "stateAbbreviation": "IA",
        "stateName": "Iowa",
        "id": 1149216,
        "latitude": 41.52361,
        "longitude": -90.5775
      },
      {
        "numJobs": 87,
        "name": "Carlsbad, CA",
        "stateAbbreviation": "CA",
        "stateName": "California",
        "id": 1147279,
        "latitude": 33.15806,
        "longitude": -117.34972
      },
      {
        "numJobs": 86,
        "name": "Vienna, VA",
        "stateAbbreviation": "VA",
        "stateName": "Virginia",
        "id": 1130417,
        "latitude": 38.90111,
        "longitude": -77.26556
      },
      {
        "numJobs": 86,
        "name": "Baxter, MN",
        "stateAbbreviation": "MN",
        "stateName": "Minnesota",
        "id": 1142308,
        "latitude": 46.34333,
        "longitude": -94.28639
      },
      {
        "numJobs": 86,
        "name": "Framingham, MA",
        "stateAbbreviation": "MA",
        "stateName": "Massachusetts",
        "id": 1154571,
        "latitude": 42.27917,
        "longitude": -71.41667
      },
      {
        "numJobs": 86,
        "name": "Littleton, CO",
        "stateAbbreviation": "CO",
        "stateName": "Colorado",
        "id": 1148194,
        "latitude": 39.61333,
        "longitude": -105.01611
      },
      {
        "numJobs": 85,
        "name": "Orem, UT",
        "stateAbbreviation": "UT",
        "stateName": "Utah",
        "id": 1128244,
        "latitude": 40.29694,
        "longitude": -111.69389
      },
      {
        "numJobs": 85,
        "name": "Elk Grove Village, IL",
        "stateAbbreviation": "IL",
        "stateName": "Illinois",
        "id": 1158001,
        "latitude": 42.00389,
        "longitude": -87.97028
      },
      {
        "numJobs": 85,
        "name": "Summerville, SC",
        "stateAbbreviation": "SC",
        "stateName": "South Carolina",
        "id": 1155103,
        "latitude": 33.02133,
        "longitude": -80.177536
      },
      {
        "numJobs": 85,
        "name": "Medford, OR",
        "stateAbbreviation": "OR",
        "stateName": "Oregon",
        "id": 1151534,
        "latitude": 42.32667,
        "longitude": -122.87444
      },
      {
        "numJobs": 85,
        "name": "Beaverton, OR",
        "stateAbbreviation": "OR",
        "stateName": "Oregon",
        "id": 1151576,
        "latitude": 45.48722,
        "longitude": -122.8025
      },
      {
        "numJobs": 84,
        "name": "Cherry Hill, NJ",
        "stateAbbreviation": "NJ",
        "stateName": "New Jersey",
        "id": 1127090,
        "latitude": 39.90461,
        "longitude": -74.997
      },
      {
        "numJobs": 84,
        "name": "Fredericksburg, VA",
        "stateAbbreviation": "VA",
        "stateName": "Virginia",
        "id": 1130363,
        "latitude": 38.30306,
        "longitude": -77.46083
      },
      {
        "numJobs": 84,
        "name": "York, PA",
        "stateAbbreviation": "PA",
        "stateName": "Pennsylvania",
        "id": 1153468,
        "latitude": 39.9625,
        "longitude": -76.72806
      },
      {
        "numJobs": 84,
        "name": "Burlington, MA",
        "stateAbbreviation": "MA",
        "stateName": "Massachusetts",
        "id": 1154543,
        "latitude": 42.50472,
        "longitude": -71.19611
      },
      {
        "numJobs": 84,
        "name": "Dearborn, MI",
        "stateAbbreviation": "MI",
        "stateName": "Michigan",
        "id": 1134642,
        "latitude": 42.32222,
        "longitude": -83.17639
      },
      {
        "numJobs": 84,
        "name": "Yakima, WA",
        "stateAbbreviation": "WA",
        "stateName": "Washington",
        "id": 1150604,
        "latitude": 46.60222,
        "longitude": -120.50472
      },
      {
        "numJobs": 84,
        "name": "Bothell, WA",
        "stateAbbreviation": "WA",
        "stateName": "Washington",
        "id": 1150445,
        "latitude": 47.7625,
        "longitude": -122.20417
      },
      {
        "numJobs": 84,
        "name": "Kingman, AZ",
        "stateAbbreviation": "AZ",
        "stateName": "Arizona",
        "id": 1133834,
        "latitude": 35.18944,
        "longitude": -114.05222
      },
      {
        "numJobs": 84,
        "name": "Roseville, CA",
        "stateAbbreviation": "CA",
        "stateName": "California",
        "id": 1147226,
        "latitude": 38.75222,
        "longitude": -121.28694
      },
      {
        "numJobs": 84,
        "name": "Monte Vista, CO",
        "stateAbbreviation": "CO",
        "stateName": "Colorado",
        "id": 1148031,
        "latitude": 37.57917,
        "longitude": -106.1475
      },
      {
        "numJobs": 83,
        "name": "Oolitic, IN",
        "stateAbbreviation": "IN",
        "stateName": "Indiana",
        "id": 1144784,
        "latitude": 38.90083,
        "longitude": -86.52528
      },
      {
        "numJobs": 83,
        "name": "Lynchburg, VA",
        "stateAbbreviation": "VA",
        "stateName": "Virginia",
        "id": 1130113,
        "latitude": 37.41361,
        "longitude": -79.1425
      },
      {
        "numJobs": 83,
        "name": "Frisco, TX",
        "stateAbbreviation": "TX",
        "stateName": "Texas",
        "id": 1139994,
        "latitude": 33.15056,
        "longitude": -96.82333
      },
      {
        "numJobs": 83,
        "name": "Pottsville, PA",
        "stateAbbreviation": "PA",
        "stateName": "Pennsylvania",
        "id": 1153125,
        "latitude": 40.68556,
        "longitude": -76.19583
      },
      {
        "numJobs": 83,
        "name": "Saint George, UT",
        "stateAbbreviation": "UT",
        "stateName": "Utah",
        "id": 3724218,
        "latitude": 37.10417,
        "longitude": -113.58333
      },
      {
        "numJobs": 83,
        "name": "Yuma, AZ",
        "stateAbbreviation": "AZ",
        "stateName": "Arizona",
        "id": 1134005,
        "latitude": 32.72528,
        "longitude": -114.62361
      },
      {
        "numJobs": 83,
        "name": "Norwalk, CT",
        "stateAbbreviation": "CT",
        "stateName": "Connecticut",
        "id": 1148344,
        "latitude": 41.1175,
        "longitude": -73.40833
      },
      {
        "numJobs": 82,
        "name": "Williams, IN",
        "stateAbbreviation": "IN",
        "stateName": "Indiana",
        "id": 1144787,
        "latitude": 38.80444,
        "longitude": -86.64722
      },
      {
        "numJobs": 82,
        "name": "Springfield, IL",
        "stateAbbreviation": "IL",
        "stateName": "Illinois",
        "id": 1129562,
        "latitude": 39.80167,
        "longitude": -89.64361
      },
      {
        "numJobs": 82,
        "name": "Bainbridge, GA",
        "stateAbbreviation": "GA",
        "stateName": "Georgia",
        "id": 1155735,
        "latitude": 30.90361,
        "longitude": -84.57556
      },
      {
        "numJobs": 82,
        "name": "Del Norte, CO",
        "stateAbbreviation": "CO",
        "stateName": "Colorado",
        "id": 1147964,
        "latitude": 37.67889,
        "longitude": -106.35278
      },
      {
        "numJobs": 81,
        "name": "Trenton, NJ",
        "stateAbbreviation": "NJ",
        "stateName": "New Jersey",
        "id": 1127182,
        "latitude": 40.21694,
        "longitude": -74.74333
      },
      {
        "numJobs": 81,
        "name": "Fort Smith, AR",
        "stateAbbreviation": "AR",
        "stateName": "Arkansas",
        "id": 1143091,
        "latitude": 35.38583,
        "longitude": -94.39833
      },
      {
        "numJobs": 81,
        "name": "Buffalo Grove, IL",
        "stateAbbreviation": "IL",
        "stateName": "Illinois",
        "id": 1128800,
        "latitude": 42.15139,
        "longitude": -87.95972
      },
      {
        "numJobs": 81,
        "name": "Crystal Lake, IL",
        "stateAbbreviation": "IL",
        "stateName": "Illinois",
        "id": 1128819,
        "latitude": 42.24111,
        "longitude": -88.31611
      },
      {
        "numJobs": 81,
        "name": "Hickory, NC",
        "stateAbbreviation": "NC",
        "stateName": "North Carolina",
        "id": 1138808,
        "latitude": 35.73319,
        "longitude": -81.341194
      },
      {
        "numJobs": 81,
        "name": "Saint Cloud, MN",
        "stateAbbreviation": "MN",
        "stateName": "Minnesota",
        "id": 1142664,
        "latitude": 45.56083,
        "longitude": -94.16222
      },
      {
        "numJobs": 81,
        "name": "Felton, DE",
        "stateAbbreviation": "DE",
        "stateName": "Delaware",
        "id": 1156349,
        "latitude": 39.00833,
        "longitude": -75.57833
      },
      {
        "numJobs": 81,
        "name": "Reading, PA",
        "stateAbbreviation": "PA",
        "stateName": "Pennsylvania",
        "id": 1153175,
        "latitude": 40.33556,
        "longitude": -75.92722
      },
      {
        "numJobs": 81,
        "name": "Panama City, FL",
        "stateAbbreviation": "FL",
        "stateName": "Florida",
        "id": 1154305,
        "latitude": 30.15861,
        "longitude": -85.66028
      },
      {
        "numJobs": 81,
        "name": "Melbourne, FL",
        "stateAbbreviation": "FL",
        "stateName": "Florida",
        "id": 1154286,
        "latitude": 28.08333,
        "longitude": -80.60833
      },
      {
        "numJobs": 81,
        "name": "Chimayo, NM",
        "stateAbbreviation": "NM",
        "stateName": "New Mexico",
        "id": 1138022,
        "latitude": 36.00389,
        "longitude": -105.94639
      },
      {
        "numJobs": 81,
        "name": "Ardmore, OK",
        "stateAbbreviation": "OK",
        "stateName": "Oklahoma",
        "id": 1136769,
        "latitude": 34.17417,
        "longitude": -97.14333
      },
      {
        "numJobs": 81,
        "name": "Kirkland, WA",
        "stateAbbreviation": "WA",
        "stateName": "Washington",
        "id": 1150472,
        "latitude": 47.68167,
        "longitude": -122.2075
      },
      {
        "numJobs": 80,
        "name": "Deerfield, IL",
        "stateAbbreviation": "IL",
        "stateName": "Illinois",
        "id": 1128821,
        "latitude": 42.17111,
        "longitude": -87.84444
      },
      {
        "numJobs": 80,
        "name": "Kokomo, IN",
        "stateAbbreviation": "IN",
        "stateName": "Indiana",
        "id": 1145080,
        "latitude": 40.48639,
        "longitude": -86.13361
      },
      {
        "numJobs": 80,
        "name": "Manassas, VA",
        "stateAbbreviation": "VA",
        "stateName": "Virginia",
        "id": 1130381,
        "latitude": 38.75083,
        "longitude": -77.47556
      },
      {
        "numJobs": 80,
        "name": "Cairo, GA",
        "stateAbbreviation": "GA",
        "stateName": "Georgia",
        "id": 1155370,
        "latitude": 30.87722,
        "longitude": -84.20139
      },
      {
        "numJobs": 80,
        "name": "Lanham, MD",
        "stateAbbreviation": "MD",
        "stateName": "Maryland",
        "id": 1153870,
        "latitude": 38.96694,
        "longitude": -76.86222
      },
      {
        "numJobs": 80,
        "name": "Laramie, WY",
        "stateAbbreviation": "WY",
        "stateName": "Wyoming",
        "id": 1138352,
        "latitude": 41.31139,
        "longitude": -105.59056
      },
      {
        "numJobs": 80,
        "name": "Dubuque, IA",
        "stateAbbreviation": "IA",
        "stateName": "Iowa",
        "id": 1149290,
        "latitude": 42.50056,
        "longitude": -90.66444
      },
      {
        "numJobs": 80,
        "name": "Independence, MO",
        "stateAbbreviation": "MO",
        "stateName": "Missouri",
        "id": 1131039,
        "latitude": 39.09111,
        "longitude": -94.41528
      },
      {
        "numJobs": 80,
        "name": "Battle Creek, MI",
        "stateAbbreviation": "MI",
        "stateName": "Michigan",
        "id": 1134573,
        "latitude": 42.32111,
        "longitude": -85.17972
      },
      {
        "numJobs": 80,
        "name": "Chula Vista, CA",
        "stateAbbreviation": "CA",
        "stateName": "California",
        "id": 1147280,
        "latitude": 32.64,
        "longitude": -117.08333
      },
      {
        "numJobs": 79,
        "name": "Ogden, UT",
        "stateAbbreviation": "UT",
        "stateName": "Utah",
        "id": 1128221,
        "latitude": 41.22306,
        "longitude": -111.97306
      },
      {
        "numJobs": 79,
        "name": "Mission Viejo, CA",
        "stateAbbreviation": "CA",
        "stateName": "California",
        "id": 1146829,
        "latitude": 33.6,
        "longitude": -117.67111
      },
      {
        "numJobs": 79,
        "name": "Bishopville, SC",
        "stateAbbreviation": "SC",
        "stateName": "South Carolina",
        "id": 1154968,
        "latitude": 34.21806,
        "longitude": -80.24861
      },
      {
        "numJobs": 79,
        "name": "Fall River, MA",
        "stateAbbreviation": "MA",
        "stateName": "Massachusetts",
        "id": 1154779,
        "latitude": 41.70139,
        "longitude": -71.15556
      },
      {
        "numJobs": 79,
        "name": "Cheyenne, WY",
        "stateAbbreviation": "WY",
        "stateName": "Wyoming",
        "id": 1138322,
        "latitude": 41.14,
        "longitude": -104.81972
      },
      {
        "numJobs": 79,
        "name": "Abiquiu, NM",
        "stateAbbreviation": "NM",
        "stateName": "New Mexico",
        "id": 1138016,
        "latitude": 36.20722,
        "longitude": -106.31806
      },
      {
        "numJobs": 79,
        "name": "Chesterfield, MO",
        "stateAbbreviation": "MO",
        "stateName": "Missouri",
        "id": 1131207,
        "latitude": 38.66306,
        "longitude": -90.57694
      },
      {
        "numJobs": 78,
        "name": "Newport Beach, CA",
        "stateAbbreviation": "CA",
        "stateName": "California",
        "id": 1146837,
        "latitude": 33.61889,
        "longitude": -117.92806
      },
      {
        "numJobs": 78,
        "name": "Hagerstown, MD",
        "stateAbbreviation": "MD",
        "stateName": "Maryland",
        "id": 1153716,
        "latitude": 39.64167,
        "longitude": -77.72028
      },
      {
        "numJobs": 78,
        "name": "Cranston, RI",
        "stateAbbreviation": "RI",
        "stateName": "Rhode Island",
        "id": 1151253,
        "latitude": 41.77972,
        "longitude": -71.43778
      },
      {
        "numJobs": 78,
        "name": "Lenexa, KS",
        "stateAbbreviation": "KS",
        "stateName": "Kansas",
        "id": 1151040,
        "latitude": 38.95361,
        "longitude": -94.73333
      },
      {
        "numJobs": 78,
        "name": "Las Cruces, NM",
        "stateAbbreviation": "NM",
        "stateName": "New Mexico",
        "id": 1138109,
        "latitude": 32.31222,
        "longitude": -106.77778
      },
      {
        "numJobs": 78,
        "name": "Ontario, CA",
        "stateAbbreviation": "CA",
        "stateName": "California",
        "id": 1147122,
        "latitude": 34.06333,
        "longitude": -117.65
      },
      {
        "numJobs": 77,
        "name": "Fairmont, WV",
        "stateAbbreviation": "WV",
        "stateName": "West Virginia",
        "id": 1143878,
        "latitude": 39.485,
        "longitude": -80.14278
      },
      {
        "numJobs": 77,
        "name": "Royston, GA",
        "stateAbbreviation": "GA",
        "stateName": "Georgia",
        "id": 1155499,
        "latitude": 34.28694,
        "longitude": -83.11028
      },