{
  "success": true,
  "status": "OK",
  "jsessionid": "8A0B8252E41587A114938F66BA0B5F6A",
  "response": {
    "attributionURL": "http://www.glassdoor.com/Job/jobs.htm",
    "countReturned": 56,
    "states": {
      "South Carolina": {
        "numJobs": 1214,
        "name": "South Carolina",
        "id": 3411,
        "score": 0.6804093535462848,
        "latitude": 33.985115,
        "longitude": -80.96936
      },
      "Rhode Island": {
        "numJobs": 724,
        "name": "Rhode Island",
        "id": 3156,
        "score": 0.6735543649784639,
        "latitude": 41.675617,
        "longitude": -71.503815
      },
      "Federated s of Micronesia": {
        "numJobs": 1,
        "name": "Federated s of Micronesia",
        "id": 1229,
        "score": 0.16798048169338248,
        "latitude": "",
        "longitude": ""
      },
      "New Mexico": {
        "numJobs": 496,
        "name": "New Mexico",
        "id": 1181,
        "score": 0.5954135450722109,
        "latitude": 34.695763,
        "longitude": -106.22367
      },
      "Florida": {
        "numJobs": 8031,
        "name": "Florida",
        "id": 3318,
        "score": 0.8778669760152858,
        "latitude": 28.63532,
        "longitude": -82.39836
      },
      "Alabama": {
        "numJobs": 1399,
        "name": "Alabama",
        "id": 105,
        "score": 0.6978406916457989,
        "latitude": 33.074646,
        "longitude": -86.72501
      },
      "California": {
        "numJobs": 24860,
        "name": "California",
        "id": 2280,
        "score": 1,
        "latitude": 37.016674,
        "longitude": -120.15913
      },
      "New Hampshire": {
        "numJobs": 832,
        "name": "New Hampshire",
        "id": 2403,
        "score": 0.670664163461706,
        "latitude": 43.409595,
        "longitude": -71.541885
      },
      "Puerto Rico": {
        "numJobs": 103,
        "name": "Puerto Rico",
        "id": 1618,
        "score": 0.5605157798729173,
        "latitude": 18.250437,
        "longitude": -66.402916
      },
      "Remote": {
        "numJobs": 142,
        "name": "Remote",
        "id": 11047,
        "score": 0.6426837327355227,
        "latitude": "",
        "longitude": ""
      },
      "Massachusetts": {
        "numJobs": 7361,
        "name": "Massachusetts",
        "id": 3399,
        "score": 0.8930269691269334,
        "latitude": 42.204845,
        "longitude": -71.496826
      },
      "Tennessee": {
        "numJobs": 2602,
        "name": "Tennessee",
        "id": 1968,
        "score": 0.7595865338239209,
        "latitude": 35.869774,
        "longitude": -85.69873
      },
      "Maryland": {
        "numJobs": 4943,
        "name": "Maryland",
        "id": 3201,
        "score": 0.8468119281736375,
        "latitude": 39.13058,
        "longitude": -76.71935
      },
      "Louisiana": {
        "numJobs": 940,
        "name": "Louisiana",
        "id": 2792,
        "score": 0.6574529929811933,
        "latitude": 31.05971,
        "longitude": -91.839554
      },
      "Ohio": {
        "numJobs": 5060,
        "name": "Ohio",
        "id": 2235,
        "score": 0.8195560908238545,
        "latitude": 40.20804,
        "longitude": -82.68456
      },
      "West Virginia": {
        "numJobs": 348,
        "name": "West Virginia",
        "id": 1939,
        "score": 0.554316717143473,
        "latitude": 38.646973,
        "longitude": -80.79809
      },
      "Idaho": {
        "numJobs": 392,
        "name": "Idaho",
        "id": 132,
        "score": 0.5781873262293136,
        "latitude": 44.72104,
        "longitude": -114.83413
      },
      "Virginia": {
        "numJobs": 9449,
        "name": "Virginia",
        "id": 323,
        "score": 0.9209419262393145,
        "latitude": 37.71112,
        "longitude": -78.51438
      },
      "Mississippi": {
        "numJobs": 584,
        "name": "Mississippi",
        "id": 1553,
        "score": 0.6094888968675367,
        "latitude": 32.81446,
        "longitude": -89.712814
      },
      "Texas": {
        "numJobs": 12946,
        "name": "Texas",
        "id": 1347,
        "score": 0.9209956142037085,
        "latitude": 30.541521,
        "longitude": -97.844345
      },
      "Vermont": {
        "numJobs": 250,
        "name": "Vermont",
        "id": 1765,
        "score": 0.5501331467301014,
        "latitude": 44.01336,
        "longitude": -72.68488
      },
      "Wyoming": {
        "numJobs": 176,
        "name": "Wyoming",
        "id": 1258,
        "score": 0.5025811781167134,
        "latitude": 42.800774,
        "longitude": -107.330284
      },
      "New York": {
        "numJobs": 13562,
        "name": "New York",
        "id": 428,
        "score": 0.9515076704224446,
        "latitude": 42.56897,
        "longitude": -75.477
      },
      "Kansas": {
        "numJobs": 1060,
        "name": "Kansas",
        "id": 3107,
        "score": 0.6708373858746376,
        "latitude": 38.453106,
        "longitude": -97.173775
      },
      "Guam": {
        "numJobs": 6,
        "name": "Guam",
        "id": 566,
        "score": 0.29621091972254926,
        "latitude": 13.442065,
        "longitude": 144.7609
      },
      "Michigan": {
        "numJobs": 3736,
        "name": "Michigan",
        "id": 527,
        "score": 0.8024527957768561,
        "latitude": 43.92309,
        "longitude": -85.22649
      },
      "New Jersey": {
        "numJobs": 6008,
        "name": "New Jersey",
        "id": 39,
        "score": 0.860644783108676,
        "latitude": 40.219467,
        "longitude": -74.63167
      },
      "Colorado": {
        "numJobs": 3731,
        "name": "Colorado",
        "id": 2519,
        "score": 0.8078309867063175,
        "latitude": 39.152225,
        "longitude": -105.41113
      },
      "Pennsylvania": {
        "numJobs": 7183,
        "name": "Pennsylvania",
        "id": 3185,
        "score": 0.8610172514952276,
        "latitude": 40.60347,
        "longitude": -77.41482
      },
      "Maine": {
        "numJobs": 408,
        "name": "Maine",
        "id": 758,
        "score": 0.5882389640944462,
        "latitude": 44.6072,
        "longitude": -69.434845
      },
      "Arkansas": {
        "numJobs": 887,
        "name": "Arkansas",
        "id": 1892,
        "score": 0.6514626811900804,
        "latitude": 34.997967,
        "longitude": -92.32213
      },
      "Missouri": {
        "numJobs": 2869,
        "name": "Missouri",
        "id": 386,
        "score": 0.7669827243904096,
        "latitude": 38.196053,
        "longitude": -92.25109
      },
      "Iowa": {
        "numJobs": 1464,
        "name": "Iowa",
        "id": 2733,
        "score": 0.7023586874295952,
        "latitude": 42.001587,
        "longitude": -93.15462
      },
      "North Dakota": {
        "numJobs": 205,
        "name": "North Dakota",
        "id": 3517,
        "score": 0.5126611863320051,
        "latitude": 47.52474,
        "longitude": -99.81501
      },
      "Oregon": {
        "numJobs": 1995,
        "name": "Oregon",
        "id": 3163,
        "score": 0.7499121854321232,
        "latitude": 44.54903,
        "longitude": -122.14273
      },
      "Indiana": {
        "numJobs": 2436,
        "name": "Indiana",
        "id": 2124,
        "score": 0.744059006499582,
        "latitude": 39.853703,
        "longitude": -86.26825
      },
      "Wisconsin": {
        "numJobs": 2441,
        "name": "Wisconsin",
        "id": 481,
        "score": 0.7584746712455277,
        "latitude": 44.22958,
        "longitude": -89.65535
      },
      "Virgin Islands": {
        "numJobs": 2,
        "name": "Virgin Islands",
        "id": 2564,
        "score": 0.16561880482541536,
        "latitude": 17.97962,
        "longitude": -64.825584
      },
      "Nevada": {
        "numJobs": 1105,
        "name": "Nevada",
        "id": 2756,
        "score": 0.6887887615648941,
        "latitude": 39.09225,
        "longitude": -116.94037
      },
      "Minnesota": {
        "numJobs": 4069,
        "name": "Minnesota",
        "id": 1775,
        "score": 0.8286181262623995,
        "latitude": 45.81953,
        "longitude": -93.99869
      },
      "Washington": {
        "numJobs": 4694,
        "name": "Washington",
        "id": 3020,
        "score": 0.8375854552542669,
        "latitude": 47.318367,
        "longitude": -121.16399
      },
      "Delaware": {
        "numJobs": 615,
        "name": "Delaware",
        "id": 3523,
        "score": 0.6501405960276203,
        "latitude": 39.267464,
        "longitude": -75.50684
      },
      "Illinois": {
        "numJobs": 9504,
        "name": "Illinois",
        "id": 302,
        "score": 0.8954482743716042,
        "latitude": 40.22442,
        "longitude": -89.00813
      },
      "Hawaii": {
        "numJobs": 510,
        "name": "Hawaii",
        "id": 1385,
        "score": 0.643589299136039,
        "latitude": 20.773073,
        "longitude": -156.91919
      },
      "Connecticut": {
        "numJobs": 2376,
        "name": "Connecticut",
        "id": 2697,
        "score": 0.7753970911250917,
        "latitude": 41.5664,
        "longitude": -72.77289
      },
      "Montana": {
        "numJobs": 311,
        "name": "Montana",
        "id": 669,
        "score": 0.5615596014392074,
        "latitude": 46.91542,
        "longitude": -110.718666
      },
      "District of Columbia": {
        "numJobs": 3636,
        "name": "District of Columbia",
        "id": 1211,
        "score": 0.8924426880244124,
        "latitude": 38.895,
        "longitude": -77.03667
      },
      "Oklahoma": {
        "numJobs": 848,
        "name": "Oklahoma",
        "id": 847,
        "score": 0.6432126705572943,
        "latitude": 35.427067,
        "longitude": -96.773994
      },
      "Arizona": {
        "numJobs": 3341,
        "name": "Arizona",
        "id": 483,
        "score": 0.8010392366721651,
        "latitude": 33.67677,
        "longitude": -111.58828
      },
      "North Carolina": {
        "numJobs": 4664,
        "name": "North Carolina",
        "id": 1282,
        "score": 0.8269026862438911,
        "latitude": 35.576843,
        "longitude": -79.53007
      },
      "Kentucky": {
        "numJobs": 1325,
        "name": "Kentucky",
        "id": 1141,
        "score": 0.6863316869013946,
        "latitude": 37.58137,
        "longitude": -84.888466
      },
      "Alaska": {
        "numJobs": 163,
        "name": "Alaska",
        "id": 496,
        "score": 0.4999090330870695,
        "latitude": 61.27834,
        "longitude": -150.32988
      },
      "Georgia": {
        "numJobs": 6495,
        "name": "Georgia",
        "id": 3426,
        "score": 0.8678407841890682,
        "latitude": 33.18301,
        "longitude": -83.751396
      },
      "Utah": {
        "numJobs": 1412,
        "name": "Utah",
        "id": 255,
        "score": 0.7198096872942644,
        "latitude": 40.30287,
        "longitude": -111.84235
      },
      "Nebraska": {
        "numJobs": 881,
        "name": "Nebraska",
        "id": 792,
        "score": 0.6673243592550975,
        "latitude": 41.321033,
        "longitude": -98.7876
      },
      "South Dakota": {
        "numJobs": 252,
        "name": "South Dakota",
        "id": 1502,
        "score": 0.536360119801937,
        "latitude": 44.289787,
        "longitude": -99.61724
      }
    },
    "cities": [
      {
        "numJobs": 9125,
        "name": "New York, NY",
        "stateAbbreviation": "NY",
        "stateName": "New York",
        "id": 1132348,
        "latitude": 40.71417,
        "longitude": -74.00639
      },
      {
        "numJobs": 4383,
        "name": "Chicago, IL",
        "stateAbbreviation": "IL",
        "stateName": "Illinois",
        "id": 1128808,
        "latitude": 41.85,
        "longitude": -87.65
      },
      {
        "numJobs": 3661,
        "name": "San Francisco, CA",
        "stateAbbreviation": "CA",
        "stateName": "California",
        "id": 1147401,
        "latitude": 37.775,
        "longitude": -122.41833
      },
      {
        "numJobs": 3636,
        "name": "Washington, DC",
        "stateAbbreviation": "DC",
        "stateName": "District of Columbia",
        "id": 1138213,
        "latitude": 38.895,
        "longitude": -77.03667
      },
      {
        "numJobs": 3631,
        "name": "Atlanta, GA",
        "stateAbbreviation": "GA",
        "stateName": "Georgia",
        "id": 1155583,
        "latitude": 33.74889,
        "longitude": -84.38806
      },
      {
        "numJobs": 2976,
        "name": "Boston, MA",
        "stateAbbreviation": "MA",
        "stateName": "Massachusetts",
        "id": 1154532,
        "latitude": 42.35833,
        "longitude": -71.06028
      },
      {
        "numJobs": 2150,
        "name": "Houston, TX",
        "stateAbbreviation": "TX",
        "stateName": "Texas",
        "id": 1140171,
        "latitude": 29.76306,
        "longitude": -95.36306
      },
      {
        "numJobs": 2135,
        "name": "Seattle, WA",
        "stateAbbreviation": "WA",
        "stateName": "Washington",
        "id": 1150505,
        "latitude": 47.60639,
        "longitude": -122.33083
      },
      {
        "numJobs": 2131,
        "name": "Dallas, TX",
        "stateAbbreviation": "TX",
        "stateName": "Texas",
        "id": 1139977,
        "latitude": 32.78333,
        "longitude": -96.8
      },
      {
        "numJobs": 2029,
        "name": "Los Angeles, CA",
        "stateAbbreviation": "CA",
        "stateName": "California",
        "id": 1146821,
        "latitude": 34.05222,
        "longitude": -118.24278
      },
      {
        "numJobs": 1605,
        "name": "Pittsburgh, PA",
        "stateAbbreviation": "PA",
        "stateName": "Pennsylvania",
        "id": 1152990,
        "latitude": 40.44056,
        "longitude": -79.99611
      },
      {
        "numJobs": 1595,
        "name": "Austin, TX",
        "stateAbbreviation": "TX",
        "stateName": "Texas",
        "id": 1139761,
        "latitude": 30.26694,
        "longitude": -97.74278
      },
      {
        "numJobs": 1510,
        "name": "San Diego, CA",
        "stateAbbreviation": "CA",
        "stateName": "California",
        "id": 1147311,
        "latitude": 32.71528,
        "longitude": -117.15639
      },
      {
        "numJobs": 1489,
        "name": "Philadelphia, PA",
        "stateAbbreviation": "PA",
        "stateName": "Pennsylvania",
        "id": 1152672,
        "latitude": 39.95222,
        "longitude": -75.16417
      },
      {
        "numJobs": 1411,
        "name": "Phoenix, AZ",
        "stateAbbreviation": "AZ",
        "stateName": "Arizona",
        "id": 1133904,
        "latitude": 33.44833,
        "longitude": -112.07333
      },
      {
        "numJobs": 1298,
        "name": "Tampa, FL",
        "stateAbbreviation": "FL",
        "stateName": "Florida",
        "id": 1154429,
        "latitude": 27.94722,
        "longitude": -82.45861
      },
      {
        "numJobs": 1254,
        "name": "Charlotte, NC",
        "stateAbbreviation": "NC",
        "stateName": "North Carolina",
        "id": 1138644,
        "latitude": 35.22694,
        "longitude": -80.84333
      },
      {
        "numJobs": 1251,
        "name": "Minneapolis, MN",
        "stateAbbreviation": "MN",
        "stateName": "Minnesota",
        "id": 1142551,
        "latitude": 44.98,
        "longitude": -93.26361
      },
      {
        "numJobs": 1238,
        "name": "San Antonio, TX",
        "stateAbbreviation": "TX",
        "stateName": "Texas",
        "id": 1140494,
        "latitude": 29.42389,
        "longitude": -98.49333
      },
      {
        "numJobs": 1188,
        "name": "Saint Louis, MO",
        "stateAbbreviation": "MO",
        "stateName": "Missouri",
        "id": 1131270,
        "latitude": 38.636864,
        "longitude": -90.28388
      },
      {
        "numJobs": 1129,
        "name": "Arlington, VA",
        "stateAbbreviation": "VA",
        "stateName": "Virginia",
        "id": 1130337,
        "latitude": 38.89028,
        "longitude": -77.08444
      },
      {
        "numJobs": 1105,
        "name": "McLean, VA",
        "stateAbbreviation": "VA",
        "stateName": "Virginia",
        "id": 1158535,
        "latitude": 38.93417,
        "longitude": -77.17778
      },
      {
        "numJobs": 1103,
        "name": "Denver, CO",
        "stateAbbreviation": "CO",
        "stateName": "Colorado",
        "id": 1148170,
        "latitude": 39.73917,
        "longitude": -104.98417
      },
      {
        "numJobs": 1010,
        "name": "Indianapolis, IN",
        "stateAbbreviation": "IN",
        "stateName": "Indiana",
        "id": 1145013,
        "latitude": 39.76833,
        "longitude": -86.15806
      },
      {
        "numJobs": 1000,
        "name": "San Jose, CA",
        "stateAbbreviation": "CA",
        "stateName": "California",
        "id": 1147436,
        "latitude": 37.33944,
        "longitude": -121.89389
      },
      {
        "numJobs": 929,
        "name": "Irvine, CA",
        "stateAbbreviation": "CA",
        "stateName": "California",
        "id": 1146798,
        "latitude": 33.66944,
        "longitude": -117.82222
      },
      {
        "numJobs": 901,
        "name": "Cincinnati, OH",
        "stateAbbreviation": "OH",
        "stateName": "Ohio",
        "id": 1145705,
        "latitude": 39.16194,
        "longitude": -84.45694
      },
      {
        "numJobs": 895,
        "name": "Orlando, FL",
        "stateAbbreviation": "FL",
        "stateName": "Florida",
        "id": 1154247,
        "latitude": 28.53806,
        "longitude": -81.37944
      },
      {
        "numJobs": 885,
        "name": "Columbus, OH",
        "stateAbbreviation": "OH",
        "stateName": "Ohio",
        "id": 1145845,
        "latitude": 39.96111,
        "longitude": -82.99889
      },
      {
        "numJobs": 876,
        "name": "Irving, TX",
        "stateAbbreviation": "TX",
        "stateName": "Texas",
        "id": 1140006,
        "latitude": 32.81389,
        "longitude": -96.94861
      },
      {
        "numJobs": 874,
        "name": "Portland, OR",
        "stateAbbreviation": "OR",
        "stateName": "Oregon",
        "id": 1151614,
        "latitude": 45.52361,
        "longitude": -122.675
      },
      {
        "numJobs": 780,
        "name": "Fort Worth, TX",
        "stateAbbreviation": "TX",
        "stateName": "Texas",
        "id": 1139993,
        "latitude": 32.72528,
        "longitude": -97.32056
      },
      {
        "numJobs": 737,
        "name": "Reston, VA",
        "stateAbbreviation": "VA",
        "stateName": "Virginia",
        "id": 1130404,
        "latitude": 38.96861,
        "longitude": -77.34139
      },
      {
        "numJobs": 713,
        "name": "Baltimore, MD",
        "stateAbbreviation": "MD",
        "stateName": "Maryland",
        "id": 1153527,
        "latitude": 39.29028,
        "longitude": -76.6125
      },
      {
        "numJobs": 703,
        "name": "Nashville, TN",
        "stateAbbreviation": "TN",
        "stateName": "Tennessee",
        "id": 1144541,
        "latitude": 36.16583,
        "longitude": -86.78444
      },
      {
        "numJobs": 689,
        "name": "Cleveland, OH",
        "stateAbbreviation": "OH",
        "stateName": "Ohio",
        "id": 1145778,
        "latitude": 41.49944,
        "longitude": -81.69556
      },
      {
        "numJobs": 684,
        "name": "Englewood, CO",
        "stateAbbreviation": "CO",
        "stateName": "Colorado",
        "id": 1148176,
        "latitude": 39.64778,
        "longitude": -104.98722
      },
      {
        "numJobs": 659,
        "name": "Jacksonville, FL",
        "stateAbbreviation": "FL",
        "stateName": "Florida",
        "id": 1154093,
        "latitude": 30.33194,
        "longitude": -81.65583
      },
      {
        "numJobs": 651,
        "name": "Raleigh, NC",
        "stateAbbreviation": "NC",
        "stateName": "North Carolina",
        "id": 1138960,
        "latitude": 35.77194,
        "longitude": -78.63889
      },
      {
        "numJobs": 624,
        "name": "Jersey City, NJ",
        "stateAbbreviation": "NJ",
        "stateName": "New Jersey",
        "id": 1126819,
        "latitude": 40.72806,
        "longitude": -74.07806
      },
      {
        "numJobs": 611,
        "name": "Bellevue, WA",
        "stateAbbreviation": "WA",
        "stateName": "Washington",
        "id": 1150442,
        "latitude": 47.61056,
        "longitude": -122.19944
      },
      {
        "numJobs": 610,
        "name": "Herndon, VA",
        "stateAbbreviation": "VA",
        "stateName": "Virginia",
        "id": 1130374,
        "latitude": 38.96944,
        "longitude": -77.38639
      },
      {
        "numJobs": 606,
        "name": "Miami, FL",
        "stateAbbreviation": "FL",
        "stateName": "Florida",
        "id": 1154170,
        "latitude": 25.77389,
        "longitude": -80.19389
      },
      {
        "numJobs": 603,
        "name": "Alpharetta, GA",
        "stateAbbreviation": "GA",
        "stateName": "Georgia",
        "id": 1155582,
        "latitude": 34.07528,
        "longitude": -84.29417
      },
      {
        "numJobs": 602,
        "name": "Sacramento, CA",
        "stateAbbreviation": "CA",
        "stateName": "California",
        "id": 1147229,
        "latitude": 38.58167,
        "longitude": -121.49333
      },
      {
        "numJobs": 595,
        "name": "Salt Lake City, UT",
        "stateAbbreviation": "UT",
        "stateName": "Utah",
        "id": 1128289,
        "latitude": 40.76083,
        "longitude": -111.89028
      },
      {
        "numJobs": 570,
        "name": "Richmond, VA",
        "stateAbbreviation": "VA",
        "stateName": "Virginia",
        "id": 1130198,
        "latitude": 37.55361,
        "longitude": -77.46056
      },
      {
        "numJobs": 559,
        "name": "Santa Clara, CA",
        "stateAbbreviation": "CA",
        "stateName": "California",
        "id": 1147439,
        "latitude": 37.35417,
        "longitude": -121.95417
      },
      {
        "numJobs": 552,
        "name": "Eden Prairie, MN",
        "stateAbbreviation": "MN",
        "stateName": "Minnesota",
        "id": 1142521,
        "latitude": 44.85472,
        "longitude": -93.47056
      },
      {
        "numJobs": 546,
        "name": "Alexandria, VA",
        "stateAbbreviation": "VA",
        "stateName": "Virginia",
        "id": 1130334,
        "latitude": 38.79755,
        "longitude": -77.08908
      },
      {
        "numJobs": 544,
        "name": "Palo Alto, CA",
        "stateAbbreviation": "CA",
        "stateName": "California",
        "id": 1147434,
        "latitude": 37.44194,
        "longitude": -122.14194
      },
      {
        "numJobs": 538,
        "name": "Detroit, MI",
        "stateAbbreviation": "MI",
        "stateName": "Michigan",
        "id": 1134644,
        "latitude": 42.33139,
        "longitude": -83.04583
      },
      {
        "numJobs": 536,
        "name": "Louisville, KY",
        "stateAbbreviation": "KY",
        "stateName": "Kentucky",
        "id": 1137724,
        "latitude": 38.25417,
        "longitude": -85.75944
      },
      {
        "numJobs": 531,
        "name": "Sunnyvale, CA",
        "stateAbbreviation": "CA",
        "stateName": "California",
        "id": 1147442,
        "latitude": 37.36889,
        "longitude": -122.03528
      },
      {
        "numJobs": 502,
        "name": "Milwaukee, WI",
        "stateAbbreviation": "WI",
        "stateName": "Wisconsin",
        "id": 1133579,
        "latitude": 43.03889,
        "longitude": -87.90639
      },
      {
        "numJobs": 497,
        "name": "Kansas City, MO",
        "stateAbbreviation": "MO",
        "stateName": "Missouri",
        "id": 1131040,
        "latitude": 39.09972,
        "longitude": -94.57833
      },
      {
        "numJobs": 495,
        "name": "Cambridge, MA",
        "stateAbbreviation": "MA",
        "stateName": "Massachusetts",
        "id": 1154545,
        "latitude": 42.375,
        "longitude": -71.10611
      },
      {
        "numJobs": 494,
        "name": "Plano, TX",
        "stateAbbreviation": "TX",
        "stateName": "Texas",
        "id": 1140045,
        "latitude": 33.01972,
        "longitude": -96.69861
      },
      {
        "numJobs": 472,
        "name": "Las Vegas, NV",
        "stateAbbreviation": "NV",
        "stateName": "Nevada",
        "id": 1149603,
        "latitude": 36.175,
        "longitude": -115.13639
      },
      {
        "numJobs": 467,
        "name": "Columbia, MD",
        "stateAbbreviation": "MD",
        "stateName": "Maryland",
        "id": 1153546,
        "latitude": 39.24028,
        "longitude": -76.83972
      },
      {
        "numJobs": 446,
        "name": "Scottsdale, AZ",
        "stateAbbreviation": "AZ",
        "stateName": "Arizona",
        "id": 1133911,
        "latitude": 33.50917,
        "longitude": -111.89833
      },
      {
        "numJobs": 435,
        "name": "Redwood City, CA",
        "stateAbbreviation": "CA",
        "stateName": "California",
        "id": 1147394,
        "latitude": 37.48528,
        "longitude": -122.23528
      },
      {
        "numJobs": 425,
        "name": "Durham, NC",
        "stateAbbreviation": "NC",
        "stateName": "North Carolina",
        "id": 1138697,
        "latitude": 35.99389,
        "longitude": -78.89889
      },
      {
        "numJobs": 421,
        "name": "Buffalo, NY",
        "stateAbbreviation": "NY",
        "stateName": "New York",
        "id": 1131850,
        "latitude": 42.88639,
        "longitude": -78.87861
      },
      {
        "numJobs": 420,
        "name": "Stamford, CT",
        "stateAbbreviation": "CT",
        "stateName": "Connecticut",
        "id": 1148355,
        "latitude": 41.05333,
        "longitude": -73.53917
      },
      {
        "numJobs": 418,
        "name": "Birmingham, AL",
        "stateAbbreviation": "AL",
        "stateName": "Alabama",
        "id": 1127429,
        "latitude": 33.52056,
        "longitude": -86.8025
      },
      {
        "numJobs": 414,
        "name": "Omaha, NE",
        "stateAbbreviation": "NE",
        "stateName": "Nebraska",
        "id": 1136440,
        "latitude": 41.25861,
        "longitude": -95.9375
      },
      {
        "numJobs": 397,
        "name": "Memphis, TN",
        "stateAbbreviation": "TN",
        "stateName": "Tennessee",
        "id": 1144463,
        "latitude": 35.14944,
        "longitude": -90.04889
      },
      {
        "numJobs": 395,
        "name": "Springfield, VA",
        "stateAbbreviation": "VA",
        "stateName": "Virginia",
        "id": 1130409,
        "latitude": 38.791557,
        "longitude": -77.18702
      },
      {
        "numJobs": 383,
        "name": "Waltham, MA",
        "stateAbbreviation": "MA",
        "stateName": "Massachusetts",
        "id": 1154703,
        "latitude": 42.37639,
        "longitude": -71.23611
      },
      {
        "numJobs": 382,
        "name": "Chantilly, VA",
        "stateAbbreviation": "VA",
        "stateName": "Virginia",
        "id": 1130353,
        "latitude": 38.89417,
        "longitude": -77.43139
      },
      {
        "numJobs": 381,
        "name": "Colorado Springs, CO",
        "stateAbbreviation": "CO",
        "stateName": "Colorado",
        "id": 1148136,
        "latitude": 38.83389,
        "longitude": -104.82083
      },
      {
        "numJobs": 377,
        "name": "Minnetonka, MN",
        "stateAbbreviation": "MN",
        "stateName": "Minnesota",
        "id": 1142552,
        "latitude": 44.91333,
        "longitude": -93.50306
      },
      {
        "numJobs": 363,
        "name": "Oakland, CA",
        "stateAbbreviation": "CA",
        "stateName": "California",
        "id": 1147380,
        "latitude": 37.80444,
        "longitude": -122.26972
      },
      {
        "numJobs": 352,
        "name": "Norfolk, VA",
        "stateAbbreviation": "VA",
        "stateName": "Virginia",
        "id": 1130306,
        "latitude": 36.84667,
        "longitude": -76.28556
      },
      {
        "numJobs": 347,
        "name": "Princeton, NJ",
        "stateAbbreviation": "NJ",
        "stateName": "New Jersey",
        "id": 1127179,
        "latitude": 40.34861,
        "longitude": -74.65944
      },
      {
        "numJobs": 346,
        "name": "Fort Meade, MD",
        "stateAbbreviation": "MD",
        "stateName": "Maryland",
        "id": 1165756,
        "latitude": 39.10815,
        "longitude": -76.74323
      },
      {
        "numJobs": 344,
        "name": "Newark, NJ",
        "stateAbbreviation": "NJ",
        "stateName": "New Jersey",
        "id": 1126906,
        "latitude": 40.73556,
        "longitude": -74.17278
      },
      {
        "numJobs": 338,
        "name": "Redmond, WA",
        "stateAbbreviation": "WA",
        "stateName": "Washington",
        "id": 1150499,
        "latitude": 47.67417,
        "longitude": -122.12028
      },
      {
        "numJobs": 335,
        "name": "Fairfax, VA",
        "stateAbbreviation": "VA",
        "stateName": "Virginia",
        "id": 1130359,
        "latitude": 38.84611,
        "longitude": -77.30667
      },
      {
        "numJobs": 333,
        "name": "Wilmington, DE",
        "stateAbbreviation": "DE",
        "stateName": "Delaware",
        "id": 1156375,
        "latitude": 39.74583,
        "longitude": -75.54694
      },
      {
        "numJobs": 333,
        "name": "Madison, WI",
        "stateAbbreviation": "WI",
        "stateName": "Wisconsin",
        "id": 1133470,
        "latitude": 43.07306,
        "longitude": -89.40111
      },
      {
        "numJobs": 329,
        "name": "Fort Lauderdale, FL",
        "stateAbbreviation": "FL",
        "stateName": "Florida",
        "id": 1154160,
        "latitude": 26.12194,
        "longitude": -80.14361
      },
      {
        "numJobs": 319,
        "name": "Falls Church, VA",
        "stateAbbreviation": "VA",
        "stateName": "Virginia",
        "id": 1130361,
        "latitude": 38.88222,
        "longitude": -77.17139
      },
      {
        "numJobs": 317,
        "name": "Hartford, CT",
        "stateAbbreviation": "CT",
        "stateName": "Connecticut",
        "id": 1148399,
        "latitude": 41.76361,
        "longitude": -72.68556
      },
      {
        "numJobs": 314,
        "name": "Deerfield, IL",
        "stateAbbreviation": "IL",
        "stateName": "Illinois",
        "id": 1128821,
        "latitude": 42.17111,
        "longitude": -87.84444
      },
      {
        "numJobs": 311,
        "name": "El Segundo, CA",
        "stateAbbreviation": "CA",
        "stateName": "California",
        "id": 1146779,
        "latitude": 33.91917,
        "longitude": -118.41556
      },
      {
        "numJobs": 302,
        "name": "Annapolis Junction, MD",
        "stateAbbreviation": "MD",
        "stateName": "Maryland",
        "id": 1153524,
        "latitude": 39.121613,
        "longitude": -76.79043
      },
      {
        "numJobs": 298,
        "name": "Northbrook, IL",
        "stateAbbreviation": "IL",
        "stateName": "Illinois",
        "id": 1128934,
        "latitude": 42.1275,
        "longitude": -87.82889
      },
      {
        "numJobs": 295,
        "name": "Des Moines, IA",
        "stateAbbreviation": "IA",
        "stateName": "Iowa",
        "id": 1149246,
        "latitude": 41.60056,
        "longitude": -93.60889
      },
      {
        "numJobs": 295,
        "name": "Mountain View, CA",
        "stateAbbreviation": "CA",
        "stateName": "California",
        "id": 1147431,
        "latitude": 37.38611,
        "longitude": -122.08278
      },
      {
        "numJobs": 293,
        "name": "Bethesda, MD",
        "stateAbbreviation": "MD",
        "stateName": "Maryland",
        "id": 1153817,
        "latitude": 38.98056,
        "longitude": -77.10056
      },
      {
        "numJobs": 290,
        "name": "Huntsville, AL",
        "stateAbbreviation": "AL",
        "stateName": "Alabama",
        "id": 1127653,
        "latitude": 34.73028,
        "longitude": -86.58611
      },
      {
        "numJobs": 289,
        "name": "Rockville, MD",
        "stateAbbreviation": "MD",
        "stateName": "Maryland",
        "id": 1153899,
        "latitude": 39.08389,
        "longitude": -77.15306
      },
      {
        "numJobs": 285,
        "name": "Rochester, NY",
        "stateAbbreviation": "NY",
        "stateName": "New York",
        "id": 1132765,
        "latitude": 43.15472,
        "longitude": -77.61583
      },
      {
        "numJobs": 283,
        "name": "Santa Monica, CA",
        "stateAbbreviation": "CA",
        "stateName": "California",
        "id": 1146873,
        "latitude": 34.01944,
        "longitude": -118.49028
      },
      {
        "numJobs": 279,
        "name": "Brooklyn, NY",
        "stateAbbreviation": "NY",
        "stateName": "New York",
        "id": 1132200,
        "latitude": 40.65,
        "longitude": -73.95
      },
      {
        "numJobs": 275,
        "name": "Dayton, OH",
        "stateAbbreviation": "OH",
        "stateName": "Ohio",
        "id": 1145937,
        "latitude": 39.75889,
        "longitude": -84.19167
      },
      {
        "numJobs": 275,
        "name": "Tempe, AZ",
        "stateAbbreviation": "AZ",
        "stateName": "Arizona",
        "id": 1133917,
        "latitude": 33.41472,
        "longitude": -111.90861
      },
      {
        "numJobs": 273,
        "name": "Honolulu, HI",
        "stateAbbreviation": "HI",
        "stateName": "Hawaii",
        "id": 1140656,
        "latitude": 21.30694,
        "longitude": -157.85834
      },
      {
        "numJobs": 273,
        "name": "San Ramon, CA",
        "stateAbbreviation": "CA",
        "stateName": "California",
        "id": 1147410,
        "latitude": 37.78,
        "longitude": -121.97694
      },
      {
        "numJobs": 272,
        "name": "Dearborn, MI",
        "stateAbbreviation": "MI",
        "stateName": "Michigan",
        "id": 1134642,
        "latitude": 42.32222,
        "longitude": -83.17639
      },
      {
        "numJobs": 270,
        "name": "Richardson, TX",
        "stateAbbreviation": "TX",
        "stateName": "Texas",
        "id": 1140053,
        "latitude": 32.94806,
        "longitude": -96.72944
      },
      {
        "numJobs": 269,
        "name": "Franklin, TN",
        "stateAbbreviation": "TN",
        "stateName": "Tennessee",
        "id": 1144518,
        "latitude": 35.925,
        "longitude": -86.86889
      },
      {
        "numJobs": 267,
        "name": "Oklahoma City, OK",
        "stateAbbreviation": "OK",
        "stateName": "Oklahoma",
        "id": 1136950,
        "latitude": 35.4675,
        "longitude": -97.51611
      },
      {
        "numJobs": 261,
        "name": "Parsippany, NJ",
        "stateAbbreviation": "NJ",
        "stateName": "New Jersey",
        "id": 1126931,
        "latitude": 40.85778,
        "longitude": -74.42639
      },
      {
        "numJobs": 261,
        "name": "Schaumburg, IL",
        "stateAbbreviation": "IL",
        "stateName": "Illinois",
        "id": 1128969,
        "latitude": 42.03333,
        "longitude": -88.08333
      },
      {
        "numJobs": 258,
        "name": "Boca Raton, FL",
        "stateAbbreviation": "FL",
        "stateName": "Florida",
        "id": 1154153,
        "latitude": 26.35833,
        "longitude": -80.08333
      },
      {
        "numJobs": 257,
        "name": "Overland Park, KS",
        "stateAbbreviation": "KS",
        "stateName": "Kansas",
        "id": 1151049,
        "latitude": 38.98222,
        "longitude": -94.67056
      },
      {
        "numJobs": 255,
        "name": "Broomfield, CO",
        "stateAbbreviation": "CO",
        "stateName": "Colorado",
        "id": 1148161,
        "latitude": 39.92056,
        "longitude": -105.08611
      },
      {
        "numJobs": 254,
        "name": "Burbank, CA",
        "stateAbbreviation": "CA",
        "stateName": "California",
        "id": 1146756,
        "latitude": 34.18083,
        "longitude": -118.30806
      },
      {
        "numJobs": 253,
        "name": "Pasadena, CA",
        "stateAbbreviation": "CA",
        "stateName": "California",
        "id": 1146850,
        "latitude": 34.14778,
        "longitude": -118.14361
      },
      {
        "numJobs": 247,
        "name": "Tulsa, OK",
        "stateAbbreviation": "OK",
        "stateName": "Oklahoma",
        "id": 1137055,
        "latitude": 36.15389,
        "longitude": -95.9925
      },
      {
        "numJobs": 243,
        "name": "Albany, NY",
        "stateAbbreviation": "NY",
        "stateName": "New York",
        "id": 1131650,
        "latitude": 42.6525,
        "longitude": -73.75667
      },
      {
        "numJobs": 240,
        "name": "Tucson, AZ",
        "stateAbbreviation": "AZ",
        "stateName": "Arizona",
        "id": 1133996,
        "latitude": 32.22167,
        "longitude": -110.92583
      },
      {
        "numJobs": 238,
        "name": "Bentonville, AR",
        "stateAbbreviation": "AR",
        "stateName": "Arkansas",
        "id": 1143031,
        "latitude": 36.37278,
        "longitude": -94.20861
      },
      {
        "numJobs": 236,
        "name": "Torrance, CA",
        "stateAbbreviation": "CA",
        "stateName": "California",
        "id": 1146894,
        "latitude": 33.83583,
        "longitude": -118.33972
      },
      {
        "numJobs": 235,
        "name": "Basking Ridge, NJ",
        "stateAbbreviation": "NJ",
        "stateName": "New Jersey",
        "id": 1126687,
        "latitude": 40.70611,
        "longitude": -74.54972
      },
      {
        "numJobs": 234,
        "name": "Pleasanton, CA",
        "stateAbbreviation": "CA",
        "stateName": "California",
        "id": 1147390,
        "latitude": 37.6625,
        "longitude": -121.87361
      },
      {
        "numJobs": 233,
        "name": "Burlington, MA",
        "stateAbbreviation": "MA",
        "stateName": "Massachusetts",
        "id": 1154543,
        "latitude": 42.50472,
        "longitude": -71.19611
      },
      {
        "numJobs": 232,
        "name": "Virginia Beach, VA",
        "stateAbbreviation": "VA",
        "stateName": "Virginia",
        "id": 1130324,
        "latitude": 36.85278,
        "longitude": -75.97833
      },
      {
        "numJobs": 232,
        "name": "Long Island City, NY",
        "stateAbbreviation": "NY",
        "stateName": "New York",
        "id": 1132310,
        "latitude": 40.756947,
        "longitude": -73.928795
      },
      {
        "numJobs": 232,
        "name": "San Mateo, CA",
        "stateAbbreviation": "CA",
        "stateName": "California",
        "id": 1147406,
        "latitude": 37.56306,
        "longitude": -122.32444
      },
      {
        "numJobs": 228,
        "name": "Southfield, MI",
        "stateAbbreviation": "MI",
        "stateName": "Michigan",
        "id": 1134732,
        "latitude": 42.47333,
        "longitude": -83.22194
      },
      {
        "numJobs": 223,
        "name": "Albuquerque, NM",
        "stateAbbreviation": "NM",
        "stateName": "New Mexico",
        "id": 1137959,
        "latitude": 35.08444,
        "longitude": -106.65056
      },
      {
        "numJobs": 222,
        "name": "King of Prussia, PA",
        "stateAbbreviation": "PA",
        "stateName": "Pennsylvania",
        "id": 1152620,
        "latitude": 40.08917,
        "longitude": -75.39639
      },
      {
        "numJobs": 217,
        "name": "Beaverton, OR",
        "stateAbbreviation": "OR",
        "stateName": "Oregon",
        "id": 1151576,
        "latitude": 45.48722,
        "longitude": -122.8025
      },
      {
        "numJobs": 216,
        "name": "Greensboro, NC",
        "stateAbbreviation": "NC",
        "stateName": "North Carolina",
        "id": 1138755,
        "latitude": 36.0725,
        "longitude": -79.79222
      },
      {
        "numJobs": 215,
        "name": "Thousand Oaks, CA",
        "stateAbbreviation": "CA",
        "stateName": "California",
        "id": 1146988,
        "latitude": 34.17056,
        "longitude": -118.83667
      },
      {
        "numJobs": 211,
        "name": "Ann Arbor, MI",
        "stateAbbreviation": "MI",
        "stateName": "Michigan",
        "id": 1134560,
        "latitude": 42.27083,
        "longitude": -83.72639
      },
      {
        "numJobs": 209,
        "name": "Long Beach, CA",
        "stateAbbreviation": "CA",
        "stateName": "California",
        "id": 1146819,
        "latitude": 33.76694,
        "longitude": -118.18833
      },
      {
        "numJobs": 207,
        "name": "Saint Paul, MN",
        "stateAbbreviation": "MN",
        "stateName": "Minnesota",
        "id": 1142575,
        "latitude": 44.94444,
        "longitude": -93.09306
      },
      {
        "numJobs": 203,
        "name": "Winston-Salem, NC",
        "stateAbbreviation": "NC",
        "stateName": "North Carolina",
        "id": 1139151,
        "latitude": 36.09766,
        "longitude": -80.24728
      },
      {
        "numJobs": 203,
        "name": "San Bruno, CA",
        "stateAbbreviation": "CA",
        "stateName": "California",
        "id": 1147399,
        "latitude": 37.63056,
        "longitude": -122.41
      },
      {
        "numJobs": 196,
        "name": "Columbia, SC",
        "stateAbbreviation": "SC",
        "stateName": "South Carolina",
        "id": 1155132,
        "latitude": 34.00056,
        "longitude": -81.035
      },
      {
        "numJobs": 192,
        "name": "Boise, ID",
        "stateAbbreviation": "ID",
        "stateName": "Idaho",
        "id": 1127927,
        "latitude": 43.61361,
        "longitude": -116.2025
      },
      {
        "numJobs": 190,
        "name": "Cary, NC",
        "stateAbbreviation": "NC",
        "stateName": "North Carolina",
        "id": 1138945,
        "latitude": 35.79139,
        "longitude": -78.78139
      },
      {
        "numJobs": 190,
        "name": "Troy, MI",
        "stateAbbreviation": "MI",
        "stateName": "Michigan",
        "id": 1134737,
        "latitude": 42.60556,
        "longitude": -83.15
      },
      {
        "numJobs": 190,
        "name": "Grand Rapids, MI",
        "stateAbbreviation": "MI",
        "stateName": "Michigan",
        "id": 1134796,
        "latitude": 42.96333,
        "longitude": -85.66806
      },
      {
        "numJobs": 186,
        "name": "Menlo Park, CA",
        "stateAbbreviation": "CA",
        "stateName": "California",
        "id": 1147371,
        "latitude": 37.45389,
        "longitude": -122.18111
      },
      {
        "numJobs": 185,
        "name": "Wilmington, NC",
        "stateAbbreviation": "NC",
        "stateName": "North Carolina",
        "id": 1139117,
        "latitude": 34.22556,
        "longitude": -77.945
      },
      {
        "numJobs": 184,
        "name": "Lehi, UT",
        "stateAbbreviation": "UT",
        "stateName": "Utah",
        "id": 1128238,
        "latitude": 40.39167,
        "longitude": -111.85
      },
      {
        "numJobs": 180,
        "name": "Vienna, VA",
        "stateAbbreviation": "VA",
        "stateName": "Virginia",
        "id": 1130417,
        "latitude": 38.90111,
        "longitude": -77.26556
      },
      {
        "numJobs": 179,
        "name": "Cedar Rapids, IA",
        "stateAbbreviation": "IA",
        "stateName": "Iowa",
        "id": 1149160,
        "latitude": 42.00833,
        "longitude": -91.64389
      },
      {
        "numJobs": 178,
        "name": "Bridgewater, NJ",
        "stateAbbreviation": "NJ",
        "stateName": "New Jersey",
        "id": 1126710,
        "latitude": 40.593163,
        "longitude": -74.619514
      },
      {
        "numJobs": 177,
        "name": "Dublin, OH",
        "stateAbbreviation": "OH",
        "stateName": "Ohio",
        "id": 1145850,
        "latitude": 40.102497,
        "longitude": -83.11432
      },
      {
        "numJobs": 176,
        "name": "Charlottesville, VA",
        "stateAbbreviation": "VA",
        "stateName": "Virginia",
        "id": 1130001,
        "latitude": 38.02917,
        "longitude": -78.47694
      },
      {
        "numJobs": 175,
        "name": "Charleston, SC",
        "stateAbbreviation": "SC",
        "stateName": "South Carolina",
        "id": 1155074,
        "latitude": 32.77639,
        "longitude": -79.93111
      },
      {
        "numJobs": 172,
        "name": "Fort Belvoir, VA",
        "stateAbbreviation": "VA",
        "stateName": "Virginia",
        "id": 1130362,
        "latitude": 38.712147,
        "longitude": -77.158615
      },
      {
        "numJobs": 171,
        "name": "East Hanover, NJ",
        "stateAbbreviation": "NJ",
        "stateName": "New Jersey",
        "id": 1126743,
        "latitude": 40.82,
        "longitude": -74.36528
      },
      {
        "numJobs": 171,
        "name": "Brentwood, TN",
        "stateAbbreviation": "TN",
        "stateName": "Tennessee",
        "id": 1144496,
        "latitude": 36.000107,
        "longitude": -86.78849
      },
      {
        "numJobs": 169,
        "name": "Harrisburg, PA",
        "stateAbbreviation": "PA",
        "stateName": "Pennsylvania",
        "id": 1152185,
        "latitude": 40.27361,
        "longitude": -76.88472
      },
      {
        "numJobs": 168,
        "name": "Livonia, MI",
        "stateAbbreviation": "MI",
        "stateName": "Michigan",
        "id": 1134687,
        "latitude": 42.36833,
        "longitude": -83.35278
      },
      {
        "numJobs": 168,
        "name": "Baton Rouge, LA",
        "stateAbbreviation": "LA",
        "stateName": "Louisiana",
        "id": 1149789,
        "latitude": 30.45056,
        "longitude": -91.15444
      },
      {
        "numJobs": 168,
        "name": "Na Ah Tee, AZ",
        "stateAbbreviation": "AZ",
        "stateName": "Arizona",
        "id": 3741308,
        "latitude": 35.49028,
        "longitude": -110.14389
      },
      {
        "numJobs": 167,
        "name": "Orange, CA",
        "stateAbbreviation": "CA",
        "stateName": "California",
        "id": 1146843,
        "latitude": 33.78778,
        "longitude": -117.85222
      },
      {
        "numJobs": 167,
        "name": "New Orleans, LA",
        "stateAbbreviation": "LA",
        "stateName": "Louisiana",
        "id": 1150035,
        "latitude": 29.95444,
        "longitude": -90.075
      },
      {
        "numJobs": 166,
        "name": "Lincoln, NE",
        "stateAbbreviation": "NE",
        "stateName": "Nebraska",
        "id": 1136371,
        "latitude": 40.8,
        "longitude": -96.66667
      },
      {
        "numJobs": 165,
        "name": "Naperville, IL",
        "stateAbbreviation": "IL",
        "stateName": "Illinois",
        "id": 1128928,
        "latitude": 41.78583,
        "longitude": -88.14722
      },
      {
        "numJobs": 165,
        "name": "Costa Mesa, CA",
        "stateAbbreviation": "CA",
        "stateName": "California",
        "id": 1146769,
        "latitude": 33.64111,
        "longitude": -117.91778
      },
      {
        "numJobs": 164,
        "name": "Hillsboro, OR",
        "stateAbbreviation": "OR",
        "stateName": "Oregon",
        "id": 1151603,
        "latitude": 45.52306,
        "longitude": -122.98861
      },
      {
        "numJobs": 159,
        "name": "Arlington, TX",
        "stateAbbreviation": "TX",
        "stateName": "Texas",
        "id": 1139951,
        "latitude": 32.73556,
        "longitude": -97.10778
      },
      {
        "numJobs": 158,
        "name": "Little Rock, AR",
        "stateAbbreviation": "AR",
        "stateName": "Arkansas",
        "id": 1143190,
        "latitude": 34.74639,
        "longitude": -92.28944
      },
      {
        "numJobs": 158,
        "name": "Culver City, CA",
        "stateAbbreviation": "CA",
        "stateName": "California",
        "id": 1146771,
        "latitude": 34.02111,
        "longitude": -118.39556
      },
      {
        "numJobs": 158,
        "name": "Topeka, KS",
        "stateAbbreviation": "KS",
        "stateName": "Kansas",
        "id": 1151173,
        "latitude": 39.04833,
        "longitude": -95.67778
      },
      {
        "numJobs": 157,
        "name": "Richfield, MN",
        "stateAbbreviation": "MN",
        "stateName": "Minnesota",
        "id": 1162332,
        "latitude": 44.88333,
        "longitude": -93.28278
      },
      {
        "numJobs": 156,
        "name": "Quantico, VA",
        "stateAbbreviation": "VA",
        "stateName": "Virginia",
        "id": 1130401,
        "latitude": 38.52222,
        "longitude": -77.29389
      },
      {
        "numJobs": 153,
        "name": "Knoxville, TN",
        "stateAbbreviation": "TN",
        "stateName": "Tennessee",
        "id": 1144394,
        "latitude": 35.96056,
        "longitude": -83.92083
      },
      {
        "numJobs": 153,
        "name": "Crystal Lake, IL",
        "stateAbbreviation": "IL",
        "stateName": "Illinois",
        "id": 1128819,
        "latitude": 42.24111,
        "longitude": -88.31611
      },
      {
        "numJobs": 153,
        "name": "Ashburn, VA",
        "stateAbbreviation": "VA",
        "stateName": "Virginia",
        "id": 1130338,
        "latitude": 39.04361,
        "longitude": -77.48778
      },
      {
        "numJobs": 153,
        "name": "Syracuse, NY",
        "stateAbbreviation": "NY",
        "stateName": "New York",
        "id": 1132872,
        "latitude": 43.04806,
        "longitude": -76.14778
      },
      {
        "numJobs": 152,
        "name": "Saint Petersburg, FL",
        "stateAbbreviation": "FL",
        "stateName": "Florida",
        "id": 1154421,
        "latitude": 27.77056,
        "longitude": -82.67944
      },
      {
        "numJobs": 152,
        "name": "Tallahassee, FL",
        "stateAbbreviation": "FL",
        "stateName": "Florida",
        "id": 1154378,
        "latitude": 30.43806,
        "longitude": -84.28083
      },
      {
        "numJobs": 152,
        "name": "West Des Moines, IA",
        "stateAbbreviation": "IA",
        "stateName": "Iowa",
        "id": 1149284,
        "latitude": 41.57722,
        "longitude": -93.71111
      },
      {
        "numJobs": 151,
        "name": "Santa Ana, CA",
        "stateAbbreviation": "CA",
        "stateName": "California",
        "id": 1146870,
        "latitude": 33.74556,
        "longitude": -117.86694
      },
      {
        "numJobs": 150,
        "name": "Westlake, TX",
        "stateAbbreviation": "TX",
        "stateName": "Texas",
        "id": 1161600,
        "latitude": 32.99111,
        "longitude": -97.19472
      },
      {
        "numJobs": 150,
        "name": "Chattanooga, TN",
        "stateAbbreviation": "TN",
        "stateName": "Tennessee",
        "id": 1144251,
        "latitude": 35.04556,
        "longitude": -85.30972
      },
      {
        "numJobs": 150,
        "name": "Wichita, KS",
        "stateAbbreviation": "KS",
        "stateName": "Kansas",
        "id": 1151230,
        "latitude": 37.69222,
        "longitude": -97.33722
      },
      {
        "numJobs": 149,
        "name": "White Plains, NY",
        "stateAbbreviation": "NY",
        "stateName": "New York",
        "id": 1132464,
        "latitude": 41.03389,
        "longitude": -73.76333
      },
      {
        "numJobs": 149,
        "name": "Foster City, CA",
        "stateAbbreviation": "CA",
        "stateName": "California",
        "id": 1163997,
        "latitude": 37.55861,
        "longitude": -122.27
      },
      {
        "numJobs": 148,
        "name": "Bloomington, IN",
        "stateAbbreviation": "IN",
        "stateName": "Indiana",
        "id": 1144789,
        "latitude": 39.16528,
        "longitude": -86.52639
      },
      {
        "numJobs": 146,
        "name": "Melville, NY",
        "stateAbbreviation": "NY",
        "stateName": "New York",
        "id": 1132326,
        "latitude": 40.79333,
        "longitude": -73.41556
      },
      {
        "numJobs": 145,
        "name": "Lexington, MA",
        "stateAbbreviation": "MA",
        "stateName": "Massachusetts",
        "id": 1154599,
        "latitude": 42.44722,
        "longitude": -71.225
      },
      {
        "numJobs": 144,
        "name": "Glendale, CA",
        "stateAbbreviation": "CA",
        "stateName": "California",
        "id": 1146787,
        "latitude": 34.1425,
        "longitude": -118.25417
      },
      {
        "numJobs": 144,
        "name": "Horsham, PA",
        "stateAbbreviation": "PA",
        "stateName": "Pennsylvania",
        "id": 1152611,
        "latitude": 40.17833,
        "longitude": -75.12889
      },
      {
        "numJobs": 143,
        "name": "Sioux Falls, SD",
        "stateAbbreviation": "SD",
        "stateName": "South Dakota",
        "id": 1141041,
        "latitude": 43.55,
        "longitude": -96.7
      },
      {
        "numJobs": 142,
        "name": "Aurora, CO",
        "stateAbbreviation": "CO",
        "stateName": "Colorado",
        "id": 1148156,
        "latitude": 39.72944,
        "longitude": -104.83139
      },
      {
        "numJobs": 141,
        "name": "Marlborough, MA",
        "stateAbbreviation": "MA",
        "stateName": "Massachusetts",
        "id": 1154610,
        "latitude": 42.34583,
        "longitude": -71.55278
      },
      {
        "numJobs": 141,
        "name": "Lake Mary, FL",
        "stateAbbreviation": "FL",
        "stateName": "Florida",
        "id": 1154234,
        "latitude": 28.75861,
        "longitude": -81.31806
      },
      {
        "numJobs": 141,
        "name": "Woodland Hills, CA",
        "stateAbbreviation": "CA",
        "stateName": "California",
        "id": 1146915,
        "latitude": 34.16833,
        "longitude": -118.605
      },
      {
        "numJobs": 140,
        "name": "Downers Grove, IL",
        "stateAbbreviation": "IL",
        "stateName": "Illinois",
        "id": 1128825,
        "latitude": 41.80889,
        "longitude": -88.01111
      },
      {
        "numJobs": 138,
        "name": "Auburn Hills, MI",
        "stateAbbreviation": "MI",
        "stateName": "Michigan",
        "id": 1134622,
        "latitude": 42.6875,
        "longitude": -83.23417
      },
      {
        "numJobs": 138,
        "name": "Malvern, PA",
        "stateAbbreviation": "PA",
        "stateName": "Pennsylvania",
        "id": 1152639,
        "latitude": 40.03611,
        "longitude": -75.51417
      },
      {
        "numJobs": 136,
        "name": "Bloomington, MN",
        "stateAbbreviation": "MN",
        "stateName": "Minnesota",
        "id": 1162257,
        "latitude": 44.84083,
        "longitude": -93.29806
      },
      {
        "numJobs": 136,
        "name": "Walnut Creek, CA",
        "stateAbbreviation": "CA",
        "stateName": "California",
        "id": 1147417,
        "latitude": 37.90639,
        "longitude": -122.06389
      },
      {
        "numJobs": 134,
        "name": "Fresno, CA",
        "stateAbbreviation": "CA",
        "stateName": "California",
        "id": 1146705,
        "latitude": 36.74778,
        "longitude": -119.77139
      },
      {
        "numJobs": 134,
        "name": "Akron, OH",
        "stateAbbreviation": "OH",
        "stateName": "Ohio",
        "id": 1145529,
        "latitude": 41.08139,
        "longitude": -81.51917
      },
      {
        "numJobs": 134,
        "name": "Augusta, GA",
        "stateAbbreviation": "GA",
        "stateName": "Georgia",
        "id": 1155718,
        "latitude": 33.47083,
        "longitude": -81.975
      },
      {
        "numJobs": 134,
        "name": "Lansing, MI",
        "stateAbbreviation": "MI",
        "stateName": "Michigan",
        "id": 1134930,
        "latitude": 42.7325,
        "longitude": -84.55556
      },
      {
        "numJobs": 133,
        "name": "Silver Spring, MD",
        "stateAbbreviation": "MD",
        "stateName": "Maryland",
        "id": 1153904,
        "latitude": 38.99056,
        "longitude": -77.02639
      },
      {
        "numJobs": 133,
        "name": "Worcester, MA",
        "stateAbbreviation": "MA",
        "stateName": "Massachusetts",
        "id": 1154962,
        "latitude": 42.2625,
        "longitude": -71.80278
      },
      {
        "numJobs": 132,
        "name": "Fremont, CA",
        "stateAbbreviation": "CA",
        "stateName": "California",
        "id": 1147355,
        "latitude": 37.54833,
        "longitude": -121.9875
      },
      {
        "numJobs": 132,
        "name": "Merrimack, NH",
        "stateAbbreviation": "NH",
        "stateName": "New Hampshire",
        "id": 1147908,
        "latitude": 42.865,
        "longitude": -71.49389
      },
      {
        "numJobs": 131,
        "name": "South San Francisco, CA",
        "stateAbbreviation": "CA",
        "stateName": "California",
        "id": 1147412,
        "latitude": 37.65472,
        "longitude": -122.40667
      },
      {
        "numJobs": 130,
        "name": "Allentown, PA",
        "stateAbbreviation": "PA",
        "stateName": "Pennsylvania",
        "id": 1151916,
        "latitude": 40.60833,
        "longitude": -75.49056
      },
      {
        "numJobs": 130,
        "name": "Green Bay, WI",
        "stateAbbreviation": "WI",
        "stateName": "Wisconsin",
        "id": 1133406,
        "latitude": 44.51917,
        "longitude": -88.01972
      },
      {
        "numJobs": 128,
        "name": "Warren, NJ",
        "stateAbbreviation": "NJ",
        "stateName": "New Jersey",
        "id": 1127032,
        "latitude": 40.631565,
        "longitude": -74.508064
      },
      {
        "numJobs": 128,
        "name": "Chapel Hill, NC",
        "stateAbbreviation": "NC",
        "stateName": "North Carolina",
        "id": 1138696,
        "latitude": 35.91306,
        "longitude": -79.05611
      },
      {
        "numJobs": 127,
        "name": "Clearwater, FL",
        "stateAbbreviation": "FL",
        "stateName": "Florida",
        "id": 1154388,
        "latitude": 27.96556,
        "longitude": -82.80028
      },
      {
        "numJobs": 126,
        "name": "Reno, NV",
        "stateAbbreviation": "NV",
        "stateName": "Nevada",
        "id": 1149627,
        "latitude": 39.52972,
        "longitude": -119.81278
      },
      {
        "numJobs": 125,
        "name": "El Paso, TX",
        "stateAbbreviation": "TX",
        "stateName": "Texas",
        "id": 1140105,
        "latitude": 31.75861,
        "longitude": -106.48639
      },
      {
        "numJobs": 125,
        "name": "Riverwoods, IL",
        "stateAbbreviation": "IL",
        "stateName": "Illinois",
        "id": 1158094,
        "latitude": 42.1675,
        "longitude": -87.89694
      },
      {
        "numJobs": 124,
        "name": "Oak Brook, IL",
        "stateAbbreviation": "IL",
        "stateName": "Illinois",
        "id": 1128935,
        "latitude": 41.83278,
        "longitude": -87.92889
      },
      {
        "numJobs": 124,
        "name": "Columbus, GA",
        "stateAbbreviation": "GA",
        "stateName": "Georgia",
        "id": 1155778,
        "latitude": 32.46083,
        "longitude": -84.98778
      },
      {
        "numJobs": 124,
        "name": "West Palm Beach, FL",
        "stateAbbreviation": "FL",
        "stateName": "Florida",
        "id": 1154182,
        "latitude": 26.715,
        "longitude": -80.05361
      },
      {
        "numJobs": 124,
        "name": "Renton, WA",
        "stateAbbreviation": "WA",
        "stateName": "Washington",
        "id": 1150501,
        "latitude": 47.48306,
        "longitude": -122.21583
      },
      {
        "numJobs": 124,
        "name": "Norwalk, CT",
        "stateAbbreviation": "CT",
        "stateName": "Connecticut",
        "id": 1148344,
        "latitude": 41.1175,
        "longitude": -73.40833
      },
      {
        "numJobs": 123,
        "name": "Vancouver, WA",
        "stateAbbreviation": "WA",
        "stateName": "Washington",
        "id": 1150413,
        "latitude": 45.63889,
        "longitude": -122.66028
      },
      {
        "numJobs": 122,
        "name": "Greenville, SC",
        "stateAbbreviation": "SC",
        "stateName": "South Carolina",
        "id": 1155193,
        "latitude": 34.8525,
        "longitude": -82.39417
      },
      {
        "numJobs": 122,
        "name": "Hopkinton, MA",
        "stateAbbreviation": "MA",
        "stateName": "Massachusetts",
        "id": 1154589,
        "latitude": 42.22861,
        "longitude": -71.52306
      },
      {
        "numJobs": 122,
        "name": "Chandler, AZ",
        "stateAbbreviation": "AZ",
        "stateName": "Arizona",
        "id": 1133878,
        "latitude": 33.30611,
        "longitude": -111.84056
      },
      {
        "numJobs": 121,
        "name": "Marietta, GA",
        "stateAbbreviation": "GA",
        "stateName": "Georgia",
        "id": 1155654,
        "latitude": 33.9525,
        "longitude": -84.55
      },
      {
        "numJobs": 121,
        "name": "Towson, MD",
        "stateAbbreviation": "MD",
        "stateName": "Maryland",
        "id": 1153644,
        "latitude": 39.40139,
        "longitude": -76.60222
      },
      {
        "numJobs": 120,
        "name": "Anaheim, CA",
        "stateAbbreviation": "CA",
        "stateName": "California",
        "id": 1146743,
        "latitude": 33.83528,
        "longitude": -117.91361
      },
      {
        "numJobs": 120,
        "name": "Gaithersburg, MD",
        "stateAbbreviation": "MD",
        "stateName": "Maryland",
        "id": 1153852,
        "latitude": 39.14333,
        "longitude": -77.20167
      },
      {
        "numJobs": 120,
        "name": "Providence, RI",
        "stateAbbreviation": "RI",
        "stateName": "Rhode Island",
        "id": 1151289,
        "latitude": 41.82389,
        "longitude": -71.41333
      },
      {
        "numJobs": 120,
        "name": "Smithfield, RI",
        "stateAbbreviation": "RI",
        "stateName": "Rhode Island",
        "id": 1151298,
        "latitude": 41.92194,
        "longitude": -71.55
      },
      {
        "numJobs": 120,
        "name": "Lancaster, PA",
        "stateAbbreviation": "PA",
        "stateName": "Pennsylvania",
        "id": 1152360,
        "latitude": 40.03778,
        "longitude": -76.30583
      },
      {
        "numJobs": 116,
        "name": "Carrollton, TX",
        "stateAbbreviation": "TX",
        "stateName": "Texas",
        "id": 1139964,
        "latitude": 32.95361,
        "longitude": -96.89
      },
      {
        "numJobs": 116,
        "name": "Newark, DE",
        "stateAbbreviation": "DE",
        "stateName": "Delaware",
        "id": 1156369,
        "latitude": 39.68361,
        "longitude": -75.75
      },
      {
        "numJobs": 116,
        "name": "Framingham, MA",
        "stateAbbreviation": "MA",
        "stateName": "Massachusetts",
        "id": 1154571,
        "latitude": 42.27917,
        "longitude": -71.41667
      },
      {
        "numJobs": 115,
        "name": "Emeryville, CA",
        "stateAbbreviation": "CA",
        "stateName": "California",
        "id": 1147352,
        "latitude": 37.83139,
        "longitude": -122.28417
      },
      {
        "numJobs": 114,
        "name": "Carmel, IN",
        "stateAbbreviation": "IN",
        "stateName": "Indiana",
        "id": 1144991,
        "latitude": 39.97833,
        "longitude": -86.11806
      },
      {
        "numJobs": 114,
        "name": "Duluth, GA",
        "stateAbbreviation": "GA",
        "stateName": "Georgia",
        "id": 1155612,
        "latitude": 34.00278,
        "longitude": -84.14472
      },
      {
        "numJobs": 114,
        "name": "Riverside, CA",
        "stateAbbreviation": "CA",
        "stateName": "California",
        "id": 1147138,
        "latitude": 33.95333,
        "longitude": -117.39528
      },
      {
        "numJobs": 113,
        "name": "Fort Wayne, IN",
        "stateAbbreviation": "IN",
        "stateName": "Indiana",
        "id": 1144939,
        "latitude": 41.13056,
        "longitude": -85.12889
      },
      {
        "numJobs": 113,
        "name": "Boulder, CO",
        "stateAbbreviation": "CO",
        "stateName": "Colorado",
        "id": 1148112,
        "latitude": 40.015,
        "longitude": -105.27
      },
      {
        "numJobs": 112,
        "name": "Chesterfield, MO",
        "stateAbbreviation": "MO",
        "stateName": "Missouri",
        "id": 1131207,
        "latitude": 38.66306,
        "longitude": -90.57694
      },
      {
        "numJobs": 111,
        "name": "Newport Beach, CA",
        "stateAbbreviation": "CA",
        "stateName": "California",
        "id": 1146837,
        "latitude": 33.61889,
        "longitude": -117.92806
      },
      {
        "numJobs": 111,
        "name": "Fort Myers, FL",
        "stateAbbreviation": "FL",
        "stateName": "Florida",
        "id": 1154016,
        "latitude": 26.64028,
        "longitude": -81.8725
      },
      {
        "numJobs": 111,
        "name": "Tacoma, WA",
        "stateAbbreviation": "WA",
        "stateName": "Washington",
        "id": 1150517,
        "latitude": 47.25306,
        "longitude": -122.44306
      },
      {
        "numJobs": 111,
        "name": "East Hartford, CT",
        "stateAbbreviation": "CT",
        "stateName": "Connecticut",
        "id": 1148388,
        "latitude": 41.78222,
        "longitude": -72.6125
      },
      {
        "numJobs": 110,
        "name": "Mount Laurel, NJ",
        "stateAbbreviation": "NJ",
        "stateName": "New Jersey",
        "id": 1127131,
        "latitude": 39.93389,
        "longitude": -74.89139
      },
      {
        "numJobs": 110,
        "name": "Aberdeen Proving Ground, MD",
        "stateAbbreviation": "MD",
        "stateName": "Maryland",
        "id": 1153521,
        "latitude": 39.430157,
        "longitude": -76.2193
      },
      {
        "numJobs": 110,
        "name": "Melbourne, FL",
        "stateAbbreviation": "FL",
        "stateName": "Florida",
        "id": 1154286,
        "latitude": 28.08333,
        "longitude": -80.60833
      },
      {
        "numJobs": 109,
        "name": "Dulles, VA",
        "stateAbbreviation": "VA",
        "stateName": "Virginia",
        "id": 1130356,
        "latitude": 39.073128,
        "longitude": -77.4685
      },
      {
        "numJobs": 109,
        "name": "Elk Grove Village, IL",
        "stateAbbreviation": "IL",
        "stateName": "Illinois",
        "id": 1158001,
        "latitude": 42.00389,
        "longitude": -87.97028
      },
      {
        "numJobs": 109,
        "name": "Remote, OR",
        "stateAbbreviation": "OR",
        "stateName": "Oregon",
        "id": 1165008,
        "latitude": 43.00611,
        "longitude": -123.89139
      },
      {
        "numJobs": 108,
        "name": "Spokane, WA",
        "stateAbbreviation": "WA",
        "stateName": "Washington",
        "id": 1150554,
        "latitude": 47.65889,
        "longitude": -117.425
      },
      {
        "numJobs": 107,
        "name": "Frederick, MD",
        "stateAbbreviation": "MD",
        "stateName": "Maryland",
        "id": 1153851,
        "latitude": 39.41417,
        "longitude": -77.41083
      },
      {
        "numJobs": 107,
        "name": "Kalamazoo, MI",
        "stateAbbreviation": "MI",
        "stateName": "Michigan",
        "id": 1134900,
        "latitude": 42.29167,
        "longitude": -85.58722
      },
      {
        "numJobs": 107,
        "name": "Greenwood Village, Arapahoe, CO",
        "stateAbbreviation": "CO",
        "stateName": "Colorado",
        "id": 1164301,
        "latitude": 39.61722,
        "longitude": -104.95028
      },
      {
        "numJobs": 107,
        "name": "Carlsbad, CA",
        "stateAbbreviation": "CA",
        "stateName": "California",
        "id": 1147279,
        "latitude": 33.15806,
        "longitude": -117.34972
      },
      {
        "numJobs": 106,
        "name": "Plymouth, MN",
        "stateAbbreviation": "MN",
        "stateName": "Minnesota",
        "id": 1162329,
        "latitude": 45.01056,
        "longitude": -93.45528
      },
      {
        "numJobs": 105,
        "name": "Portland, ME",
        "stateAbbreviation": "ME",
        "stateName": "Maine",
        "id": 1135898,
        "latitude": 43.66139,
        "longitude": -70.25583
      },
      {
        "numJobs": 105,
        "name": "Bothell, WA",
        "stateAbbreviation": "WA",
        "stateName": "Washington",
        "id": 1150445,
        "latitude": 47.7625,
        "longitude": -122.20417
      },
      {
        "numJobs": 105,
        "name": "Santa Barbara, CA",
        "stateAbbreviation": "CA",
        "stateName": "California",
        "id": 1147473,
        "latitude": 34.42083,
        "longitude": -119.69722
      },
      {
        "numJobs": 105,
        "name": "Rocklin, CA",
        "stateAbbreviation": "CA",
        "stateName": "California",
        "id": 1147225,
        "latitude": 38.79083,
        "longitude": -121.23472
      },
      {
        "numJobs": 103,
        "name": "Bozeman, MT",
        "stateAbbreviation": "MT",
        "stateName": "Montana",
        "id": 1135421,
        "latitude": 45.67972,
        "longitude": -111.03778
      },
      {
        "numJobs": 103,
        "name": "Newtown Square, PA",
        "stateAbbreviation": "PA",
        "stateName": "Pennsylvania",
        "id": 1152655,
        "latitude": 39.98667,
        "longitude": -75.40139
      },
      {
        "numJobs": 103,
        "name": "Springfield, MO",
        "stateAbbreviation": "MO",
        "stateName": "Missouri",
        "id": 1131348,
        "latitude": 37.21528,
        "longitude": -93.29806
      },
      {
        "numJobs": 103,
        "name": "Greenwich, CT",
        "stateAbbreviation": "CT",
        "stateName": "Connecticut",
        "id": 1148338,
        "latitude": 41.02639,
        "longitude": -73.62889
      },
      {
        "numJobs": 102,
        "name": "Buffalo Grove, IL",
        "stateAbbreviation": "IL",
        "stateName": "Illinois",
        "id": 1128800,
        "latitude": 42.15139,
        "longitude": -87.95972
      },
      {
        "numJobs": 102,
        "name": "Farmington Hills, MI",
        "stateAbbreviation": "MI",
        "stateName": "Michigan",
        "id": 1159753,
        "latitude": 42.48528,
        "longitude": -83.37722
      },
      {
        "numJobs": 102,
        "name": "Altamonte Springs, FL",
        "stateAbbreviation": "FL",
        "stateName": "Florida",
        "id": 1154211,
        "latitude": 28.66083,
        "longitude": -81.36583
      },
      {
        "numJobs": 102,
        "name": "Carson City, NV",
        "stateAbbreviation": "NV",
        "stateName": "Nevada",
        "id": 1149563,
        "latitude": 39.16389,
        "longitude": -119.76639
      },
      {
        "numJobs": 101,
        "name": "Daytona Beach, FL",
        "stateAbbreviation": "FL",
        "stateName": "Florida",
        "id": 1154028,
        "latitude": 29.21056,
        "longitude": -81.02306
      },
      {
        "numJobs": 101,
        "name": "Quincy, MA",
        "stateAbbreviation": "MA",
        "stateName": "Massachusetts",
        "id": 1154667,
        "latitude": 42.25278,
        "longitude": -71.00278
      },
      {
        "numJobs": 101,
        "name": "Cranston, RI",
        "stateAbbreviation": "RI",
        "stateName": "Rhode Island",
        "id": 1151253,
        "latitude": 41.77972,
        "longitude": -71.43778
      },
      {
        "numJobs": 101,
        "name": "Berkeley, CA",
        "stateAbbreviation": "CA",
        "stateName": "California",
        "id": 1147330,
        "latitude": 37.87167,
        "longitude": -122.27167
      },
      {
        "numJobs": 100,
        "name": "Manchester, NH",
        "stateAbbreviation": "NH",
        "stateName": "New Hampshire",
        "id": 1147907,
        "latitude": 42.99556,
        "longitude": -71.45528
      },
      {
        "numJobs": 100,
        "name": "Fort Collins, CO",
        "stateAbbreviation": "CO",
        "stateName": "Colorado",
        "id": 1148233,
        "latitude": 40.58528,
        "longitude": -105.08389
      },
      {
        "numJobs": 99,
        "name": "Salem, OR",
        "stateAbbreviation": "OR",
        "stateName": "Oregon",
        "id": 1151682,
        "latitude": 44.94306,
        "longitude": -123.03389
      },
      {
        "numJobs": 99,
        "name": "Concord, CA",
        "stateAbbreviation": "CA",
        "stateName": "California",
        "id": 1147340,
        "latitude": 37.97806,
        "longitude": -122.03
      },
      {
        "numJobs": 99,
        "name": "Littleton, CO",
        "stateAbbreviation": "CO",
        "stateName": "Colorado",
        "id": 1148194,
        "latitude": 39.61333,
        "longitude": -105.01611
      },
      {
        "numJobs": 98,
        "name": "Savannah, GA",
        "stateAbbreviation": "GA",
        "stateName": "Georgia",
        "id": 1155906,
        "latitude": 32.08333,
        "longitude": -81.1
      },
      {
        "numJobs": 96,
        "name": "Morristown, NJ",
        "stateAbbreviation": "NJ",
        "stateName": "New Jersey",
        "id": 1126891,
        "latitude": 40.79667,
        "longitude": -74.48194
      },
      {
        "numJobs": 96,
        "name": "Eagan, MN",
        "stateAbbreviation": "MN",
        "stateName": "Minnesota",
        "id": 1162274,
        "latitude": 44.80417,
        "longitude": -93.16667
      },
      {
        "numJobs": 96,
        "name": "Bloomington, IL",
        "stateAbbreviation": "IL",
        "stateName": "Illinois",
        "id": 1128636,
        "latitude": 40.48417,
        "longitude": -88.99361
      },
      {
        "numJobs": 96,
        "name": "Grapevine, TX",
        "stateAbbreviation": "TX",
        "stateName": "Texas",
        "id": 1139999,
        "latitude": 32.93417,
        "longitude": -97.07778
      },
      {
        "numJobs": 95,
        "name": "Round Rock, TX",
        "stateAbbreviation": "TX",
        "stateName": "Texas",
        "id": 1139794,
        "latitude": 30.50806,
        "longitude": -97.67861
      },
      {
        "numJobs": 95,
        "name": "Valencia, CA",
        "stateAbbreviation": "CA",
        "stateName": "California",
        "id": 1146899,
        "latitude": 34.44361,
        "longitude": -118.60861
      },
      {
        "numJobs": 94,
        "name": "Lexington-Fayette, KY",
        "stateAbbreviation": "KY",
        "stateName": "Kentucky",
        "id": 3749474,
        "latitude": 38.04972,
        "longitude": -84.45861
      },
      {
        "numJobs": 94,
        "name": "Pensacola, FL",
        "stateAbbreviation": "FL",
        "stateName": "Florida",
        "id": 1154318,
        "latitude": 30.42111,
        "longitude": -87.21694
      },
      {
        "numJobs": 92,
        "name": "Iselin, NJ",
        "stateAbbreviation": "NJ",
        "stateName": "New Jersey",
        "id": 1126816,
        "latitude": 40.57528,
        "longitude": -74.32278
      },
      {
        "numJobs": 92,
        "name": "Mason, OH",
        "stateAbbreviation": "OH",
        "stateName": "Ohio",
        "id": 1145728,
        "latitude": 39.36,
        "longitude": -84.31
      },
      {
        "numJobs": 92,
        "name": "Lewisville, TX",
        "stateAbbreviation": "TX",
        "stateName": "Texas",
        "id": 1140022,
        "latitude": 33.047523,
        "longitude": -96.99417
      },
      {
        "numJobs": 91,
        "name": "Lincolnshire, IL",
        "stateAbbreviation": "IL",
        "stateName": "Illinois",
        "id": 1128898,
        "latitude": 42.19,
        "longitude": -87.90833
      },
      {
        "numJobs": 91,
        "name": "Fort Gordon, GA",
        "stateAbbreviation": "GA",
        "stateName": "Georgia",
        "id": 1166835,
        "latitude": 33.42083,
        "longitude": -82.16222
      },
      {
        "numJobs": 91,
        "name": "Milpitas, CA",
        "stateAbbreviation": "CA",
        "stateName": "California",
        "id": 1147428,
        "latitude": 37.42833,
        "longitude": -121.90556
      },
      {
        "numJobs": 91,
        "name": "Anchorage, AK",
        "stateAbbreviation": "AK",
        "stateName": "Alaska",
        "id": 1134201,
        "latitude": 61.21806,
        "longitude": -149.90028
      },
      {
        "numJobs": 90,
        "name": "Bakersfield, CA",
        "stateAbbreviation": "CA",
        "stateName": "California",
        "id": 1146557,
        "latitude": 35.37333,
        "longitude": -119.01778
      },
      {
        "numJobs": 90,
        "name": "Brea, CA",
        "stateAbbreviation": "CA",
        "stateName": "California",
        "id": 1146754,
        "latitude": 33.91667,
        "longitude": -117.89917
      },
      {
        "numJobs": 90,
        "name": "Frisco, TX",
        "stateAbbreviation": "TX",
        "stateName": "Texas",
        "id": 1139994,
        "latitude": 33.15056,
        "longitude": -96.82333
      },
      {
        "numJobs": 90,
        "name": "Warren, MI",
        "stateAbbreviation": "MI",
        "stateName": "Michigan",
        "id": 1134741,
        "latitude": 42.4775,
        "longitude": -83.02778
      },
      {
        "numJobs": 90,
        "name": "Modesto, CA",
        "stateAbbreviation": "CA",
        "stateName": "California",
        "id": 1146953,
        "latitude": 37.63917,
        "longitude": -120.99583
      },
      {
        "numJobs": 89,
        "name": "Mobile, AL",
        "stateAbbreviation": "AL",
        "stateName": "Alabama",
        "id": 1127676,
        "latitude": 30.69417,
        "longitude": -88.04306
      },
      {
        "numJobs": 89,
        "name": "Newport News, VA",
        "stateAbbreviation": "VA",
        "stateName": "Virginia",
        "id": 1130305,
        "latitude": 36.97861,
        "longitude": -76.42833
      },
      {
        "numJobs": 89,
        "name": "Rancho Cordova, CA",
        "stateAbbreviation": "CA",
        "stateName": "California",
        "id": 1147221,
        "latitude": 38.58917,
        "longitude": -121.30167
      },
      {
        "numJobs": 88,
        "name": "Wayne, NJ",
        "stateAbbreviation": "NJ",
        "stateName": "New Jersey",
        "id": 1127034,
        "latitude": 40.92528,
        "longitude": -74.27694
      },
      {
        "numJobs": 88,
        "name": "Coppell, TX",
        "stateAbbreviation": "TX",
        "stateName": "Texas",
        "id": 1139974,
        "latitude": 32.95444,
        "longitude": -97.01472
      },
      {
        "numJobs": 88,
        "name": "Bethlehem, PA",
        "stateAbbreviation": "PA",
        "stateName": "Pennsylvania",
        "id": 1151922,
        "latitude": 40.62583,
        "longitude": -75.37083
      },
      {
        "numJobs": 88,
        "name": "Plymouth Meeting, PA",
        "stateAbbreviation": "PA",
        "stateName": "Pennsylvania",
        "id": 1152677,
        "latitude": 40.10222,
        "longitude": -75.27472
      },
      {
        "numJobs": 87,
        "name": "Novi, MI",
        "stateAbbreviation": "MI",
        "stateName": "Michigan",
        "id": 1134704,
        "latitude": 42.48056,
        "longitude": -83.47556
      },
      {
        "numJobs": 87,
        "name": "Roseville, CA",
        "stateAbbreviation": "CA",
        "stateName": "California",
        "id": 1147226,
        "latitude": 38.75222,
        "longitude": -121.28694
      },
      {
        "numJobs": 86,
        "name": "Itasca, IL",
        "stateAbbreviation": "IL",
        "stateName": "Illinois",
        "id": 1128879,
        "latitude": 41.975,
        "longitude": -88.00722
      },
      {
        "numJobs": 86,
        "name": "Allen, TX",
        "stateAbbreviation": "TX",
        "stateName": "Texas",
        "id": 1139946,
        "latitude": 33.10306,
        "longitude": -96.67028
      },
      {
        "numJobs": 86,
        "name": "West Chester, PA",
        "stateAbbreviation": "PA",
        "stateName": "Pennsylvania",
        "id": 1152733,
        "latitude": 39.96056,
        "longitude": -75.60583
      },
      {
        "numJobs": 86,
        "name": "San Rafael, CA",
        "stateAbbreviation": "CA",
        "stateName": "California",
        "id": 1147409,
        "latitude": 37.97361,
        "longitude": -122.53
      },
      {
        "numJobs": 85,
        "name": "Cypress, CA",
        "stateAbbreviation": "CA",
        "stateName": "California",
        "id": 1146772,
        "latitude": 33.81694,
        "longitude": -118.03639
      },
      {
        "numJobs": 85,
        "name": "Annapolis, MD",
        "stateAbbreviation": "MD",
        "stateName": "Maryland",
        "id": 1153523,
        "latitude": 38.97833,
        "longitude": -76.4925
      },
      {
        "numJobs": 85,
        "name": "Headquarters, KY",
        "stateAbbreviation": "KY",
        "stateName": "Kentucky",
        "id": 3752857,
        "latitude": 38.35833,
        "longitude": -84.11444
      },
      {
        "numJobs": 84,
        "name": "Peoria, IL",
        "stateAbbreviation": "IL",
        "stateName": "Illinois",
        "id": 1129349,
        "latitude": 40.69361,
        "longitude": -89.58889
      },
      {
        "numJobs": 84,
        "name": "Rochester, MN",
        "stateAbbreviation": "MN",
        "stateName": "Minnesota",
        "id": 1142638,
        "latitude": 44.02167,
        "longitude": -92.46972
      },
      {
        "numJobs": 84,
        "name": "Sarasota, FL",
        "stateAbbreviation": "FL",
        "stateName": "Florida",
        "id": 1154350,
        "latitude": 27.33611,
        "longitude": -82.53083
      },
      {
        "numJobs": 84,
        "name": "Lexington Park, MD",
        "stateAbbreviation": "MD",
        "stateName": "Maryland",
        "id": 1165827,
        "latitude": 38.26667,
        "longitude": -76.45417
      },
      {
        "numJobs": 84,
        "name": "Fairfield, CA",
        "stateAbbreviation": "CA",
        "stateName": "California",
        "id": 1147605,
        "latitude": 38.24944,
        "longitude": -122.03889
      },
      {
        "numJobs": 83,
        "name": "Morrisville, NC",
        "stateAbbreviation": "NC",
        "stateName": "North Carolina",
        "id": 1138956,
        "latitude": 35.82333,
        "longitude": -78.82583
      },
      {
        "numJobs": 83,
        "name": "Norcross, GA",
        "stateAbbreviation": "GA",
        "stateName": "Georgia",
        "id": 1155667,
        "latitude": 33.94111,
        "longitude": -84.21361
      },
      {
        "numJobs": 82,
        "name": "Edison, NJ",
        "stateAbbreviation": "NJ",
        "stateName": "New Jersey",
        "id": 1126748,
        "latitude": 40.52424,
        "longitude": -74.41246
      },
      {
        "numJobs": 82,
        "name": "Research Triangle Park, NC",
        "stateAbbreviation": "NC",
        "stateName": "North Carolina",
        "id": 1161290,
        "latitude": 35.90657,
        "longitude": -78.8633
      },
      {
        "numJobs": 82,
        "name": "Roseland, NJ",
        "stateAbbreviation": "NJ",
        "stateName": "New Jersey",
        "id": 1126969,
        "latitude": 40.82056,
        "longitude": -74.29417
      },
      {
        "numJobs": 82,
        "name": "Denton, TX",
        "stateAbbreviation": "TX",
        "stateName": "Texas",
        "id": 1139980,
        "latitude": 33.21472,
        "longitude": -97.13278
      },
      {
        "numJobs": 82,
        "name": "Rosemont, IL",
        "stateAbbreviation": "IL",
        "stateName": "Illinois",
        "id": 1158097,
        "latitude": 38.62694,
        "longitude": -90.09722
      },
      {
        "numJobs": 82,
        "name": "Watertown, MA",
        "stateAbbreviation": "MA",
        "stateName": "Massachusetts",
        "id": 1154705,
        "latitude": 42.37083,
        "longitude": -71.18333
      },
      {
        "numJobs": 82,
        "name": "West Sacramento, CA",
        "stateAbbreviation": "CA",
        "stateName": "California",
        "id": 1147241,
        "latitude": 38.58056,
        "longitude": -121.52917
      },
      {
        "numJobs": 82,
        "name": "Shelton, CT",
        "stateAbbreviation": "CT",
        "stateName": "Connecticut",
        "id": 1148352,
        "latitude": 41.31639,
        "longitude": -73.09361
      },
      {
        "numJobs": 81,
        "name": "Southlake, TX",
        "stateAbbreviation": "TX",
        "stateName": "Texas",
        "id": 1140065,
        "latitude": 32.94111,
        "longitude": -97.13389
      },
      {
        "numJobs": 81,
        "name": "Aberdeen, MD",
        "stateAbbreviation": "MD",
        "stateName": "Maryland",
        "id": 1153520,
        "latitude": 39.50944,
        "longitude": -76.16444
      },
      {
        "numJobs": 80,
        "name": "Hoboken, NJ",
        "stateAbbreviation": "NJ",
        "stateName": "New Jersey",
        "id": 1126809,
        "latitude": 40.74389,
        "longitude": -74.03278
      },
      {
        "numJobs": 80,
        "name": "Camden, NJ",
        "stateAbbreviation": "NJ",
        "stateName": "New Jersey",
        "id": 1127087,
        "latitude": 39.92583,
        "longitude": -75.12
      },
      {
        "numJobs": 80,
        "name": "Evanston, IL",
        "stateAbbreviation": "IL",
        "stateName": "Illinois",
        "id": 1128835,
        "latitude": 42.04111,
        "longitude": -87.69
      },
      {
        "numJobs": 80,
        "name": "Amarillo, TX",
        "stateAbbreviation": "TX",
        "stateName": "Texas",
        "id": 1139740,
        "latitude": 35.22194,
        "longitude": -101.83083
      },
      {
        "numJobs": 80,
        "name": "Fayetteville, NC",
        "stateAbbreviation": "NC",
        "stateName": "North Carolina",
        "id": 1138720,
        "latitude": 35.0525,
        "longitude": -78.87861
      },
      {
        "numJobs": 80,
        "name": "Everett, WA",
        "stateAbbreviation": "WA",
        "stateName": "Washington",
        "id": 1150458,
        "latitude": 47.97917,
        "longitude": -122.20083
      },
      {
        "numJobs": 79,
        "name": "Jackson, MS",
        "stateAbbreviation": "MS",
        "stateName": "Mississippi",
        "id": 1141371,
        "latitude": 32.29861,
        "longitude": -90.18472
      },
      {
        "numJobs": 79,
        "name": "Coral Gables, FL",
        "stateAbbreviation": "FL",
        "stateName": "Florida",
        "id": 1166105,
        "latitude": 25.72111,
        "longitude": -80.26861
      },
      {
        "numJobs": 79,
        "name": "Los Gatos, CA",
        "stateAbbreviation": "CA",
        "stateName": "California",
        "id": 1147427,
        "latitude": 37.22667,
        "longitude": -121.97361
      },
      {
        "numJobs": 79,
        "name": "Portsmouth, NH",
        "stateAbbreviation": "NH",
        "stateName": "New Hampshire",
        "id": 1147753,
        "latitude": 43.07167,
        "longitude": -70.76306
      },
      {
        "numJobs": 79,
        "name": "Dover, NH",
        "stateAbbreviation": "NH",
        "stateName": "New Hampshire",
        "id": 1147721,
        "latitude": 43.19778,
        "longitude": -70.87417
      },
      {
        "numJobs": 79,
        "name": "Brookfield, WI",
        "stateAbbreviation": "WI",
        "stateName": "Wisconsin",
        "id": 1133554,
        "latitude": 43.06056,
        "longitude": -88.10639
      },
      {
        "numJobs": 79,
        "name": "Westminster, CO",
        "stateAbbreviation": "CO",
        "stateName": "Colorado",
        "id": 1148207,
        "latitude": 39.83667,
        "longitude": -105.03667
      },
      {
        "numJobs": 78,
        "name": "Cherry Hill, NJ",
        "stateAbbreviation": "NJ",
        "stateName": "New Jersey",
        "id": 1127090,
        "latitude": 39.90461,
        "longitude": -74.997
      },
      {
        "numJobs": 78,
        "name": "Lubbock, TX",
        "stateAbbreviation": "TX",
        "stateName": "Texas",
        "id": 1140320,
        "latitude": 33.57778,
        "longitude": -101.85472
      },
      {
        "numJobs": 78,
        "name": "Clayton, MO",
        "stateAbbreviation": "MO",
        "stateName": "Missouri",
        "id": 1158732,
        "latitude": 38.6425,
        "longitude": -90.32361
      },
      {
        "numJobs": 78,
        "name": "Westborough, MA",
        "stateAbbreviation": "MA",
        "stateName": "Massachusetts",
        "id": 1154956,
        "latitude": 42.26944,
        "longitude": -71.61667
      },
      {
        "numJobs": 78,
        "name": "Gainesville, FL",
        "stateAbbreviation": "FL",
        "stateName": "Florida",
        "id": 1154062,
        "latitude": 29.65139,
        "longitude": -82.325
      },
      {
        "numJobs": 78,
        "name": "Dublin, CA",
        "stateAbbreviation": "CA",
        "stateName": "California",
        "id": 1147348,
        "latitude": 37.70222,
        "longitude": -121.93472
      },
      {
        "numJobs": 77,
        "name": "Piscataway, NJ",
        "stateAbbreviation": "NJ",
        "stateName": "New Jersey",
        "id": 1126940,
        "latitude": 40.49917,
        "longitude": -74.39944
      },
      {
        "numJobs": 77,
        "name": "Lake Forest, IL",
        "stateAbbreviation": "IL",
        "stateName": "Illinois",
        "id": 1128891,
        "latitude": 42.25861,
        "longitude": -87.84056
      },
      {
        "numJobs": 77,
        "name": "Beverly Hills, CA",
        "stateAbbreviation": "CA",
        "stateName": "California",
        "id": 1146753,
        "latitude": 34.07361,
        "longitude": -118.39944
      },
      {
        "numJobs": 77,
        "name": "Evansville, IN",
        "stateAbbreviation": "IN",
        "stateName": "Indiana",
        "id": 1144913,
        "latitude": 37.97472,
        "longitude": -87.55583
      },
      {
        "numJobs": 77,
        "name": "Andover, MA",
        "stateAbbreviation": "MA",
        "stateName": "Massachusetts",
        "id": 1154518,
        "latitude": 42.65833,
        "longitude": -71.1375
      },
      {
        "numJobs": 77,
        "name": "Miramar, FL",
        "stateAbbreviation": "FL",
        "stateName": "Florida",
        "id": 1166164,
        "latitude": 25.98694,
        "longitude": -80.2325
      },
      {
        "numJobs": 77,
        "name": "New Haven, CT",
        "stateAbbreviation": "CT",
        "stateName": "Connecticut",
        "id": 1148466,
        "latitude": 41.30806,
        "longitude": -72.92861
      },
      {
        "numJobs": 75,
        "name": "Hoffman Estates, IL",
        "stateAbbreviation": "IL",
        "stateName": "Illinois",
        "id": 1128872,
        "latitude": 42.086994,
        "longitude": -88.11034
      },
      {
        "numJobs": 75,
        "name": "Toledo, OH",
        "stateAbbreviation": "OH",
        "stateName": "Ohio",
        "id": 1146248,
        "latitude": 41.66389,
        "longitude": -83.55528
      },
      {
        "numJobs": 75,
        "name": "Suitland, MD",
        "stateAbbreviation": "MD",
        "stateName": "Maryland",
        "id": 1153909,
        "latitude": 38.84861,
        "longitude": -76.92417
      },
      {
        "numJobs": 74,
        "name": "Addison, TX",
        "stateAbbreviation": "TX",
        "stateName": "Texas",
        "id": 1139944,
        "latitude": 32.96167,
        "longitude": -96.82889
      },
      {
        "numJobs": 74,
        "name": "York, PA",
        "stateAbbreviation": "PA",
        "stateName": "Pennsylvania",
        "id": 1153468,
        "latitude": 39.9625,
        "longitude": -76.72806
      },
      {
        "numJobs": 74,
        "name": "Sunrise, FL",
        "stateAbbreviation": "FL",
        "stateName": "Florida",
        "id": 1166212,
        "latitude": 26.13361,
        "longitude": -80.11333
      },
      {
        "numJobs": 73,
        "name": "Hanover, MD",
        "stateAbbreviation": "MD",
        "stateName": "Maryland",
        "id": 1153584,
        "latitude": 39.19278,
        "longitude": -76.72444
      },
      {
        "numJobs": 73,
        "name": "New Bedford, MA",
        "stateAbbreviation": "MA",
        "stateName": "Massachusetts",
        "id": 1154781,
        "latitude": 41.63611,
        "longitude": -70.93472
      },
      {
        "numJobs": 73,
        "name": "Wayne, PA",
        "stateAbbreviation": "PA",
        "stateName": "Pennsylvania",
        "id": 1152732,
        "latitude": 40.04389,
        "longitude": -75.38806
      },
      {
        "numJobs": 73,
        "name": "Minden, NV",
        "stateAbbreviation": "NV",
        "stateName": "Nevada",
        "id": 1149593,
        "latitude": 38.95417,
        "longitude": -119.76472
      },
      {
        "numJobs": 72,
        "name": "Weehawken, NJ",
        "stateAbbreviation": "NJ",
        "stateName": "New Jersey",
        "id": 1127035,
        "latitude": 40.76944,
        "longitude": -74.02083
      },
      {
        "numJobs": 72,
        "name": "Greenville, NC",
        "stateAbbreviation": "NC",
        "stateName": "North Carolina",
        "id": 1138785,
        "latitude": 35.6125,
        "longitude": -77.36667
      },
      {
        "numJobs": 72,
        "name": "Fort Mill, SC",
        "stateAbbreviation": "SC",
        "stateName": "South Carolina",
        "id": 1155108,
        "latitude": 35.00722,
        "longitude": -80.94528
      },
      {
        "numJobs": 72,
        "name": "Genoa, NV",
        "stateAbbreviation": "NV",
        "stateName": "Nevada",
        "id": 1149591,
        "latitude": 39.00444,
        "longitude": -119.84611
      },
      {
        "numJobs": 71,
        "name": "The Woodlands, TX",
        "stateAbbreviation": "TX",
        "stateName": "Texas",
        "id": 1161666,
        "latitude": 30.15778,
        "longitude": -95.48917
      },
      {
        "numJobs": 71,
        "name": "Fargo, ND",
        "stateAbbreviation": "ND",
        "stateName": "North Dakota",
        "id": 1156255,
        "latitude": 46.87722,
        "longitude": -96.78944
      },
      {
        "numJobs": 71,
        "name": "Fort George G Meade, MD",
        "stateAbbreviation": "MD",
        "stateName": "Maryland",
        "id": 1153566,
        "latitude": 39.10968,
        "longitude": -76.73694
      },
      {
        "numJobs": 71,
        "name": "Owings Mills, MD",
        "stateAbbreviation": "MD",
        "stateName": "Maryland",
        "id": 1153614,
        "latitude": 39.41944,
        "longitude": -76.78056
      },
      {
        "numJobs": 71,
        "name": "Bronx, NY",
        "stateAbbreviation": "NY",
        "stateName": "New York",
        "id": 1132197,
        "latitude": 40.85,
        "longitude": -73.86667
      },
      {
        "numJobs": 71,
        "name": "Ontario, CA",
        "stateAbbreviation": "CA",
        "stateName": "California",
        "id": 1147122,
        "latitude": 34.06333,
        "longitude": -117.65
      },
      {
        "numJobs": 70,
        "name": "Hagerstown, MD",
        "stateAbbreviation": "MD",
        "stateName": "Maryland",
        "id": 1153716,
        "latitude": 39.64167,
        "longitude": -77.72028
      },
      {
        "numJobs": 70,
        "name": "Naples, FL",
        "stateAbbreviation": "FL",
        "stateName": "Florida",
        "id": 1154189,
        "latitude": 26.14167,
        "longitude": -81.795
      },
      {
        "numJobs": 70,
        "name": "Windsor, CT",
        "stateAbbreviation": "CT",
        "stateName": "Connecticut",
        "id": 1148450,
        "latitude": 41.8525,
        "longitude": -72.64417
      },
      {
        "numJobs": 69,
        "name": "Vernon Hills, IL",
        "stateAbbreviation": "IL",
        "stateName": "Illinois",
        "id": 1128989,
        "latitude": 42.21944,
        "longitude": -87.97944
      },
      {
        "numJobs": 69,
        "name": "Chesapeake, VA",
        "stateAbbreviation": "VA",
        "stateName": "Virginia",
        "id": 1130279,
        "latitude": 36.81889,
        "longitude": -76.27528
      },
      {
        "numJobs": 69,
        "name": "Cupertino, CA",
        "stateAbbreviation": "CA",
        "stateName": "California",
        "id": 1147422,
        "latitude": 37.32306,
        "longitude": -122.03111
      },
      {
        "numJobs": 69,
        "name": "Universal City, CA",
        "stateAbbreviation": "CA",
        "stateName": "California",
        "id": 1146898,
        "latitude": 34.13889,
        "longitude": -118.3525
      },
      {
        "numJobs": 68,
        "name": "Mechanicsburg, PA",
        "stateAbbreviation": "PA",
        "stateName": "Pennsylvania",
        "id": 1152196,
        "latitude": 40.21506,
        "longitude": -77.00858
      },
      {
        "numJobs": 68,
        "name": "Woodlawn, MD",
        "stateAbbreviation": "MD",
        "stateName": "Maryland",
        "id": 1165812,
        "latitude": 39.32278,
        "longitude": -76.72833
      },
      {
        "numJobs": 68,
        "name": "Santa Rosa, CA",
        "stateAbbreviation": "CA",
        "stateName": "California",
        "id": 1147518,
        "latitude": 38.44056,
        "longitude": -122.71333
      },
      {
        "numJobs": 68,
        "name": "Davis, CA",
        "stateAbbreviation": "CA",
        "stateName": "California",
        "id": 1147176,
        "latitude": 38.545,
        "longitude": -121.73944
      },
      {
        "numJobs": 67,
        "name": "Woonsocket, RI",
        "stateAbbreviation": "RI",
        "stateName": "Rhode Island",
        "id": 1151308,
        "latitude": 42.00278,
        "longitude": -71.51528
      },
      {
        "numJobs": 67,
        "name": "Gardnerville, NV",
        "stateAbbreviation": "NV",
        "stateName": "Nevada",
        "id": 1149590,
        "latitude": 38.94139,
        "longitude": -119.74861
      },
      {
        "numJobs": 67,
        "name": "Centennial, CO",
        "stateAbbreviation": "CO",
        "stateName": "Colorado",
        "id": 1164284,
        "latitude": 39.57917,
        "longitude": -104.87639
      },
      {
        "numJobs": 67,
        "name": "Bloomfield, CT",
        "stateAbbreviation": "CT",
        "stateName": "Connecticut",
        "id": 1148366,
        "latitude": 41.82639,
        "longitude": -72.73056
      },